     3.02           OBSERVATION DATA    G                   RINEX VERSION / TYPE
G = GPS  R = GLONASS  E = GALILEO  S = GEO  M = MIXED       COMMENT             
GNSS-SDR            suhjw               20250806 054354 UTC PGM / RUN BY / DATE 
GPS OBSERVATION DATA FILE GENERATED BY GNSS-SDR             COMMENT             
GNSS-SDR VERSION 0.0.20                                     COMMENT             
See https://gnss-sdr.org                                    COMMENT             
DEFAULT MARKER NAME                                         MARKER NAME         
suhjw               CTTC                                    OBSERVER / AGENCY   
GNSS-SDR            Software Receiver   0.0.20              REC # / TYPE / VERS 
Antenna number      Antenna type                            ANT # / TYPE        
        0.0000        0.0000        0.0000                  APPROX POSITION XYZ 
        0.0000        0.0000        0.0000                  ANTENNA: DELTA H/E/N
G    4 C1C L1C D1C S1C                                      SYS / # / OBS TYPES 
DBHZ                                                        SIGNAL STRENGTH UNIT
  2025    08    06    05    44   12.1000000     GPS         TIME OF FIRST OBS   
                                                            END OF HEADER       
> 2025 08 06 05 44 13.0000000  0  8                                             
G05  22602759.768 7 118778302.939 7     -2290.392 7        47.063               
G13  22272767.267 7 117044187.472 7     -2662.654 7        46.022               
G14  25330648.674 6 133113468.828 6       242.279 6        39.590               
G15  20550118.278 7 107991596.698 7      -689.527 7        45.290               
G18  21660318.799 7 113825742.176 7       445.535 7        43.587               
G21  25442102.255 6 133699158.233 6     -2937.183 6        40.227               
G22  25297828.961 7 132940986.367 7       804.670 7        42.849               
G24  21213269.224 7 111476471.891 7      2385.206 7        42.793               
> 2025 08 06 05 44 14.0000000  0  8                                             
G05  22603194.468 7 118780593.625 7     -2290.402 7        47.138               
G13  22273274.390 7 117046850.160 7     -2662.728 7        45.979               
G14  25330603.554 6 133113227.084 6       241.972 6        39.520               
G15  20550250.080 7 107992286.491 7      -689.849 7        45.508               
G18  21660235.226 7 113825296.978 7       445.080 7        43.377               
G21  25442662.788 6 133702095.282 6     -2936.521 6        39.937               
G22  25297676.216 7 132940181.771 7       804.552 7        42.828               
G24  21212818.370 7 111474087.141 7      2384.555 7        42.872               
> 2025 08 06 05 44 15.0000000  0  8                                             
G05  22603630.704 7 118782884.688 7     -2290.976 7        47.199               
G13  22273780.387 7 117049513.062 7     -2663.047 7        46.192               
G14  25330554.575 6 133112985.916 6       240.727 6        40.156               
G15  20550381.900 7 107992976.685 7      -690.243 7        45.607               
G18  21660150.920 7 113824852.530 7       443.959 7        42.834               
G21  25443223.608 6 133705032.546 6     -2936.817 6        40.553               
G22  25297523.186 7 132939377.685 7       804.098 7        43.020               
G24  21212365.945 7 111471703.024 7      2383.883 7        43.233               
> 2025 08 06 05 44 16.0000000  0  8                                             
G05  22604067.512 7 118785176.064 7     -2291.514 7        47.254               
G13  22274287.117 7 117052176.092 7     -2662.992 7        46.479               
G14  25330511.064 6 133112745.228 6       240.052 6        39.998               
G15  20550513.845 7 107993667.214 7      -690.567 7        44.840               
G18  21660066.614 7 113824408.757 7       443.649 7        42.742               
G21  25443785.285 6 133707969.927 6     -2937.136 6        40.637               
G22  25297371.406 7 132938574.038 7       803.254 7        42.817               
G24  21211913.251 7 111469319.453 7      2383.220 7        43.127               
> 2025 08 06 05 44 17.0000000  0  8                                             
G05  22604503.981 7 118787467.747 7     -2291.699 7        47.307               
G13  22274793.668 7 117054839.255 7     -2663.044 7        46.228               
G14  25330466.374 6 133112505.020 6       240.255 6        40.192               
G15  20550645.790 7 107994358.057 7      -690.530 7        44.769               
G18  21659979.466 7 113823965.650 7       442.419 7        42.659               
G21  25444343.638 6 133710907.438 6     -2937.933 6        40.897               
G22  25297217.894 7 132937770.813 7       802.728 7        42.853               
G24  21211460.897 7 111466936.431 7      2382.916 7        43.710               
> 2025 08 06 05 44 18.0000000  0  8                                             
G05  22604940.629 7 118789759.782 7     -2292.090 7        47.670               
G13  22275301.041 7 117057502.579 7     -2663.445 7        46.516               
G14  25330423.220 6 133112265.347 6       238.964 6        40.245               
G15  20550777.395 7 107995049.273 7      -691.559 7        44.952               
G18  21659893.034 6 113823523.259 6       442.341 6        41.620               
G21  25444902.349 6 133713845.104 6     -2937.627 6        41.103               
G22  25297064.560 7 132936968.060 7       802.305 7        42.642               
G24  21211009.239 7 111464553.988 7      2382.058 7        43.500               
> 2025 08 06 05 44 19.0000000  0  8                                             
G05  22605377.151 8 118792052.137 8     -2292.579 8        48.158               
G13  22275809.719 7 117060166.050 7     -2663.815 7        46.438               
G14  25330378.029 6 133112026.177 6       238.545 6        40.284               
G15  20550909.483 7 107995740.817 7      -691.801 7        45.223               
G18  21659805.905 6 113823081.553 6       441.175 6        41.331               
G21  25445460.309 6 133716782.920 6     -2938.084 6        40.471               
G22  25296910.743 6 132936165.730 6       802.323 6        41.787               
G24  21210552.614 7 111462172.113 7      2381.640 7        43.446               
> 2025 08 06 05 44 20.0000000  0  8                                             
G05  22605812.315 7 118794344.827 7     -2292.712 7        47.955               
G13  22276316.842 7 117062829.671 7     -2663.679 7        46.769               
G14  25330333.107 6 133111787.514 6       237.743 6        40.485               
G15  20551040.427 7 107996432.710 7      -691.991 7        45.577               
G18  21659721.956 6 113822640.540 6       440.817 6        41.682               
G21  25446016.697 6 133719720.880 6     -2938.280 6        40.540               
G22  25296758.553 6 132935363.870 6       801.689 6        41.512               
G24  21210097.705 7 111459790.813 7      2381.112 7        43.268               
> 2025 08 06 05 44 21.0000000  0  8                                             
G05  22606248.963 7 118796637.853 7     -2293.443 7        47.782               
G13  22276823.839 7 117065493.453 7     -2664.087 7        46.265               
G14  25330286.004 6 133111549.360 6       237.541 6        40.267               
G15  20551171.925 7 107997124.955 7      -692.320 7        45.839               
G18  21659637.650 6 113822200.231 6       439.886 6        41.466               
G21  25446576.229 6 133722658.987 6     -2938.870 6        40.387               
G22  25296606.720 6 132934562.463 6       801.186 6        41.662               
G24  21209644.582 7 111457410.089 7      2380.118 7        42.991               
> 2025 08 06 05 44 22.0000000  0  8                                             
G05  22606684.484 7 118798931.207 7     -2293.453 7        47.641               
G13  22277331.516 7 117068157.388 7     -2663.868 7        46.581               
G14  25330240.206 6 133111311.723 6       237.164 6        39.650               
G15  20551303.977 7 107997817.542 7      -692.779 7        45.704               
G18  21659555.649 6 113821760.625 6       438.886 6        41.474               
G21  25447137.442 6 133725597.236 6     -2938.447 6        40.649               
G22  25296455.548 6 132933761.510 6       800.307 6        41.811               
G24  21209189.351 7 111455029.933 7      2380.202 7        42.983               
> 2025 08 06 05 44 23.0000000  0  8                                             
G05  22607120.185 7 118801224.931 7     -2293.707 7        47.494               
G13  22277838.157 7 117070821.506 7     -2664.264 7        45.695               
G14  25330193.121 6 133111074.608 6       236.352 6        38.992               
G15  20551435.315 7 107998510.507 7      -693.402 7        44.844               
G18  21659473.344 6 113821321.730 6       438.016 6        41.521               
G21  25447698.940 6 133728535.682 6     -2937.996 6        41.158               
G22  25296301.892 7 132932961.035 7       800.192 7        42.077               
G24  21208735.352 7 111452650.372 7      2379.438 7        42.393               
> 2025 08 06 05 44 24.0000000  0  8                                             
G05  22607556.046 7 118803518.953 7     -2294.328 7        47.551               
G13  22278345.690 7 117073485.732 7     -2664.418 7        46.104               
G14  25330144.463 6 133110837.980 6       236.384 6        39.427               
G15  20551566.741 7 107999203.790 7      -693.479 7        45.123               
G18  21659387.537 6 113820883.505 6       437.792 6        41.201               
G21  25448258.830 6 133731474.229 6     -2938.607 6        41.573               
G22  25296146.789 6 132932160.972 6       799.824 6        41.938               
G24  21208282.408 7 111450271.349 7      2378.600 7        42.715               
> 2025 08 06 05 44 25.0000000  0  8                                             
G05  22607993.873 7 118805813.299 7     -2294.605 7        47.361               
G13  22278852.831 7 117076150.103 7     -2664.543 7        46.842               
G14  25330099.415 6 133110601.848 6       236.152 6        39.087               
G15  20551697.293 7 107999897.409 7      -693.640 7        45.630               
G18  21659303.374 6 113820445.973 6       437.022 6        41.211               
G21  25448817.452 6 133734412.922 6     -2938.646 6        41.694               
G22  25295992.186 6 132931361.353 6       799.640 6        41.708               
G24  21207831.912 7 111447892.890 7      2378.118 7        42.639               
> 2025 08 06 05 44 26.0000000  0  8                                             
G05  22608429.698 7 118808107.965 7     -2294.592 7        47.383               
G13  22279358.775 7 117078814.619 7     -2664.527 7        46.618               
G14  25330058.656 6 133110366.227 6       234.473 6        38.891               
G15  20551829.613 7 108000591.366 7      -693.987 7        45.646               
G18  21659219.729 6 113820009.118 6       436.453 6        41.492               
G21  25449372.910 6 133737351.740 6     -2938.835 6        41.384               
G22  25295837.351 6 132930562.169 6       799.087 6        40.883               
G24  21207380.898 7 111445514.992 7      2378.242 7        42.873               
> 2025 08 06 05 44 27.0000000  0  8                                             
G05  22608867.704 7 118810402.952 7     -2294.881 7        47.507               
G13  22279864.522 7 117081479.282 7     -2664.749 7        46.216               
G14  25330016.485 6 133110131.095 6       235.052 6        39.198               
G15  20551963.166 7 108001285.664 7      -694.636 7        46.073               
G18  21659138.228 6 113819572.957 6       435.748 6        41.285               
G21  25449932.479 6 133740290.712 6     -2938.538 6        41.325               
G22  25295683.052 6 132929763.437 6       798.608 6        40.594               
G24  21206928.758 7 111443137.656 7      2377.027 7        42.925               
> 2025 08 06 05 44 28.0000000  0  8                                             
G05  22609305.209 7 118812698.296 7     -2295.746 7        47.827               
G13  22280373.467 7 117084144.090 7     -2665.057 7        46.479               
G14  25329973.117 6 133109896.477 6       234.580 6        39.014               
G15  20552098.613 7 108001980.309 7      -695.138 7        46.024               
G18  21659055.620 6 113819137.485 6       435.127 6        41.141               
G21  25450492.637 6 133743229.818 6     -2938.809 6        41.092               
G22  25295531.094 6 132928965.155 6       798.045 6        40.340               
G24  21206477.923 7 111440760.912 7      2376.590 7        43.496               
> 2025 08 06 05 44 29.0000000  0  8                                             
G05  22609743.500 7 118814994.025 7     -2296.115 7        47.734               
G13  22280881.805 7 117086809.101 7     -2665.033 7        46.749               
G14  25329929.231 6 133109662.430 6       234.159 6        39.150               
G15  20552232.577 7 108002675.361 7      -695.524 7        46.130               
G18  21658974.191 6 113818702.760 6       434.084 6        41.273               
G21  25451049.275 6 133746169.115 6     -2940.037 6        40.956               
G22  25295381.744 6 132928167.383 6       797.135 6        40.429               
G24  21206029.125 7 111438384.780 7      2375.435 7        43.469               
> 2025 08 06 05 44 30.0000000  0  8                                             
G05  22610180.827 7 118817290.076 7     -2296.183 7        47.623               
G13  22281389.125 7 117089474.272 7     -2665.248 7        46.320               
G14  25329883.611 6 133109428.884 6       233.508 6        39.486               
G15  20552365.004 7 108003370.746 7      -695.566 7        45.963               
G18  21658892.529 6 113818268.732 6       433.609 6        41.294               
G21  25451610.987 6 133749108.572 6     -2938.956 6        40.668               
G22  25295231.716 6 132927370.060 6       797.019 6        40.701               
G24  21205576.592 7 111436009.225 7      2375.071 7        43.663               
> 2025 08 06 05 44 31.0000000  0  8                                             
G05  22610618.386 7 118819586.510 7     -2296.531 7        47.614               
G13  22281896.033 7 117092139.630 7     -2665.178 7        45.614               
G14  25329836.866 6 133109195.896 6       232.445 6        38.930               
G15  20552499.701 7 108004066.537 7      -695.750 7        45.615               
G18  21658811.011 6 113817835.449 6       432.488 6        41.683               
G21  25452170.538 6 133752048.225 6     -2939.568 6        40.310               
G22  25295082.617 6 132926573.249 6       797.296 6        40.747               
G24  21205123.183 7 111433634.299 7      2375.048 7        43.609               
> 2025 08 06 05 44 32.0000000  0  8                                             
G05  22611055.283 7 118821883.242 7     -2297.030 7        47.568               
G13  22282403.406 7 117094805.117 7     -2665.434 7        46.267               
G14  25329787.262 6 133108963.389 6       231.520 6        38.059               
G15  20552633.611 7 108004762.637 7      -696.092 7        45.918               
G18  21658728.099 6 113817402.831 6       432.356 6        41.374               
G21  25452728.230 6 133754988.012 6     -2939.771 6        40.278               
G22  25294930.355 6 132925776.860 6       796.635 6        40.589               
G24  21204672.884 7 111431259.911 7      2374.431 7        43.852               
> 2025 08 06 05 44 33.0000000  0  8                                             
G05  22611492.556 7 118824180.265 7     -2297.187 7        47.521               
G13  22282910.350 7 117097470.717 7     -2665.603 7        46.376               
G14  25329744.930 6 133108731.341 6       232.577 6        37.516               
G15  20552766.432 7 108005459.042 7      -696.735 7        45.904               
G18  21658646.419 6 113816970.853 6       431.947 6        41.313               
G21  25453287.155 6 133757927.881 6     -2939.419 6        39.960               
G22  25294777.861 6 132924980.872 6       795.661 6        40.692               
G24  21204220.118 7 111428886.052 7      2373.382 7        43.569               
> 2025 08 06 05 44 34.0000000  0  8                                             
G05  22611929.221 7 118826477.603 7     -2297.392 7        47.654               
G13  22283416.186 7 117100136.463 7     -2665.899 7        46.734               
G14  25329705.421 6 133108499.797 6       231.053 6        38.400               
G15  20552898.091 7 108006155.792 7      -697.228 7        45.958               
G18  21658567.027 6 113816539.566 6       430.778 6        41.808               
G21  25453847.832 6 133760867.903 6     -2939.648 6        40.117               
G22  25294627.278 6 132924185.331 6       795.557 6        41.220               
G24  21203766.745 7 111426512.753 7      2372.955 7        43.851               
> 2025 08 06 05 44 35.0000000  0  8                                             
G05  22612365.833 7 118828775.229 7     -2298.070 7        47.760               
G13  22283921.683 7 117102802.321 7     -2665.743 7        46.727               
G14  25329664.698 6 133108268.735 6       230.444 6        38.507               
G15  20553028.499 7 108006852.851 7      -697.375 7        46.313               
G18  21658487.796 6 113816108.930 6       430.369 6        41.935               
G21  25454406.078 6 133763808.020 6     -2939.949 6        39.398               
G22  25294476.178 6 132923390.201 6       794.399 6        41.428               
G24  21203311.568 7 111424139.973 7      2372.233 7        43.474               
> 2025 08 06 05 44 36.0000000  0  8                                             
G05  22612802.087 7 118831073.230 7     -2298.178 7        47.249               
G13  22284427.752 7 117105468.371 7     -2666.127 7        46.043               
G14  25329622.670 6 133108038.227 6       229.927 6        39.105               
G15  20553160.051 7 108007550.286 7      -697.617 7        46.165               
G18  21658409.011 6 113815679.026 6       429.490 6        41.975               
G21  25454967.523 6 133766748.328 6     -2940.503 6        39.389               
G22  25294324.524 6 132922595.578 6       794.272 6        41.355               
G24  21202860.661 7 111421767.816 7      2371.464 7        43.302               
> 2025 08 06 05 44 37.0000000  0  8                                             
G05  22613238.699 7 118833371.565 7     -2298.400 7        47.129               
G13  22284935.411 7 117108134.571 7     -2666.205 7        46.129               
G14  25329581.142 6 133107808.228 6       230.167 6        39.657               
G15  20553291.388 7 108008248.076 7      -697.684 7        45.558               
G18  21658326.635 6 113815249.818 6       428.850 6        41.682               
G21  25455526.001 6 133769688.790 6     -2940.635 6        39.036               
G22  25294174.424 6 132921801.399 6       794.014 6        41.931               
G24  21202409.075 7 111419396.235 7      2371.181 7        43.045               
> 2025 08 06 05 44 38.0000000  0  8                                             
G05  22613676.079 7 118835670.157 7     -2298.700 7        47.444               
G13  22285443.034 7 117110800.854 7     -2666.162 7        45.737               
G14  25329537.542 6 133107578.669 6       229.551 6        39.620               
G15  20553423.583 7 108008946.139 7      -698.171 7        45.436               
G18  21658245.063 6 113814821.241 6       428.264 6        41.906               
G21  25456085.641 6 133772629.328 6     -2940.894 6        39.424               
G22  25294022.519 6 132921007.612 6       793.249 6        41.904               
G24  21201957.007 7 111417025.147 7      2370.902 7        42.865               
> 2025 08 06 05 44 39.0000000  0  8                                             
G05  22614112.852 7 118837969.087 7     -2299.160 7        47.361               
G13  22285949.835 7 117113467.314 7     -2666.658 7        45.695               
G14  25329493.191 6 133107349.630 6       228.386 6        38.898               
G15  20553556.136 7 108009644.566 7      -698.629 7        45.511               
G18  21658160.114 7 113814393.376 7       427.574 7        42.030               
G21  25456641.939 6 133775570.028 6     -2940.582 6        39.442               
G22  25293870.382 6 132920214.277 6       792.835 6        41.243               
G24  21201506.564 7 111414654.653 7      2370.216 7        42.873               
> 2025 08 06 05 44 40.0000000  0  8                                             
G05  22614550.482 7 118840268.322 7     -2299.359 7        47.454               
G13  22286458.441 7 117116133.881 7     -2666.597 7        45.589               
G14  25329445.731 6 133107121.053 6       228.058 6        38.783               
G15  20553689.081 7 108010343.300 7      -698.829 7        45.252               
G18  21658075.343 6 113813966.179 6       426.783 6        41.805               
G21  25457201.150 6 133778510.850 6     -2941.345 6        39.173               
G22  25293717.370 6 132919421.361 6       792.913 6        40.581               
G24  21201054.710 7 111412284.692 7      2369.430 7        42.764               
> 2025 08 06 05 44 41.0000000  0  8                                             
G05  22614989.166 7 118842567.914 7     -2299.552 7        47.681               
G13  22286967.333 7 117118800.628 7     -2666.989 7        45.787               
G14  25329399.379 6 133106893.017 6       228.081 6        38.846               
G15  20553822.187 7 108011042.400 7      -699.203 7        45.397               
G18  21657989.983 6 113813539.701 6       426.062 6        40.915               
G21  25457764.614 6 133781451.832 6     -2940.726 6        38.695               
G22  25293566.770 6 132918628.926 6       792.759 6        41.334               
G24  21200605.537 7 111409915.341 7      2369.277 7        42.522               
> 2025 08 06 05 44 42.0000000  0  8                                             
G05  22615427.690 7 118844867.796 7     -2299.764 7        47.888               
G13  22287474.653 7 117121467.488 7     -2667.124 7        45.798               
G14  25329354.295 6 133106665.455 6       227.852 6        38.715               
G15  20553955.794 7 108011741.824 7      -699.612 7        45.560               
G18  21657907.410 6 113813113.868 6       425.654 6        40.616               
G21  25458324.647 6 133784392.924 6     -2940.457 6        38.465               
G22  25293416.188 6 132917836.919 6       792.544 6        41.342               
G24  21200155.988 7 111407546.523 7      2368.511 7        42.748               
> 2025 08 06 05 44 43.0000000  0  8                                             
G05  22615866.053 7 118847167.992 7     -2300.482 7        47.742               
G13  22287981.918 7 117124134.469 7     -2667.147 7        46.090               
G14  25329311.981 6 133106438.384 6       226.440 6        38.529               
G15  20554087.971 7 108012441.569 7      -700.101 7        46.276               
G18  21657827.143 6 113812688.725 6       424.752 6        40.860               
G21  25458882.822 6 133787334.146 6     -2941.409 6        38.618               
G22  25293270.287 6 132917045.326 6       791.537 6        40.662               
G24  21199707.368 7 111405178.264 7      2367.628 7        43.482               
> 2025 08 06 05 44 44.0000000  0  8                                             
G05  22616304.058 7 118849468.541 7     -2300.556 7        47.629               
G13  22288489.881 7 117126801.645 7     -2667.035 7        45.939               
G14  25329272.205 6 133106211.846 6       226.499 6        38.450               
G15  20554219.934 7 108013141.689 7      -700.392 7        45.724               
G18  21657749.305 6 113812264.295 6       423.654 6        40.894               
G21  25459443.427 6 133790275.541 6     -2941.172 6        38.895               
G22  25293118.793 6 132916254.222 6       791.032 6        41.147               
G24  21199257.998 7 111402810.605 7      2367.663 7        43.527               
> 2025 08 06 05 44 45.0000000  0  8                                             
G05  22616742.993 7 118851769.377 7     -2301.180 7        47.832               
G13  22288998.416 7 117129468.913 7     -2667.206 7        45.640               
G14  25329231.213 6 133105985.795 6       225.825 6        38.102               
G15  20554352.326 7 108013842.117 7      -700.585 7        45.504               
G18  21657670.038 6 113811840.526 6       423.561 6        41.429               
G21  25460002.084 6 133793217.040 6     -2942.838 6        38.908               
G22  25292970.373 6 132915463.533 6       790.149 6        41.663               
G24  21198808.592 7 111400443.473 7      2366.902 7        43.745               
> 2025 08 06 05 44 46.0000000  0  8                                             
G05  22617179.766 7 118854070.589 7     -2301.388 7        47.878               
G13  22289505.753 7 117132136.383 7     -2667.680 7        45.813               
G14  25329187.166 6 133105760.278 6       224.213 6        38.204               
G15  20554486.236 7 108014542.934 7      -701.181 7        45.238               
G18  21657587.251 6 113811417.479 6       422.342 6        41.244               
G21  25460559.598 6 133796158.727 6     -2941.470 6        39.138               
G22  25292819.773 6 132914673.331 6       789.982 6        41.487               
G24  21198358.024 7 111398076.953 7      2366.412 7        43.656               
> 2025 08 06 05 44 47.0000000  0  8                                             
G05  22617617.110 7 118856372.133 7     -2301.746 7        47.736               
G13  22290014.698 7 117134804.001 7     -2667.751 7        45.707               
G14  25329140.260 6 133105535.280 6       223.995 6        37.726               
G15  20554619.932 7 108015244.096 7      -701.681 7        45.541               
G18  21657504.875 6 113810995.132 6       422.060 6        40.773               
G21  25461121.614 6 133799100.560 6     -2942.333 6        39.320               
G22  25292669.530 6 132913883.577 6       790.088 6        41.490               
G24  21197909.298 7 111395711.014 7      2365.748 7        43.793               
> 2025 08 06 05 44 48.0000000  0  8                                             
G05  22618054.097 8 118858674.031 8     -2301.988 8        48.045               
G13  22290523.269 7 117137471.792 7     -2667.936 7        45.643               
G14  25329096.463 6 133105310.808 6       223.745 6        37.682               
G15  20554754.111 7 108015945.640 7      -701.697 7        45.126               
G18  21657423.803 6 113810573.515 6       421.404 6        40.942               
G21  25461680.629 6 133802042.579 6     -2942.154 6        39.727               
G22  25292517.769 6 132913094.306 6       789.443 6        41.859               
G24  21197459.159 7 111393345.660 7      2364.777 7        43.766               
> 2025 08 06 05 44 49.0000000  0  8                                             
G05  22618491.048 8 118860976.235 8     -2302.647 8        48.153               
G13  22291030.820 7 117140139.719 7     -2668.227 7        45.894               
G14  25329055.525 6 133105086.815 6       223.507 6        37.517               
G15  20554889.040 7 108016647.505 7      -701.956 7        45.231               
G18  21657346.126 6 113810152.559 6       420.534 6        40.942               
G21  25462242.216 6 133804984.709 6     -2942.511 6        40.239               
G22  25292368.044 6 132912305.460 6       788.521 6        41.799               
G24  21197007.555 7 111390980.861 7      2364.271 7        43.947               
> 2025 08 06 05 44 50.0000000  0  8                                             
G05  22618929.697 7 118863278.818 7     -2302.677 7        47.557               
G13  22291535.710 7 117142807.845 7     -2667.784 7        45.990               
G14  25329014.748 6 133104863.393 6       222.555 6        37.459               
G15  20555025.523 7 108017349.753 7      -702.381 7        45.295               
G18  21657267.056 6 113809732.352 6       419.283 6        40.838               
G21  25462803.661 6 133807927.029 6     -2941.974 6        39.750               
G22  25292216.747 6 132911517.129 6       788.762 6        41.963               
G24  21196555.076 7 111388616.680 7      2363.947 7        43.605               
> 2025 08 06 05 44 51.0000000  0  8                                             
G05  22619368.042 8 118865581.735 8     -2303.072 8        48.010               
G13  22292042.886 7 117145476.126 7     -2668.409 7        46.079               
G14  25328976.151 6 133104640.484 6       222.135 6        37.671               
G15  20555161.024 7 108018052.355 7      -702.549 7        46.015               
G18  21657190.487 6 113809312.831 6       419.201 6        41.407               
G21  25463362.872 6 133810869.501 6     -2942.787 6        39.354               
G22  25292068.524 7 132910729.255 7       787.900 7        42.043               
G24  21196103.954 7 111386253.070 7      2363.235 7        43.560               
> 2025 08 06 05 44 52.0000000  0  8                                             
G05  22619806.655 7 118867884.999 7     -2303.133 7        47.987               
G13  22292549.294 7 117148144.576 7     -2668.683 7        46.314               
G14  25328937.393 6 133104418.102 6       222.452 6        37.750               
G15  20555294.774 7 108018755.318 7      -703.129 7        46.181               
G18  21657114.579 6 113808894.031 6       418.669 6        41.497               
G21  25463919.564 6 133813812.134 6     -2942.699 6        39.326               
G22  25291919.103 6 132909941.849 6       787.236 6        41.771               
G24  21195654.620 7 111383890.057 7      2362.941 7        43.815               
> 2025 08 06 05 44 53.0000000  0  8                                             
G05  22620246.733 8 118870188.501 8     -2303.963 8        48.534               
G13  22293055.881 7 117150813.087 7     -2668.653 7        45.876               
G14  25328894.329 6 133104196.149 6       221.702 6        37.586               
G15  20555427.487 7 108019458.536 7      -703.118 7        46.642               
G18  21657035.723 6 113808475.837 6       417.758 6        41.095               
G21  25464477.899 6 133816754.829 6     -2942.988 6        38.981               
G22  25291768.664 6 132909154.794 6       787.176 6        41.447               
G24  21195205.411 7 111381527.533 7      2361.896 7        43.993               
> 2025 08 06 05 44 54.0000000  0  8                                             
G05  22620686.865 8 118872492.403 8     -2303.875 8        48.105               
G13  22293563.201 7 117153481.826 7     -2668.938 7        45.954               
G14  25328847.047 6 133103974.770 6       220.166 6        37.596               
G15  20555561.004 7 108020162.179 7      -703.904 7        46.402               
G18  21656954.330 6 113808058.415 6       417.442 6        40.576               
G21  25465038.379 6 133819697.750 6     -2943.685 6        38.880               
G22  25291617.170 6 132908368.267 6       786.176 6        41.206               
G24  21194755.415 7 111379165.664 7      2361.749 7        43.662               
> 2025 08 06 05 44 55.0000000  0  8                                             
G05  22621124.549 8 118874796.567 8     -2304.317 8        48.191               
G13  22294069.966 7 117156150.656 7     -2668.884 7        45.889               
G14  25328804.108 6 133103753.843 6       220.589 6        38.265               
G15  20555694.307 7 108020866.111 7      -703.953 7        46.209               
G18  21656872.883 6 113807641.628 6       416.504 6        41.023               
G21  25465601.736 6 133822640.755 6     -2943.460 6        38.515               
G22  25291470.448 6 132907582.132 6       785.825 6        41.317               
G24  21194304.454 7 111376804.304 7      2361.256 7        43.697               
> 2025 08 06 05 44 56.0000000  0  8                                             
G05  22621561.876 8 118877101.105 8     -2304.755 8        48.424               
G13  22294577.071 7 117158819.676 7     -2669.340 7        45.696               
G14  25328758.310 6 133103533.471 6       220.298 6        37.693               
G15  20555828.289 7 108021570.414 7      -704.601 7        46.142               
G18  21656791.025 6 113807225.565 6       415.704 6        41.549               
G21  25466163.002 6 133825583.947 6     -2943.010 6        38.249               
G22  25291325.851 6 132906796.493 6       785.280 6        41.310               
G24  21193855.978 7 111374443.558 7      2360.290 7        43.614               
> 2025 08 06 05 44 57.0000000  0  8                                             
G05  22621999.720 8 118879406.012 8     -2305.142 8        48.380               
G13  22295085.927 7 117161488.878 7     -2669.299 7        45.912               
G14  25328712.100 6 133103313.622 6       219.141 6        37.090               
G15  20555961.735 7 108022275.097 7      -704.938 7        46.045               
G18  21656712.562 6 113806810.240 6       415.390 6        41.115               
G21  25466724.214 6 133828527.319 6     -2943.298 6        37.872               
G22  25291177.985 6 132906011.342 6       785.323 6        41.973               
G24  21193408.931 7 111372083.417 7      2359.979 7        43.844               
> 2025 08 06 05 44 58.0000000  0  8                                             
G05  22622438.137 8 118881711.197 8     -2305.496 8        48.385               
G13  22295596.302 7 117164158.190 7     -2669.348 7        45.810               
G14  25328671.341 6 133103094.241 6       219.717 6        36.814               
G15  20556096.003 7 108022980.096 7      -705.520 7        45.801               
G18  21656636.333 6 113806395.565 6       414.175 6        41.352               
G21  25467276.438 6 133831470.801 6     -2943.798 6        37.516               
G22  25291028.636 6 132905226.605 6       784.499 6        41.774               
G24  21192960.275 7 111369723.801 7      2359.358 7        44.137               
> 2025 08 06 05 44 59.0000000  0  8                                             
G05  22622875.785 8 118884016.750 8     -2305.653 8        48.303               
G13  22296103.818 7 117166827.686 7     -2669.477 7        45.718               
G14  25328633.798 6 133102875.413 6       217.533 6        37.217               
G15  20556229.341 7 108023685.466 7      -705.597 7        46.051               
G18  21656557.977 6 113805981.620 6       413.600 6        41.569               
G21  25467832.647 6 133834414.459 6     -2943.835 6        37.655               
G22  25290876.696 7 132904442.357 7       784.226 7        42.214               
G24  21192514.175 7 111367364.790 7      2358.913 7        44.095               
> 2025 08 06 05 45 00.0000000  0  8                                             
G05  22623314.201 7 118886322.622 7     -2306.000 7        47.682               
G13  22296612.478 7 117169497.320 7     -2669.672 7        45.781               
G14  25328595.666 6 133102657.088 6       217.747 6        37.585               
G15  20556363.699 7 108024391.174 7      -705.828 7        46.113               
G18  21656479.622 6 113805568.357 6       412.906 6        41.474               
G21  25468393.306 6 133837358.240 6     -2944.419 6        37.443               
G22  25290724.791 6 132903658.555 6       783.499 6        41.782               
G24  21192068.093 7 111365006.344 7      2358.421 7        44.564               
> 2025 08 06 05 45 01.0000000  0  8                                             
G05  22623753.404 7 118888628.824 7     -2306.550 7        47.654               
G13  22297122.978 7 117172167.089 7     -2670.085 7        45.993               
G14  25328553.781 6 133102439.271 6       217.880 6        37.951               
G15  20556497.770 7 108025097.236 7      -706.086 7        45.905               
G18  21656397.728 6 113805155.781 6       412.484 6        41.542               
G21  25468953.357 6 133840302.179 6     -2944.270 6        37.034               
G22  25290574.584 6 132902875.207 6       783.552 6        41.741               
G24  21191620.116 7 111362648.479 7      2357.857 7        44.899               
> 2025 08 06 05 45 02.0000000  0  8                                             
G05  22624192.071 7 118890935.388 7     -2306.390 7        47.690               
G13  22297629.154 7 117174837.046 7     -2669.921 7        45.919               
G14  25328516.756 6 133102222.009 6       217.504 6        37.728               
G15  20556630.948 7 108025803.658 7      -706.126 7        46.296               
G18  21656318.336 6 113804743.939 6       411.473 6        41.569               
G21  25469516.481 6 133843246.288 6     -2944.437 6        37.586               
G22  25290424.717 6 132902092.324 6       782.890 6        41.878               
G24  21191172.408 7 111360291.221 7      2357.233 7        44.897               
> 2025 08 06 05 45 03.0000000  0  8                                             
G05  22624632.506 7 118893242.252 7     -2306.841 7        47.530               
G13  22298136.563 7 117177507.123 7     -2670.392 7        45.942               
G14  25328474.514 6 133102005.206 6       215.509 6        37.406               
G15  20556766.163 7 108026510.393 7      -706.971 7        46.129               
G18  21656237.121 6 113804332.752 6       410.608 6        41.194               
G21  25470079.409 6 133846190.510 6     -2945.578 6        37.376               
G22  25290276.118 6 132901309.885 6       781.683 6        41.270               
G24  21190723.770 7 111357934.498 7      2356.404 7        45.025               
> 2025 08 06 05 45 04.0000000  0  8                                             
G05  22625071.244 7 118895549.511 7     -2307.567 7        47.731               
G13  22298645.294 7 117180177.413 7     -2670.157 7        45.457               
G14  25328428.876 6 133101788.978 6       216.189 6        37.092               
G15  20556901.413 7 108027217.543 7      -707.300 7        46.085               
G18  21656156.174 6 113803922.336 6       410.170 6        41.221               
G21  25470634.653 6 133849134.940 6     -2944.647 6        37.195               
G22  25290126.840 6 132900527.963 6       781.953 6        41.609               
G24  21190272.703 7 111355578.415 7      2356.155 7        44.348               
> 2025 08 06 05 45 05.0000000  0  8                                             
G05  22625510.268 8 118897857.078 8     -2307.844 8        48.141               
G13  22299153.810 7 117182847.835 7     -2670.308 7        45.524               
G14  25328379.040 6 133101573.238 6       214.169 6        36.353               
G15  20557036.253 7 108027925.009 7      -707.808 7        45.931               
G18  21656078.087 6 113803512.590 6       409.329 6        40.851               
G21  25471197.063 6 133852079.494 6     -2944.195 6        37.095               
G22  25289978.688 6 132899746.475 6       781.309 6        41.509               
G24  21189820.777 7 111353222.886 7      2355.555 7        44.677               
> 2025 08 06 05 45 06.0000000  0  8                                             
G05  22625950.114 7 118900164.998 7     -2308.084 7        47.827               
G13  22299660.594 7 117185518.437 7     -2670.976 7        45.345               
G14  25328332.527 5 133101358.032 5       214.753 5        35.062               
G15  20557170.556 7 108028632.854 7      -708.130 7        45.892               
G18  21656002.930 6 113803103.570 6       408.290 6        40.618               
G21  25471757.042 6 133855024.232 6     -2944.344 6        36.860               
G22  25289829.428 6 132898965.479 6       780.532 6        41.200               
G24  21189370.513 7 111350867.953 7      2354.513 7        44.380               
> 2025 08 06 05 45 07.0000000  0  8                                             
G05  22626389.549 7 118902473.204 7     -2308.276 7        47.812               
G13  22300168.610 7 117188189.141 7     -2670.807 7        45.321               
G14  25328298.915 5 133101143.290 5       214.277 5        35.052               
G15  20557306.164 7 108029341.003 7      -708.209 7        45.923               
G18  21655925.932 6 113802695.189 6       408.125 6        40.438               
G21  25472320.041 6 133857969.069 6     -2943.920 6        36.833               
G22  25289679.024 6 132898184.880 6       780.252 6        41.603               
G24  21188921.501 7 111348513.551 7      2354.355 7        44.157               
> 2025 08 06 05 45 08.0000000  0  8                                             
G05  22626827.180 7 118904781.741 7     -2308.819 7        47.863               
G13  22300676.644 7 117190859.998 7     -2670.989 7        45.187               
G14  25328267.859 5 133100929.066 5       214.153 5        34.818               
G15  20557440.468 7 108030049.490 7      -708.807 7        46.067               
G18  21655845.807 6 113802287.515 6       407.193 6        40.634               
G21  25472881.397 6 133860914.041 6     -2944.881 6        36.911               
G22  25289530.318 6 132897404.738 6       780.148 6        41.610               
G24  21188472.952 7 111346159.730 7      2353.408 7        43.933               
> 2025 08 06 05 45 09.0000000  0  8                                             
G05  22627266.097 7 118907090.637 7     -2308.963 7        47.914               
G13  22301183.713 7 117193531.051 7     -2671.045 7        45.544               
G14  25328231.370 5 133100715.380 5       213.662 5        34.988               
G15  20557574.915 7 108030758.355 7      -708.846 7        46.265               
G18  21655769.078 6 113801880.553 6       406.664 6        40.738               
G21  25473442.681 6 133863859.195 6     -2944.687 6        37.093               
G22  25289384.346 6 132896625.094 6       779.564 6        41.277               
G24  21188023.636 7 111343806.493 7      2352.728 7        43.873               
> 2025 08 06 05 45 10.0000000  0  8                                             
G05  22627705.943 7 118909399.894 7     -2309.315 7        47.857               
G13  22301689.943 7 117196202.256 7     -2671.264 7        44.842               
G14  25328192.165 5 133100502.221 5       212.276 5        35.102               
G15  20557710.255 7 108031467.580 7      -709.528 7        46.051               
G18  21655690.811 6 113801474.308 6       406.191 6        40.514               
G21  25474002.464 6 133866804.493 6     -2944.834 6        36.438               
G22  25289235.819 6 132895845.911 6       778.798 6        41.231               
G24  21187576.428 7 111341453.861 7      2352.500 7        44.473               
> 2025 08 06 05 45 11.0000000  0  8                                             
G05  22628146.378 8 118911709.463 8     -2309.568 8        48.233               
G13  22302198.674 7 117198873.598 7     -2671.256 7        45.070               
G14  25328149.548 5 133100289.571 5       211.852 5        34.424               
G15  20557844.326 7 108032177.138 7      -709.775 7        45.669               
G18  21655615.922 6 113801068.743 6       404.997 6        40.965               
G21  25474559.620 6 133869749.938 6     -2946.845 6        36.263               
G22  25289088.882 6 132895067.170 6       778.479 6        41.323               
G24  21187129.863 7 111339101.790 7      2351.849 7        44.396               
> 2025 08 06 05 45 12.0000000  0  8                                             
G05  22628586.564 8 118914019.359 8     -2310.226 8        48.475               
G13  22302708.334 7 117201545.086 7     -2671.546 7        44.703               
G14  25328106.323 5 133100077.418 5       212.237 5        34.761               
G15  20557978.201 7 108032887.025 7      -710.243 7        45.582               
G18  21655542.284 6 113800663.858 6       405.178 6        41.100               
G21  25475118.152 6 133872695.521 6     -2945.032 6        36.669               
G22  25288941.159 6 132894288.871 6       778.615 6        41.367               
G24  21186682.047 7 111336750.281 7      2351.345 7        44.651               
> 2025 08 06 05 45 13.0000000  0  8                                             
G05  22629026.874 8 118916329.614 8     -2310.442 8        48.654               
G13  22303215.546 7 117204216.729 7     -2671.561 7        44.998               
G14  25328068.494 5 133099865.799 5       211.509 5        34.492               
G15  20558113.701 7 108033597.286 7      -710.397 7        45.987               
G18  21655466.609 6 113800259.713 6       404.055 6        41.789               
G21  25475682.384 6 133875641.275 6     -2945.671 6        36.422               
G22  25288791.345 6 132893511.042 6       777.582 6        41.383               
G24  21186236.233 7 111334399.378 7      2350.812 7        45.244               
> 2025 08 06 05 45 14.0000000  0  8                                             
G05  22629465.720 8 118918640.233 8     -2310.896 8        48.327               
G13  22303724.045 7 117206888.577 7     -2671.829 7        44.356               
G14  25328021.909 5 133099654.708 5       211.332 5        34.008               
G15  20558249.166 7 108034307.935 7      -710.673 7        45.873               
G18  21655388.986 6 113799856.289 6       403.235 6        41.245               
G21  25476244.007 6 133878587.214 6     -2946.406 6        36.302               
G22  25288641.817 6 132892733.714 6       777.374 6        41.203               
G24  21185789.597 7 111332049.085 7      2350.103 7        44.767               
> 2025 08 06 05 45 15.0000000  0  8                                             
G05  22629906.816 8 118920951.202 8     -2311.230 8        48.467               
G13  22304234.974 7 117209560.578 7     -2672.145 7        44.667               
G14  25327981.222 5 133099444.162 5       209.433 5        33.044               
G15  20558384.953 7 108035018.943 7      -711.263 7        46.496               
G18  21655312.685 6 113799453.581 6       402.227 6        41.375               
G21  25476805.220 6 133881533.320 6     -2946.653 6        36.209               
G22  25288492.825 6 132891956.856 6       776.795 6        41.399               
G24  21185344.122 7 111329699.390 7      2349.304 7        44.969               
> 2025 08 06 05 45 16.0000000  0  8                                             
G05  22630347.663 8 118923262.467 8     -2311.491 8        48.936               
G13  22304744.206 7 117212232.695 7     -2672.338 7        45.116               
G14  25327937.550 5 133099234.093 5       209.440 5        33.221               
G15  20558519.042 7 108035730.270 7      -711.598 7        45.892               
G18  21655237.206 6 113799051.530 6       401.417 6        40.522               
G21  25477361.071 5 133884479.523 5     -2945.637 5        35.769               
G22  25288346.210 6 132891180.423 6       775.853 6        40.823               
G24  21184897.986 7 111327350.244 7      2348.889 7        45.244               
> 2025 08 06 05 45 17.0000000  0  8                                             
G05  22630787.027 8 118925574.013 8     -2311.639 8        48.931               
G13  22305252.686 7 117214904.910 7     -2672.572 7        45.519               
G14  25327900.739 5 133099024.489 5       208.737 5        33.361               
G15  20558654.257 7 108036441.878 7      -711.818 7        46.104               
G18  21655160.566 6 113798650.117 6       401.812 6        40.799               
G21  25477918.978 5 133887425.822 5     -2946.223 5        35.521               
G22  25288201.846 6 132890404.384 6       775.765 6        41.284               
G24  21184452.869 7 111325001.610 7      2348.361 7        45.141               
> 2025 08 06 05 45 18.0000000  0  9                                             
G05  22631227.713 8 118927885.893 8     -2312.258 8        48.929               
G13  22305760.363 7 117217577.269 7     -2672.677 7        45.223               
G14  25327867.896 5 133098815.392 5       209.522 5        33.360               
G15  20558789.043 7 108037153.851 7      -712.433 7        45.680               
G18  21655083.640 6 113798249.407 6       399.586 6        41.339               
G21  25478473.704 5 133890372.264 5     -2946.243 5        35.623               
G22  25288056.321 6 132889628.815 6       774.687 6        41.267               
G23  22506184.221 6 118270794.317 6      2620.347 6        39.234               
G24  21184006.340 7 111322653.556 7      2347.672 7        45.066               
> 2025 08 06 05 45 19.0000000  0  9                                             
G05  22631666.326 8 118930198.044 8     -2312.199 8        48.843               
G13  22306271.167 7 117220249.733 7     -2672.664 7        45.160               
G14  25327823.885 5 133098606.779 5       207.595 5        33.623               
G15  20558923.329 7 108037866.112 7      -712.197 7        45.298               
G18  21655006.714 6 113797849.342 6       399.720 6        41.275               
G21  25479037.454 5 133893318.835 5     -2946.595 5        35.381               
G22  25287907.436 6 132888853.652 6       775.325 6        41.406               
G23  22505686.908 6 118268174.113 6      2620.275 6        38.999               
G24  21183559.454 7 111320306.034 7      2347.484 7        45.058               
> 2025 08 06 05 45 20.0000000  0  9                                             
G05  22632106.225 8 118932510.521 8     -2312.635 8        48.541               
G13  22306779.970 7 117222922.340 7     -2672.696 7        44.877               
G14  25327779.570 5 133098398.646 5       207.322 5        33.865               
G15  20559059.205 7 108038578.710 7      -712.867 7        45.513               
G18  21654933.201 6 113797449.971 6       399.149 6        41.125               
G21  25479600.435 5 133896265.518 5     -2946.991 5        35.603               
G22  25287760.052 6 132888078.938 6       774.393 6        41.145               
G23  22505186.039 6 118265554.026 6      2620.290 6        38.973               
G24  21183112.192 7 111317959.070 7      2346.454 7        45.267               
> 2025 08 06 05 45 21.0000000  0  9                                             
G05  22632545.339 8 118934823.340 8     -2312.887 8        48.662               
G13  22307290.238 7 117225595.111 7     -2673.022 7        45.335               
G14  25327739.650 5 133098191.069 5       207.207 5        33.764               
G15  20559194.813 7 108039291.667 7      -713.081 7        45.411               
G18  21654857.096 6 113797051.296 6       398.272 6        41.194               
G21  25480164.221 5 133899212.362 5     -2947.239 5        35.787               
G22  25287613.973 6 132887304.689 6       773.817 6        41.309               
G23  22504685.743 6 118262934.092 6      2619.773 6        38.809               
G24  21182663.697 7 111315612.688 7      2346.230 7        45.218               
> 2025 08 06 05 45 22.0000000  0  9                                             
G05  22632986.453 8 118937136.442 8     -2313.231 8        48.747               
G13  22307797.503 7 117228267.982 7     -2673.250 7        45.172               
G14  25327699.641 5 133097983.907 5       207.243 5        33.861               
G15  20559332.047 7 108040004.921 7      -713.469 7        45.695               
G18  21654781.939 6 113796653.279 6       397.863 6        41.541               
G21  25480727.256 5 133902159.313 5     -2947.065 5        35.401               
G22  25287466.482 7 132886530.844 7       773.825 7        42.335               
G23  22504185.178 6 118260314.253 6      2619.735 6        38.867               
G24  21182217.597 7 111313266.838 7      2345.756 7        44.843               
> 2025 08 06 05 45 23.0000000  0  9                                             
G05  22633427.318 8 118939449.894 8     -2313.569 8        49.055               
G13  22308305.430 7 117230941.014 7     -2673.065 7        45.431               
G14  25327657.042 5 133097777.290 5       206.669 5        33.865               
G15  20559468.102 7 108040718.535 7      -713.728 7        45.683               
G18  21654705.013 6 113796255.978 6       397.148 6        40.882               
G21  25481285.341 5 133905106.402 5     -2947.680 5        34.529               
G22  25287322.118 7 132885757.466 7       773.353 7        42.305               
G23  22503687.490 6 118257694.553 6      2619.694 6        38.693               
G24  21181772.087 7 111310921.577 7      2344.933 7        44.994               
> 2025 08 06 05 45 24.0000000  0  9                                             
G05  22633867.432 8 118941763.720 8     -2314.020 8        49.055               
G13  22308814.287 7 117233614.241 7     -2673.506 7        45.081               
G14  25327622.108 5 133097571.217 5       205.435 5        33.768               
G15  20559604.961 7 108041432.538 7      -714.264 7        45.668               
G18  21654627.140 6 113795859.416 6       396.179 6        40.281               
G21  25481843.766 5 133908053.737 5     -2946.576 5        34.378               
G22  25287179.363 7 132884984.599 7       772.163 7        42.342               
G23  22503188.658 6 118255075.056 6      2618.997 6        38.692               
G24  21181327.738 7 111308576.942 7      2344.438 7        45.220               
> 2025 08 06 05 45 25.0000000  0  9                                             
G05  22634308.832 8 118944077.918 8     -2314.337 8        48.755               
G13  22309322.035 7 117236287.668 7     -2673.392 7        45.261               
G14  25327581.027 5 133097365.720 5       205.641 5        32.771               
G15  20559742.606 7 108042146.936 7      -714.375 7        46.034               
G18  21654551.661 6 113795463.593 6       395.546 6        40.486               
G21  25482408.802 5 133911001.204 5     -2947.307 5        34.219               
G22  25287034.588 7 132884212.229 7       771.920 7        42.337               
G23  22502691.024 6 118252455.735 6      2619.226 6        38.461               
G24  21180881.477 7 111306232.932 7      2343.900 7        44.758               
> 2025 08 06 05 45 26.0000000  0  9                                             
G05  22634750.287 8 118946392.434 8     -2314.815 8        49.042               
G13  22309831.534 7 117238961.235 7     -2673.706 7        44.990               
G14  25327542.466 5 133097160.703 5       204.503 5        33.368               
G15  20559877.302 7 108042861.665 7      -715.377 7        45.938               
G18  21654475.897 6 113795068.467 6       394.704 6        40.357               
G21  25482971.105 5 133913948.855 5     -2947.748 5        34.571               
G22  25286883.880 6 132883440.314 6       771.597 6        41.964               
G23  22502192.531 6 118249836.532 6      2619.702 6        38.096               
G24  21180435.537 7 111303889.486 7      2342.890 7        44.601               
> 2025 08 06 05 45 27.0000000  0  9                                             
G05  22635191.705 8 118948707.310 8     -2314.880 8        48.821               
G13  22310340.194 7 117241634.977 7     -2674.138 7        45.136               
G14  25327517.663 5 133096956.236 5       203.202 5        33.792               
G15  20560012.142 7 108043576.775 7      -715.441 7        45.692               
G18  21654401.758 6 113794674.058 6       394.428 6        40.616               
G21  25483535.176 5 133916896.654 5     -2947.939 5        35.156               
G22  25286734.209 7 132882668.886 7       771.681 7        42.288               
G23  22501694.075 6 118247217.507 6      2618.492 6        37.932               
G24  21179989.616 7 111301546.644 7      2342.256 7        44.550               
> 2025 08 06 05 45 28.0000000  0  9                                             
G05  22635631.569 8 118951022.466 8     -2315.120 8        49.275               
G13  22310848.925 7 117244308.821 7     -2673.546 7        45.047               
G14  25327485.964 5 133096752.242 5       204.302 5        33.868               
G15  20560147.071 7 108044292.170 7      -715.475 7        46.299               
G18  21654328.424 6 113794280.286 6       393.713 6        40.705               
G21  25484093.512 5 133919844.536 5     -2949.151 5        35.278               
G22  25286587.129 7 132881897.847 7       770.840 7        42.449               
G23  22501196.208 6 118244598.561 6      2618.926 6        38.136               
G24  21179542.247 7 111299204.329 7      2341.828 7        44.656               
> 2025 08 06 05 45 29.0000000  0  9                                             
G05  22636071.987 8 118953337.903 8     -2315.597 8        49.395               
G13  22311355.923 7 117246982.761 7     -2673.950 7        44.470               
G14  25327437.878 5 133096548.709 5       201.965 5        33.551               
G15  20560284.126 7 108045007.864 7      -715.788 7        45.864               
G18  21654251.926 6 113793887.167 6       392.883 6        40.750               
G21  25484651.311 5 133922792.521 5     -2947.748 5        35.693               
G22  25286439.496 6 132881127.210 6       770.100 6        41.588               
G23  22500696.590 6 118241979.708 6      2618.625 6        38.341               
G24  21179095.182 7 111296862.528 7      2341.332 7        44.454               
> 2025 08 06 05 45 30.0000000  0  9                                             
G05  22636513.352 8 118955653.734 8     -2315.983 8        49.004               
G13  22311864.564 7 117249656.911 7     -2673.907 7        44.278               
G14  25327388.149 5 133096345.761 5       203.296 5        33.224               
G15  20560421.879 7 108045723.958 7      -716.109 7        45.360               
G18  21654175.072 6 113793494.786 6       392.288 6        40.708               
G21  25485213.792 5 133925740.705 5     -2948.494 5        35.572               
G22  25286293.202 6 132880357.089 6       769.727 6        41.693               
G23  22500196.472 6 118239361.047 6      2619.420 6        38.291               
G24  21178649.296 7 111294521.366 7      2340.849 7        44.486               
> 2025 08 06 05 45 31.0000000  0  9                                             
G05  22636954.431 8 118957969.877 8     -2316.274 8        49.354               
G13  22312374.046 7 117252331.186 7     -2674.265 7        44.513               
G14  25327339.813 5 133096143.294 5       203.466 5        31.945               
G15  20560558.041 7 108046440.403 7      -716.500 7        45.469               
G18  21654100.701 6 113793103.102 6       391.256 6        40.557               
G21  25485774.898 5 133928689.038 5     -2948.291 5        35.264               
G22  25286147.998 6 132879587.423 6       769.666 6        41.663               
G23  22499702.465 6 118236742.511 6      2618.117 6        38.350               
