     3.02           OBSERVATION DATA    G                   RINEX VERSION / TYPE
G = GPS  R = GLONASS  E = GALILEO  S = GEO  M = MIXED       COMMENT             
GNSS-SDR            suhjw               20250730 060030 UTC PGM / RUN BY / DATE 
GPS OBSERVATION DATA FILE GENERATED BY GNSS-SDR             COMMENT             
GNSS-SDR VERSION 0.0.20                                     COMMENT             
See https://gnss-sdr.org                                    COMMENT             
DEFAULT MARKER NAME                                         MARKER NAME         
suhjw               CTTC                                    OBSERVER / AGENCY   
GNSS-SDR            Software Receiver   0.0.20              REC # / TYPE / VERS 
Antenna number      Antenna type                            ANT # / TYPE        
        0.0000        0.0000        0.0000                  APPROX POSITION XYZ 
        0.0000        0.0000        0.0000                  ANTENNA: DELTA H/E/N
G    4 C1C L1C D1C S1C                                      SYS / # / OBS TYPES 
DBHZ                                                        SIGNAL STRENGTH UNIT
  2025    07    30    06    00   48.1200000     GPS         TIME OF FIRST OBS   
    18    18   137     7                                    LEAP SECONDS        
                                                            END OF HEADER       
> 2025 07 30 06 00 49.0000000  0  7                                             
G05  24586511.421 8 129202986.427 8     -2043.940 8        48.031               
G13  24216087.111 7 127256403.020 7     -2539.953 7        44.150               
G15  22769904.947 7 119656665.984 7      -421.311 7        43.007               
G18  24052973.237 7 126399221.929 7       927.127 7        45.462               
G20  26562904.610 7 139589012.034 7     -2937.651 7        45.401               
G21  27339772.123 7 143671464.095 7     -2832.197 7        43.870               
G24  23870781.912 7 125441795.692 7      2774.614 7        42.468               
> 2025 07 30 06 00 50.0000000  0  7                                             
G05  24586900.822 8 129205028.944 8     -2042.246 8        48.402               
G13  24216570.503 7 127258944.059 7     -2540.797 7        44.515               
G15  22769983.874 7 119657089.461 7      -422.180 7        42.883               
G18  24052798.138 7 126398292.802 7       925.184 7        45.679               
G20  26563462.677 7 139591947.773 7     -2937.223 7        45.386               
G21  27340311.106 7 143674293.136 7     -2829.994 7        43.765               
G24  23870253.954 7 125439023.350 7      2768.323 7        42.344               
> 2025 07 30 06 00 51.0000000  0  7                                             
G05  24587290.599 8 129207071.813 8     -2039.442 8        48.460               
G13  24217059.811 7 127261485.268 7     -2541.517 7        44.662               
G15  22770070.646 7 119657513.301 7      -428.293 7        43.093               
G18  24052620.556 7 126397364.325 7       929.014 7        45.658               
G20  26564022.156 7 139594883.719 7     -2936.837 7        44.920               
G21  27340846.570 7 143677122.344 7     -2830.249 7        44.102               
G24  23869726.889 7 125436251.511 7      2772.102 7        42.446               
> 2025 07 30 06 00 52.0000000  0  7                                             
G05  24587678.929 8 129209115.024 8     -2043.275 8        48.356               
G13  24217539.362 7 127264026.730 7     -2545.480 7        44.500               
G15  22770151.432 7 119657937.514 7      -423.402 7        42.793               
G18  24052447.709 7 126396436.537 7       926.194 7        45.847               
G20  26564581.689 7 139597819.919 7     -2934.782 7        45.284               
G21  27341381.461 7 143679951.724 7     -2825.448 7        44.121               
G24  23869203.309 7 125433480.186 7      2769.652 7        43.013               
> 2025 07 30 06 00 53.0000000  0  7                                             
G05  24588067.151 8 129211158.542 8     -2045.244 8        48.167               
G13  24218029.884 7 127266568.299 7     -2540.965 7        44.730               
G15  22770235.899 7 119658362.054 7      -429.158 7        43.169               
G18  24052268.983 7 126395509.363 7       928.479 7        45.643               
G20  26565141.115 7 139600756.275 7     -2937.571 7        45.422               
G21  27341923.679 7 143682781.209 7     -2830.414 7        44.382               
G24  23868677.298 7 125430709.328 7      2765.555 7        42.055               
> 2025 07 30 06 00 54.0000000  0  7                                             
G05  24588455.177 7 129213202.424 7     -2046.945 7        47.998               
G13  24218509.543 7 127269110.126 7     -2541.300 7        45.091               
G15  22770314.952 7 119658787.013 7      -430.269 7        42.663               
G18  24052091.383 7 126394582.895 7       930.005 7        45.556               
G20  26565697.502 7 139603692.925 7     -2934.534 7        44.802               
G21  27342464.878 7 143685610.893 7     -2830.436 7        44.222               
G24  23868147.642 7 125427939.015 7      2773.152 7        42.737               
> 2025 07 30 06 00 55.0000000  0  7                                             
G05  24588846.134 8 129215246.584 8     -2041.216 8        48.148               
G13  24218995.616 7 127271652.088 7     -2543.745 7        44.822               
G15  22770397.560 7 119659212.268 7      -426.370 7        43.673               
G18  24051913.425 7 126393657.041 7       928.529 7        44.851               
G20  26566256.874 7 139606629.729 7     -2935.710 7        45.230               
G21  27343000.662 7 143688440.682 7     -2828.458 7        43.864               
G24  23867618.844 7 125425169.154 7      2769.373 7        42.628               
> 2025 07 30 06 00 56.0000000  0  7                                             
G05  24589235.160 7 129217291.079 7     -2043.799 7        47.650               
G13  24219481.278 7 127274194.249 7     -2547.308 7        43.957               
G15  22770474.772 7 119659637.883 7      -426.382 7        43.788               
G18  24051736.182 7 126392731.856 7       929.524 7        44.824               
G20  26566816.907 7 139609566.767 7     -2937.065 7        44.388               
G21  27343538.109 7 143691270.627 7     -2835.364 7        43.922               
G24  23867093.781 7 125422399.800 7      2764.014 7        42.360               
> 2025 07 30 06 00 57.0000000  0  7                                             
G05  24589622.096 8 129219335.905 8     -2045.971 8        48.167               
G13  24219963.885 7 127276736.605 7     -2539.729 7        44.531               
G15  22770563.188 7 119660063.880 7      -427.313 7        43.702               
G18  24051561.584 7 126391807.339 7       925.973 7        45.162               
G20  26567375.618 7 139612504.018 7     -2935.119 7        44.801               
G21  27344074.484 7 143694100.742 7     -2828.964 7        44.413               
G24  23866567.199 7 125419630.952 7      2772.816 7        42.939               
> 2025 07 30 06 00 58.0000000  0  7                                             
G05  24590009.103 7 129221381.005 7     -2046.315 7        47.753               
G13  24220447.688 7 127279279.095 7     -2543.300 7        45.230               
G15  22770647.655 7 119660490.156 7      -423.129 7        43.815               
G18  24051384.127 7 126390883.418 7       921.626 7        45.015               
G20  26567937.509 7 139615441.449 7     -2940.264 7        45.605               
G21  27344614.432 7 143696930.929 7     -2829.205 7        44.245               
G24  23866043.243 7 125416862.559 7      2768.577 7        43.025               
> 2025 07 30 06 00 59.0000000  0  7                                             
G05  24590401.150 7 129223426.476 7     -2041.464 7        47.887               
G13  24220929.366 7 127281821.812 7     -2537.713 7        45.257               
G15  22770728.745 7 119660916.853 7      -428.153 7        43.500               
G18  24051210.851 7 126389960.217 7       921.193 7        45.205               
G20  26568493.558 7 139618379.139 7     -2938.477 7        44.718               
G21  27345154.755 7 143699761.326 7     -2827.786 7        43.843               
G24  23865509.156 7 125414094.703 7      2771.975 7        43.295               
> 2025 07 30 06 01 00.0000000  0  7                                             
G05  24590791.016 8 129225472.254 8     -2046.304 8        48.369               
G13  24221414.474 7 127284364.709 7     -2539.471 7        44.712               
G15  22770810.209 7 119661343.865 7      -426.634 7        43.725               
G18  24051033.751 7 126389037.616 7       926.114 7        45.125               
G20  26569052.715 7 139621317.030 7     -2938.373 7        45.405               
G21  27345694.471 7 143702591.858 7     -2833.181 7        43.473               
G24  23864982.788 7 125411327.322 7      2764.844 7        43.004               
> 2025 07 30 06 01 01.0000000  0  7                                             
G05  24591178.041 8 129227518.376 8     -2044.838 8        48.025               
G13  24221900.583 7 127286907.788 7     -2545.716 7        45.296               
G15  22770888.065 7 119661771.260 7      -425.532 7        43.635               
G18  24050859.725 7 126388115.702 7       922.991 7        45.170               
G20  26569613.195 7 139624255.142 7     -2939.172 7        45.158               
G21  27346230.042 7 143705422.530 7     -2828.876 7        43.406               
G24  23864457.707 7 125408560.435 7      2763.754 7        42.874               
> 2025 07 30 06 01 02.0000000  0  7                                             
G05  24591567.782 7 129229564.828 7     -2047.048 7        47.685               
G13  24222381.456 7 127289451.077 7     -2546.899 7        44.591               
G15  22770969.244 7 119662199.015 7      -428.892 7        42.960               
G18  24050681.892 7 126387194.455 7       920.107 7        45.290               
G20  26570170.726 7 139627193.489 7     -2942.072 7        45.696               
G21  27346769.186 7 143708253.375 7     -2830.862 7        43.778               
G24  23863932.197 7 125405794.075 7      2766.365 7        42.781               
> 2025 07 30 06 01 03.0000000  0  7                                             
G05  24591959.829 8 129231611.540 8     -2046.228 8        48.226               
G13  24222863.491 7 127291994.476 7     -2546.803 7        44.538               
G15  22771045.026 7 119662627.061 7      -426.079 7        43.164               
G18  24050506.114 7 126386273.796 7       918.930 7        45.078               
G20  26570732.314 7 139630131.975 7     -2939.304 7        44.938               
G21  27347306.364 7 143711084.312 7     -2831.315 7        43.236               
G24  23863401.344 7 125403028.154 7      2765.539 7        43.159               
> 2025 07 30 06 01 04.0000000  0  7                                             
G05  24592346.014 7 129233658.635 7     -2045.992 7        47.658               
G13  24223349.064 7 127294538.116 7     -2548.014 7        45.103               
G15  22771127.653 7 119663055.530 7      -429.175 7        43.371               
G18  24050330.605 7 126385353.861 7       921.579 7        45.065               
G20  26571292.150 7 139633070.745 7     -2934.968 7        44.985               
G21  27347845.651 7 143713915.454 7     -2832.051 7        43.570               
G24  23862883.035 7 125400262.753 7      2764.953 7        42.927               
> 2025 07 30 06 01 05.0000000  0  7                                             
G05  24592736.023 7 129235706.082 7     -2046.346 7        47.977               
G13  24223831.795 7 127297081.959 7     -2539.440 7        45.001               
G15  22771204.293 7 119663484.353 7      -432.676 7        43.130               
G18  24050158.830 7 126384434.583 7       920.266 7        45.350               
G20  26571848.413 7 139636009.734 7     -2938.529 7        45.218               
G21  27348390.889 7 143716746.741 7     -2830.152 7        43.876               
G24  23862359.526 7 125397497.889 7      2762.347 7        43.060               
> 2025 07 30 06 01 06.0000000  0  7                                             
G05  24593125.103 7 129237753.891 7     -2044.350 7        47.856               
G13  24224313.509 7 127299626.036 7     -2544.972 7        45.113               
G15  22771286.937 7 119663913.586 7      -425.349 7        42.790               
G18  24049986.751 7 126383516.019 7       918.373 7        45.297               
G20  26572410.501 7 139638949.006 7     -2939.277 7        44.787               
G21  27348925.226 7 143719578.227 7     -2829.267 7        44.091               
G24  23861830.192 7 125394733.571 7      2763.380 7        42.655               
> 2025 07 30 06 01 07.0000000  0  7                                             
G05  24593513.773 7 129239802.012 7     -2048.727 7        47.308               
G13  24224798.045 7 127302170.281 7     -2545.968 7        44.968               
G15  22771370.993 7 119664343.151 7      -428.850 7        43.074               
G18  24049810.402 7 126382598.072 7       916.006 7        45.635               
G20  26572967.479 7 139641888.448 7     -2939.177 7        44.644               
G21  27349462.137 7 143722409.847 7     -2831.685 7        43.832               
G24  23861302.449 7 125391969.726 7      2767.054 7        42.373               
> 2025 07 30 06 01 08.0000000  0  7                                             
G05  24593906.337 8 129241850.510 8     -2051.522 8        48.238               
G13  24225283.457 7 127304714.755 7     -2541.845 7        44.862               
G15  22771452.637 7 119664773.120 7      -429.926 7        43.483               
G18  24049634.178 7 126381680.833 7       913.956 7        44.974               
G20  26573530.031 7 139644828.164 7     -2939.366 7        45.515               
G21  27350001.388 7 143725241.671 7     -2831.008 7        43.035               
G24  23860775.616 7 125389206.446 7      2758.984 7        42.654               
> 2025 07 30 06 01 09.0000000  0  7                                             
G05  24594297.687 8 129243899.348 8     -2046.855 8        48.462               
G13  24225771.442 7 127307259.433 7     -2540.684 7        44.587               
G15  22771538.837 7 119665203.467 7      -431.483 7        43.989               
G18  24049461.045 7 126380764.263 7       916.131 7        45.157               
G20  26574090.279 7 139647768.114 7     -2941.394 7        45.162               
G21  27350543.088 7 143728073.643 7     -2832.985 7        42.752               
G24  23860252.894 7 125386443.637 7      2767.875 7        42.764               
> 2025 07 30 06 01 10.0000000  0  7                                             
G05  24594687.875 8 129245948.449 8     -2047.257 8        48.339               
G13  24226255.764 7 127309804.228 7     -2543.904 7        44.793               
G15  22771616.889 7 119665634.113 7      -430.684 7        44.076               
G18  24049283.641 7 126379848.307 7       915.578 7        44.696               
G20  26574648.257 7 139650708.209 7     -2938.973 7        45.214               
G21  27351081.714 7 143730905.717 7     -2831.699 7        42.741               
G24  23859725.650 7 125383681.296 7      2755.930 7        43.766               
> 2025 07 30 06 01 11.0000000  0  7                                             
G05  24595078.295 7 129247997.895 7     -2049.361 7        47.956               
G13  24226738.817 7 127312349.238 7     -2544.506 7        44.862               
G15  22771700.480 7 119666065.117 7      -427.963 7        43.720               
G18  24049108.560 7 126378933.025 7       910.986 7        45.161               
G20  26575205.127 7 139653648.551 7     -2936.807 7        45.587               
G21  27351621.019 7 143733737.955 7     -2836.290 7        42.916               
G24  23859198.836 7 125380919.453 7      2760.327 7        43.257               
> 2025 07 30 06 01 12.0000000  0  8                                             
G05  24595470.091 8 129250047.685 8     -2049.584 8        48.333               
G13  24227224.086 7 127314894.448 7     -2541.819 7        45.088               
G15  22771782.016 7 119666496.509 7      -429.189 7        43.408               
G18  24048933.712 7 126378018.379 7       918.166 7        44.572               
G20  26575769.055 7 139656589.110 7     -2938.575 7        45.952               
G21  27352163.201 7 143736570.346 7     -2832.239 7        43.029               
G23  25193333.899 6 132391862.004 6      2701.862 6        41.427               
G24  23858676.864 7 125378158.110 7      2766.254 7        43.236               
> 2025 07 30 06 01 13.0000000  0  8                                             
G05  24595857.974 7 129252097.760 7     -2050.646 7        47.791               
G13  24227711.107 7 127317439.797 7     -2541.484 7        44.883               
G15  22771860.283 7 119666928.221 7      -434.035 7        42.858               
G18  24048757.148 7 126377104.397 7       914.611 7        44.425               
G20  26576327.319 7 139659529.849 7     -2938.978 7        45.480               
G21  27352699.468 7 143739402.852 7     -2832.341 7        43.316               
G23  25192819.700 6 132389159.361 6      2700.480 6        40.219               
G24  23858148.655 7 125375397.260 7      2756.052 7        43.233               
> 2025 07 30 06 01 14.0000000  0  8                                             
G05  24596249.484 7 129254148.193 7     -2051.191 7        47.586               
G13  24228190.014 7 127319985.337 7     -2546.944 7        44.356               
G15  22771944.589 7 119667360.303 7      -429.002 7        43.767               
G18  24048584.658 7 126376191.080 7       913.653 7        44.315               
G20  26576883.922 7 139662470.833 7     -2941.442 7        45.559               
G21  27353239.881 7 143742235.527 7     -2830.826 7        43.974               
G23  25192310.736 6 132386456.835 6      2704.497 6        41.079               
G24  23857623.628 7 125372636.917 7      2756.606 7        43.700               
> 2025 07 30 06 01 15.0000000  0  8                                             
G05  24596635.723 7 129256198.940 7     -2054.277 7        47.796               
G13  24228676.802 7 127322531.090 7     -2545.972 7        44.552               
G15  22772028.091 7 119667792.756 7      -431.209 7        43.675               
G18  24048409.596 7 126375278.426 7       912.061 7        44.274               
G20  26577445.652 7 139665412.039 7     -2941.570 7        45.300               
G21  27353776.791 7 143745068.361 7     -2832.389 7        44.560               
G23  25191792.016 6 132383754.348 6      2699.503 6        41.539               
G24  23857106.069 7 125369877.093 7      2757.989 7        44.051               
> 2025 07 30 06 01 16.0000000  0  8                                             
G05  24597025.071 7 129258250.049 7     -2055.025 7        47.827               
G13  24229158.158 7 127325077.047 7     -2541.763 7        45.207               
G15  22772113.808 7 119668225.572 7      -433.522 7        43.347               
G18  24048236.713 7 126374366.469 7       906.721 7        44.198               
G20  26578001.236 7 139668353.493 7     -2939.809 7        45.379               
G21  27354318.580 7 143747901.352 7     -2835.490 7        45.143               
G23  25191278.032 6 132381051.993 6      2696.705 6        41.413               
G24  23856580.345 7 125367117.773 7      2760.430 7        43.883               
> 2025 07 30 06 01 17.0000000  0  8                                             
G05  24597413.955 7 129260301.453 7     -2052.208 7        47.599               
G13  24229649.520 7 127327623.165 7     -2547.458 7        45.309               
G15  22772197.936 7 119668658.729 7      -429.157 7        43.309               
G18  24048064.813 7 126373455.111 7       912.138 7        44.632               
G20  26578560.197 7 139671295.123 7     -2938.983 7        45.207               
G21  27354856.170 7 143750734.483 7     -2833.491 7        45.587               
G23  25190761.438 6 132378349.672 6      2703.675 6        41.043               
G24  23856053.977 7 125364358.946 7      2758.937 7        43.398               
> 2025 07 30 06 01 18.0000000  0  8                                             
G05  24597803.964 7 129262353.250 7     -2047.821 7        47.460               
G13  24230125.712 7 127330169.517 7     -2543.977 7        44.798               
G15  22772285.958 7 119669092.277 7      -435.636 7        43.844               
G18  24047896.504 7 126372544.490 7       912.817 7        44.539               
G20  26579120.391 7 139674237.029 7     -2942.931 7        45.082               
G21  27355395.260 7 143753567.808 7     -2834.243 7        45.697               
G23  25190249.759 6 132375647.518 6      2698.577 6        41.284               
G24  23855532.648 7 125361600.671 7      2754.527 7        44.097               
> 2025 07 30 06 01 19.0000000  0  8                                             
G05  24598199.155 7 129264405.373 7     -2050.494 7        47.556               
G13  24230612.446 7 127332716.059 7     -2540.752 7        44.242               
G15  22772368.192 7 119669526.223 7      -429.277 7        43.984               
G18  24047718.565 7 126371634.534 7       905.009 7        43.751               
G20  26579681.478 7 139677179.172 7     -2940.993 7        44.925               
G21  27355932.760 7 143756401.289 7     -2832.165 7        45.368               
G23  25189734.648 6 132372945.427 6      2703.347 6        41.045               
G24  23855003.564 7 125358842.933 7      2756.328 7        43.795               
> 2025 07 30 06 01 20.0000000  0  8                                             
G05  24598590.505 7 129266457.860 7     -2050.623 7        47.946               
G13  24231093.123 7 127335262.851 7     -2549.328 7        43.959               
G15  22772451.122 7 119669960.546 7      -435.079 7        44.100               
G18  24047548.809 7 126370725.252 7       907.767 7        44.004               
G20  26580243.530 7 139680121.564 7     -2943.413 7        44.221               
G21  27356475.764 7 143759234.943 7     -2836.295 7        45.343               
G23  25189220.021 6 132370243.475 6      2701.211 6        41.409               
G24  23854477.000 7 125356085.674 7      2759.233 7        43.750               
> 2025 07 30 06 01 21.0000000  0  8                                             
G05  24598984.392 8 129268510.648 8     -2050.001 8        48.390               
G13  24231578.642 7 127337809.784 7     -2545.445 7        44.125               
G15  22772530.460 7 119670395.199 7      -435.040 7        43.527               
G18  24047373.657 7 126369816.619 7       904.223 7        44.216               
G20  26580802.759 7 139683064.121 7     -2940.554 7        44.427               
G21  27357013.657 7 143762068.734 7     -2837.212 7        45.095               
G23  25188710.057 6 132367541.549 6      2700.820 6        41.096               
G24  23853951.347 7 125353328.914 7      2757.559 7        43.540               
> 2025 07 30 06 01 22.0000000  0  8                                             
G05  24599375.706 7 129270563.775 7     -2058.144 7        47.901               
G13  24232065.234 7 127340356.907 7     -2545.025 7        44.264               
G15  22772615.856 7 119670830.227 7      -431.093 7        44.086               
G18  24047199.291 7 126368908.634 7       906.485 7        44.460               
G20  26581360.773 7 139686006.908 7     -2940.139 7        44.908               
G21  27357553.177 7 143764902.668 7     -2835.610 7        44.497               
G23  25188198.216 6 132364839.710 6      2706.873 6        41.424               
G24  23853428.678 7 125350572.667 7      2754.746 7        42.948               
> 2025 07 30 06 01 23.0000000  0  8                                             
G05  24599764.553 8 129272617.210 8     -2052.363 8        48.169               
G13  24232547.054 7 127342904.222 7     -2547.988 7        44.449               
G15  22772691.478 7 119671265.601 7      -438.419 7        43.464               
G18  24047020.154 7 126368001.326 7       909.850 7        44.277               
G20  26581919.663 7 139688949.903 7     -2944.696 7        44.577               
G21  27358090.248 7 143767736.756 7     -2835.911 7        44.448               
G23  25187679.925 6 132362137.968 6      2701.197 6        41.389               
G24  23852897.378 7 125347816.898 7      2753.699 7        43.129               
> 2025 07 30 06 01 24.0000000  0  8                                             
G05  24600153.812 8 129274670.953 8     -2052.476 8        48.236               
G13  24233033.574 7 127345451.686 7     -2548.281 7        44.437               
G15  22772778.607 7 119671701.301 7      -435.960 7        43.935               
G18  24046850.094 7 126367094.657 7       902.657 7        44.076               
G20  26582480.428 7 139691893.103 7     -2941.963 7        44.206               
G21  27358631.161 7 143770570.953 7     -2835.327 7        43.715               
G23  25187164.886 6 132359436.263 6      2696.451 6        41.182               
G24  23852375.585 7 125345061.613 7      2756.626 7        43.208               
> 2025 07 30 06 01 25.0000000  0  8                                             
G05  24600543.285 7 129276725.026 7     -2055.465 7        47.674               
G13  24233520.594 7 127347999.333 7     -2543.832 7        44.854               
G15  22772860.287 7 119672137.345 7      -435.152 7        44.299               
G18  24046678.570 7 126366188.612 7       904.457 7        44.195               
G20  26583040.497 7 139694836.497 7     -2943.818 7        44.693               
G21  27359170.127 7 143773405.296 7     -2835.796 7        43.823               
G23  25186648.472 6 132356734.637 6      2702.881 6        41.576               
G24  23851850.325 7 125342306.827 7      2754.239 7        43.456               
> 2025 07 30 06 01 26.0000000  0  8                                             
G05  24600932.044 7 129278779.461 7     -2050.850 7        47.626               
G13  24234008.972 7 127350547.191 7     -2548.418 7        44.798               
G15  22772943.807 7 119672573.776 7      -436.987 7        43.983               
G18  24046505.383 7 126365283.259 7       904.667 7        43.740               
G20  26583604.783 7 139697780.153 7     -2940.929 7        44.740               
G21  27359711.380 7 143776239.816 7     -2833.041 7        43.994               
G23  25186132.789 6 132354033.122 6      2707.059 6        40.781               
G24  23851325.262 7 125339552.571 7      2754.355 7        42.634               
> 2025 07 30 06 01 27.0000000  0  8                                             
G05  24601320.784 7 129280834.201 7     -2055.471 7        47.732               
G13  24234491.364 7 127353095.236 7     -2548.303 7        44.768               
G15  22773021.215 7 119673010.569 7      -436.283 7        43.494               
G18  24046335.949 7 126364378.579 7       904.854 7        44.720               
G20  26584161.546 7 139700724.026 7     -2944.479 7        45.216               
G21  27360247.772 7 143779074.476 7     -2835.237 7        43.331               
G23  25185618.751 6 132351331.698 6      2704.545 6        41.199               
G24  23850801.199 7 125336798.804 7      2760.065 7        42.450               
> 2025 07 30 06 01 28.0000000  0  8                                             
G05  24601713.581 7 129282889.319 7     -2056.199 7        47.524               
G13  24234977.027 7 127355643.495 7     -2549.729 7        45.462               
G15  22773109.452 7 119673447.754 7      -442.670 7        43.894               
G18  24046162.083 7 126363474.566 7       903.886 7        44.552               
G20  26584724.849 7 139703668.132 7     -2941.551 7        45.157               
G21  27360786.863 7 143781909.319 7     -2832.566 7        43.235               
G23  25185104.963 6 132348630.355 6      2702.857 6        41.218               
G24  23850274.617 7 125334045.575 7      2748.094 7        42.260               
> 2025 07 30 06 01 29.0000000  0  8                                             
G05  24602105.109 7 129284944.767 7     -2056.209 7        47.532               
G13  24235463.904 7 127358191.949 7     -2549.511 7        45.393               
G15  22773191.257 7 119673885.298 7      -440.138 7        43.530               
G18  24045991.095 7 126362571.234 7       902.557 7        44.530               
G20  26585285.490 7 139706612.472 7     -2946.841 7        44.849               
G21  27361325.917 7 143784744.321 7     -2835.387 7        43.329               
G23  25184590.121 6 132345929.128 6      2705.172 6        40.820               
G24  23849748.338 7 125331292.845 7      2755.464 7        42.211               
> 2025 07 30 06 01 30.0000000  0  8                                             
G05  24602497.888 7 129287000.586 7     -2053.947 7        47.983               
G13  24235946.796 7 127360740.642 7     -2546.066 7        45.385               
G15  22773273.454 7 119674323.242 7      -439.949 7        43.174               
G18  24045821.357 7 126361668.592 7       905.645 7        44.313               
G20  26585845.040 7 139709557.056 7     -2946.903 7        44.226               
G21  27361863.257 7 143787579.503 7     -2835.898 7        43.194               
G23  25184077.298 6 132343228.000 6      2698.002 6        41.403               
G24  23849229.065 7 125328540.678 7      2756.088 7        42.097               
> 2025 07 30 06 01 31.0000000  0  8                                             
G05  24602891.632 8 129289056.732 8     -2058.333 8        48.457               
G13  24236433.799 7 127363289.503 7     -2551.593 7        44.732               
G15  22773358.493 7 119674761.545 7      -436.986 7        42.838               
G18  24045648.260 7 126360766.626 7       899.903 7        44.194               
G20  26586406.110 7 139712501.866 7     -2944.281 7        44.114               
G21  27362403.116 7 143790414.861 7     -2834.065 7        43.039               
G23  25183561.562 6 132340526.963 6      2702.346 6        41.121               
G24  23848706.271 7 125325788.986 7      2746.817 7        42.477               
> 2025 07 30 06 01 32.0000000  0  8                                             
G05  24603285.126 8 129291113.238 8     -2056.488 8        48.920               
G13  24236916.566 7 127365838.580 7     -2549.103 7        44.759               
G15  22773442.460 7 119675200.216 7      -441.239 7        43.510               
G18  24045478.969 7 126359865.331 7       896.062 7        44.327               
G20  26586963.123 7 139715446.911 7     -2944.718 7        44.533               
G21  27362946.495 7 143793250.380 7     -2837.771 7        43.393               
G23  25183048.543 6 132337826.026 6      2704.812 6        40.804               
G24  23848183.780 7 125323037.815 7      2749.289 7        42.741               
> 2025 07 30 06 01 33.0000000  0  8                                             
G05  24603676.797 8 129293169.992 8     -2057.679 8        49.415               
G13  24237405.230 7 127368387.782 7     -2551.269 7        44.578               
G15  22773523.496 7 119675639.197 7      -439.538 7        43.172               
G18  24045308.981 7 126358964.648 7       900.985 7        44.305               
G20  26587523.460 7 139718392.108 7     -2941.341 7        44.321               
G21  27363488.391 7 143796085.992 7     -2831.385 7        43.605               
G23  25182534.236 6 132335125.113 6      2701.694 6        40.414               
G24  23847662.112 7 125320287.107 7      2750.828 7        42.570               
> 2025 07 30 06 01 34.0000000  0  8                                             
G05  24604066.807 8 129295227.127 8     -2056.278 8        48.893               
G13  24237890.124 7 127370937.210 7     -2548.415 7        44.227               
G15  22773607.337 7 119676078.580 7      -442.109 7        43.782               
G18  24045139.296 7 126358064.646 7       895.619 7        44.386               
G20  26588087.299 7 139721337.584 7     -2942.430 7        44.556               
G21  27364026.909 7 143798921.798 7     -2835.791 7        44.270               
G23  25182018.358 6 132332424.326 6      2697.323 6        40.567               
G24  23847144.464 7 125317536.960 7      2749.260 7        42.791               
> 2025 07 30 06 01 35.0000000  0  8                                             
G05  24604457.459 8 129297284.605 8     -2059.034 8        49.082               
G13  24238373.213 7 127373486.828 7     -2548.183 7        44.322               
G15  22773693.823 7 119676518.314 7      -437.999 7        43.091               
G18  24044966.896 7 126357165.308 7       898.344 7        44.609               
G20  26588648.761 7 139724283.260 7     -2943.382 7        44.530               
G21  27364564.946 7 143801757.760 7     -2834.301 7        44.565               
G23  25181500.978 6 132329723.623 6      2700.364 6        40.434               
G24  23846619.240 7 125314787.330 7      2745.358 7        42.923               
> 2025 07 30 06 01 36.0000000  0  8                                             
G05  24604849.952 8 129299342.394 8     -2060.976 8        48.392               
G13  24238861.145 7 127376036.628 7     -2546.341 7        44.368               
G15  22773781.363 7 119676958.400 7      -440.329 7        43.305               
G18  24044801.411 7 126356266.638 7       900.059 7        44.840               
G20  26589209.313 7 139727229.158 7     -2945.251 7        44.138               
G21  27365107.163 7 143804593.852 7     -2832.888 7        44.558               
G23  25180992.247 6 132327022.997 6      2699.204 6        40.794               
G24  23846095.267 7 125312038.154 7      2748.732 7        43.560               
> 2025 07 30 06 01 37.0000000  0  8                                             
G05  24605239.390 8 129301400.521 8     -2060.962 8        48.238               
G13  24239346.146 7 127378586.611 7     -2551.525 7        44.628               
G15  22773868.511 7 119677398.852 7      -441.359 7        43.444               
G18  24044626.759 7 126355368.620 7       897.618 7        44.836               
G20  26589768.845 7 139730175.255 7     -2946.906 7        44.288               
G21  27365644.985 7 143807430.100 7     -2834.302 7        44.391               
G23  25180476.154 6 132324322.429 6      2705.085 6        40.113               
G24  23845567.773 7 125309289.487 7      2755.462 7        42.286               
> 2025 07 30 06 01 38.0000000  0  8                                             
G05  24605629.792 7 129303458.998 7     -2060.744 7        47.836               
G13  24239830.271 7 127381136.797 7     -2552.347 7        44.638               
G15  22773954.121 7 119677839.672 7      -440.929 7        43.601               
G18  24044455.645 7 126354471.286 7       896.832 7        44.351               
G20  26590327.806 7 139733121.591 7     -2946.611 7        44.642               
G21  27366186.524 7 143810266.500 7     -2834.255 7        44.187               
G23  25179961.240 6 132321621.981 6      2704.604 6        40.377               
G24  23845046.998 7 125306541.341 7      2748.987 7        42.901               
> 2025 07 30 06 01 39.0000000  0  8                                             
G05  24606018.443 7 129305517.835 7     -2057.378 7        47.956               
G13  24240315.647 7 127383687.163 7     -2549.442 7        44.526               
G15  22774035.622 7 119678280.848 7      -436.472 7        43.474               
G18  24044283.460 7 126353574.599 7       892.250 7        44.576               
G20  26590886.874 7 139736068.165 7     -2946.365 7        44.775               
G21  27366724.846 7 143813103.080 7     -2836.443 7        44.888               
G23  25179450.704 6 132318921.608 6      2698.076 6        40.044               
G24  23844522.185 7 125303793.711 7      2756.626 7        42.713               
> 2025 07 30 06 01 40.0000000  0  8                                             
G05  24606410.097 7 129307577.011 7     -2059.509 7        47.750               
G13  24240801.864 7 127386237.741 7     -2554.700 7        44.820               
G15  22774119.624 7 119678722.405 7      -439.644 7        43.872               
G18  24044112.149 7 126352678.593 7       899.555 7        44.080               
G20  26591447.944 7 139739014.960 7     -2947.654 7        45.198               
G21  27367268.422 7 143815939.806 7     -2838.246 7        43.847               
G23  25178931.537 6 132316221.368 6      2700.660 6        40.472               
G24  23843996.461 7 125301046.577 7      2751.562 7        42.497               
> 2025 07 30 06 01 41.0000000  0  8                                             
G05  24606804.001 7 129309636.429 7     -2059.288 7        47.598               
G13  24241290.206 7 127388788.418 7     -2554.462 7        44.610               
G15  22774199.552 7 119679164.243 7      -447.928 7        44.092               
G18  24043941.697 7 126351783.177 7       895.067 7        43.963               
G20  26592011.354 7 139741961.891 7     -2947.642 7        45.322               
G21  27367809.353 7 143818776.615 7     -2838.053 7        44.424               
G23  25178416.695 6 132313521.093 6      2703.190 6        40.084               
G24  23843474.953 7 125298299.905 7      2750.119 7        42.457               
> 2025 07 30 06 01 42.0000000  0  8                                             
G05  24607195.422 8 129311696.238 8     -2063.514 8        48.114               
G13  24241775.368 7 127391339.350 7     -2549.728 7        44.559               
G15  22774281.625 7 119679606.493 7      -443.739 7        44.863               
G18  24043774.443 7 126350888.478 7       892.501 7        43.830               
G20  26592570.565 7 139744909.102 7     -2946.925 7        45.305               
G21  27368343.547 7 143821613.628 7     -2838.015 7        44.324               
G23  25177905.516 6 132310820.971 6      2696.914 6        40.036               
G24  23842953.374 7 125295553.775 7      2747.721 7        42.153               
> 2025 07 30 06 01 43.0000000  0  8                                             
G05  24607587.058 7 129313756.394 7     -2060.103 7        47.618               
G13  24242258.493 7 127393890.489 7     -2545.344 7        44.551               
G15  22774363.500 7 119680049.117 7      -441.082 7        43.976               
G18  24043601.828 7 126349994.461 7       891.668 7        44.555               
G20  26593135.262 7 139747856.552 7     -2950.543 7        45.453               
G21  27368887.159 7 143824450.833 7     -2838.301 7        44.155               
G23  25177393.158 6 132308120.956 6      2701.547 6        41.145               
G24  23842430.116 7 125292808.165 7      2745.582 7        42.158               
> 2025 07 30 06 01 44.0000000  0  8                                             
G05  24607984.375 7 129315816.876 7     -2060.616 7        47.910               
G13  24242744.673 7 127396441.792 7     -2545.871 7        44.892               
G15  22774449.629 7 119680492.092 7      -442.171 7        43.695               
G18  24043432.429 7 126349101.088 7       892.201 7        44.217               
G20  26593691.864 7 139750804.208 7     -2947.235 7        45.582               
G21  27369424.159 7 143827288.157 7     -2836.695 7        43.553               
G23  25176882.908 6 132305421.008 6      2703.503 6        41.082               
G24  23841909.788 7 125290063.062 7      2740.274 7        42.375               
> 2025 07 30 06 01 45.0000000  0  8                                             
G05  24608376.315 8 129317877.707 8     -2062.937 8        48.114               
G13  24243226.386 7 127398993.318 7     -2552.591 7        44.703               
G15  22774533.095 7 119680935.444 7      -446.352 7        44.049               
G18  24043266.819 7 126348208.404 7       895.760 7        44.740               
G20  26594256.633 7 139753752.113 7     -2948.994 7        45.472               
G21  27369966.376 7 143830125.654 7     -2840.458 7        44.858               
G23  25176365.671 6 132302721.162 6      2707.046 6        40.503               
G24  23841390.567 7 125287318.501 7      2743.100 7        42.760               
> 2025 07 30 06 01 46.0000000  0  8                                             
G05  24608767.628 7 129319938.900 7     -2060.695 7        47.968               
G13  24243713.996 7 127401545.060 7     -2552.640 7        44.738               
G15  22774618.581 7 119681379.197 7      -444.457 7        43.696               
G18  24043092.382 7 126347316.411 7       894.903 7        44.889               
G20  26594814.593 7 139756700.269 7     -2947.342 7        45.338               
G21  27370506.843 7 143832963.337 7     -2837.113 7        45.493               
G23  25175856.815 6 132300021.463 6      2695.717 6        40.796               
G24  23840866.719 7 125284574.447 7      2748.960 7        42.521               
> 2025 07 30 06 01 47.0000000  0  8                                             
G05  24609161.247 8 129322000.398 8     -2062.282 8        49.091               
G13  24244194.798 7 127404097.005 7     -2546.788 7        44.459               
G15  22774701.833 7 119681823.311 7      -445.315 7        44.230               
G18  24042923.234 7 126346425.111 7       882.109 7        45.068               
G20  26595377.199 7 139759648.644 7     -2952.591 7        45.867               
G21  27371045.361 7 143835801.172 7     -2839.627 7        45.060               
G23  25175340.936 6 132297321.816 6      2709.422 6        40.492               
G24  23840341.191 7 125281830.924 7      2744.879 7        42.597               
> 2025 07 30 06 01 48.0000000  0  8                                             
G05  24609551.310 8 129324062.238 8     -2063.564 8        48.111               
G13  24244681.479 7 127406649.123 7     -2555.448 7        44.101               
G15  22774780.367 7 119682267.764 7      -444.892 7        43.182               
G18  24042754.407 7 126345534.441 7       888.640 7        44.802               
G20  26595934.748 7 139762597.222 7     -2949.185 7        45.650               
G21  27371586.614 7 143838639.145 7     -2838.186 7        45.573               
G23  25174822.466 6 132294622.261 6      2696.335 6        41.361               
G24  23839817.629 7 125279087.887 7      2737.312 7        42.522               
> 2025 07 30 06 01 49.0000000  0  8                                             
G05  24609947.288 8 129326124.391 8     -2063.846 8        48.330               
G13  24245168.570 7 127409201.434 7     -2555.654 7        43.992               
G15  22774863.672 7 119682712.589 7      -446.056 7        44.110               
G18  24042585.152 7 126344644.431 7       888.868 7        45.073               
G20  26596501.339 7 139765546.019 7     -2948.837 7        45.841               
G21  27372122.899 7 143841477.285 7     -2836.884 7        44.978               
G23  25174315.951 6 132291922.778 6      2707.322 6        41.252               
G24  23839301.071 7 125276345.341 7      2743.940 7        42.794               
> 2025 07 30 06 01 50.0000000  0  8                                             
G05  24610337.225 8 129328186.875 8     -2063.652 8        48.481               
G13  24245651.856 7 127411753.899 7     -2553.971 7        44.678               
G15  22774946.245 7 119683157.744 7      -447.601 7        44.235               
G18  24042415.664 7 126343755.083 7       888.386 7        44.547               
G20  26597062.016 7 139768495.020 7     -2952.757 7        45.586               
G21  27372669.155 7 143844315.557 7     -2840.593 7        44.090               
G23  25173802.074 6 132289223.380 6      2694.571 6        41.406               
G24  23838776.276 7 125273603.282 7      2744.096 7        42.293               
> 2025 07 30 06 01 51.0000000  0  8                                             
G05  24610730.326 8 129330249.687 8     -2063.448 8        48.149               
G13  24246130.388 7 127414306.560 7     -2551.758 7        43.825               
G15  22775029.032 7 119683603.267 7      -441.924 7        43.819               
G18  24042245.944 7 126342866.389 7       888.189 7        44.274               
G20  26597624.925 7 139771444.249 7     -2948.671 7        45.111               
G21  27373209.604 7 143847153.980 7     -2839.105 7        44.281               
G23  25173287.481 6 132286524.067 6      2702.168 6        41.191               
G24  23838254.143 6 125270861.776 6      2742.475 6        41.945               
> 2025 07 30 06 01 52.0000000  0  8                                             
G05  24611122.480 8 129332312.878 8     -2064.002 8        48.591               
G13  24246625.503 7 127416859.463 7     -2557.922 7        44.413               
G15  22775116.001 7 119684049.190 7      -445.471 7        43.403               
G18  24042073.490 7 126341978.409 7       886.217 7        44.553               
G20  26598185.084 7 139774393.725 7     -2949.443 7        45.537               
G21  27373748.266 7 143849992.601 7     -2837.780 7        44.361               
G23  25172773.640 6 132283824.870 6      2699.818 6        40.870               
G24  23837734.655 7 125268120.783 7      2738.269 7        42.069               
> 2025 07 30 06 01 53.0000000  0  8                                             
G05  24611512.953 8 129334376.393 8     -2059.105 8        48.030               
G13  24247111.112 7 127419412.538 7     -2552.538 7        44.564               
G15  22775201.844 7 119684495.498 7      -447.709 7        43.829               
G18  24041905.450 7 126341091.063 7       884.166 7        44.073               
G20  26598746.439 7 139777343.422 7     -2950.319 7        45.581               
G21  27374287.731 7 143852831.369 7     -2838.307 7        44.417               
G23  25172257.171 6 132281125.766 6      2698.962 6        40.941               
G24  23837210.342 7 125265380.311 7      2738.428 7        42.771               
> 2025 07 30 06 01 54.0000000  0  8                                             
G05  24611906.840 8 129336440.216 8     -2063.147 8        48.543               
G13  24247597.203 7 127421965.786 7     -2556.222 7        43.861               
G15  22775290.617 7 119684942.105 7      -447.915 7        43.540               
G18  24041737.892 7 126340204.402 7       882.350 7        44.469               
G20  26599307.794 7 139780293.331 7     -2947.950 7        45.090               
G21  27374825.714 7 143855670.281 7     -2835.903 7        44.131               
G23  25171748.494 6 132278426.729 6      2698.755 6        41.148               
G24  23836693.319 7 125262640.326 7      2742.405 7        42.711               
> 2025 07 30 06 01 55.0000000  0  8                                             
G05  24612299.173 8 129338504.401 8     -2062.953 8        48.222               
G13  24248083.151 7 127424519.221 7     -2558.028 7        44.036               
G15  22775377.603 7 119685389.108 7      -447.151 7        44.572               
G18  24041571.764 7 126339318.383 7       886.564 7        44.991               
G20  26599869.596 7 139783243.463 7     -2949.833 7        45.054               
G21  27375362.482 7 143858509.364 7     -2840.796 7        43.723               
G23  25171235.063 6 132275727.794 6      2700.500 6        41.275               
G24  23836166.916 7 125259900.865 7      2744.175 7        42.702               
> 2025 07 30 06 01 56.0000000  0  8                                             
G05  24612693.453 8 129340568.837 8     -2064.484 8        48.561               
G13  24248572.994 7 127427072.798 7     -2554.035 7        44.548               
G15  22775468.324 7 119685836.381 7      -445.512 7        44.397               
G18  24041399.757 7 126338432.982 7       884.442 7        44.873               
G20  26600429.487 7 139786193.749 7     -2948.855 7        44.729               
G21  27375909.703 7 143861348.504 7     -2837.125 7        43.584               
G23  25170725.653 6 132273028.854 6      2696.986 6        41.628               
G24  23835649.340 7 125257161.845 7      2732.405 7        42.312               
> 2025 07 30 06 01 57.0000000  0  8                                             
G05  24613082.944 8 129342633.633 8     -2064.662 8        48.021               
G13  24249061.033 7 127429626.592 7     -2550.940 7        44.724               
G15  22775549.843 7 119686284.085 7      -448.248 7        45.179               
G18  24041235.236 7 126337548.272 7       880.106 7        44.675               
G20  26600989.394 7 139789144.285 7     -2951.247 7        44.667               
G21  27376444.540 7 143864187.866 7     -2840.639 7        43.044               
G23  25170205.325 6 132270330.045 6      2701.584 6        41.413               
G24  23835126.957 6 125254423.356 6      2742.058 6        41.877               
> 2025 07 30 06 01 58.0000000  0  8                                             
G05  24613479.457 8 129344698.735 8     -2065.129 8        48.440               
G13  24249545.016 7 127432180.555 7     -2556.885 7        44.764               
G15  22775636.883 7 119686732.084 7      -446.039 7        44.999               
G18  24041068.465 7 126336664.199 7       885.181 7        44.750               
G20  26601549.910 7 139792095.017 7     -2951.450 7        44.639               
G21  27376985.972 7 143867027.318 7     -2838.064 7        43.283               
G23  25169695.772 6 132267631.310 6      2699.492 6        41.486               
G24  23834605.717 7 125251685.342 7      2738.418 7        42.697               
> 2025 07 30 06 01 59.0000000  0  8                                             
G05  24613872.486 8 129346764.188 8     -2065.110 8        48.119               
G13  24250027.497 7 127434734.714 7     -2555.175 7        44.818               
G15  22775725.942 7 119687180.464 7      -448.118 7        44.860               
G18  24040903.623 7 126335780.791 7       880.809 7        45.102               
G20  26602113.124 7 139795045.979 7     -2950.813 7        44.312               
G21  27377525.330 7 143869866.954 7     -2841.958 7        43.550               
G23  25169181.448 6 132264932.662 6      2694.903 6        41.146               
G24  23834082.923 7 125248947.866 7      2739.761 7        42.638               
> 2025 07 30 06 02 00.0000000  0  8                                             
G05  24614263.997 8 129348829.995 8     -2065.560 8        48.502               
G13  24250514.821 7 127437289.097 7     -2558.099 7        44.921               
G15  22775810.087 7 119687629.263 7      -451.581 7        45.002               
G18  24040732.885 7 126334898.102 7       881.306 7        44.728               
G20  26602671.638 7 139797997.211 7     -2949.493 7        43.527               
G21  27378070.979 7 143872706.777 7     -2842.241 7        43.609               
G23  25168667.463 6 132262234.134 6      2698.874 6        40.961               
G24  23833564.882 7 125246210.921 7      2734.108 7        42.608               
> 2025 07 30 06 02 01.0000000  0  8                                             
G05  24614658.741 8 129350896.115 8     -2068.178 8        48.243               
G13  24251001.252 7 127439843.641 7     -2553.681 7        44.723               
G15  22775896.430 7 119688078.381 7      -453.037 7        44.576               
G18  24040562.736 7 126334016.036 7       884.056 7        44.839               
G20  26603231.206 7 139800948.621 7     -2951.029 7        44.084               
G21  27378608.068 7 143875546.730 7     -2840.756 7        43.580               
G23  25168153.765 6 132259535.658 6      2699.859 6        41.000               
G24  23833043.161 7 125243474.461 7      2739.590 7        42.898               
> 2025 07 30 06 02 02.0000000  0  8                                             
G05  24615052.914 8 129352962.611 8     -2068.026 8        48.843               
G13  24251488.183 7 127442398.410 7     -2553.053 7        44.434               
G15  22775984.775 7 119688527.886 7      -448.280 7        45.018               
G18  24040399.234 7 126333134.704 7       882.871 7        44.844               
G20  26603792.079 7 139803900.293 7     -2949.327 7        44.127               
G21  27379150.875 7 143878386.864 7     -2840.381 7        43.126               
G23  25167636.278 6 132256837.343 6      2700.899 6        41.122               
G24  23832523.083 7 125240738.549 7      2729.075 7        42.572               
> 2025 07 30 06 02 03.0000000  0  8                                             
G05  24615448.338 8 129355029.435 8     -2066.949 8        48.871               
G13  24251977.115 7 127444953.369 7     -2552.065 7        44.304               
G15  22776071.993 7 119688977.759 7      -449.734 7        44.570               
G18  24040230.158 7 126332253.998 7       883.284 7        45.110               
G20  26604358.295 7 139806852.190 7     -2951.463 7        44.173               
G21  27379688.876 7 143881227.182 7     -2842.260 7        43.389               
G23  25167131.621 6 132254139.083 6      2696.431 6        41.620               
G24  23832006.864 7 125238003.149 7      2736.144 7        43.319               
> 2025 07 30 06 02 04.0000000  0  8                                             
G05  24615841.099 8 129357096.583 8     -2065.600 8        49.242               
G13  24252464.028 7 127447508.523 7     -2554.181 7        44.062               
G15  22776160.552 7 119689427.999 7      -450.031 7        45.161               
G18  24040061.009 7 126331373.974 7       878.437 7        45.210               
G20  26604920.186 7 139809804.299 7     -2952.193 7        43.568               
G21  27380227.109 7 143884067.651 7     -2837.966 7        43.198               
G23  25166613.312 6 132251440.907 6      2701.129 6        41.106               
G24  23831484.481 7 125235268.252 7      2728.575 7        43.690               
> 2025 07 30 06 02 05.0000000  0  8                                             
G05  24616234.360 8 129359164.110 8     -2068.207 8        48.575               
G13  24252948.082 7 127450063.896 7     -2553.483 7        44.443               
G15  22776243.071 7 119689878.639 7      -447.139 7        44.985               
G18  24039896.186 7 126330494.663 7       878.827 7        44.922               
G20  26605481.649 7 139812756.682 7     -2953.568 7        44.195               
G21  27380767.647 7 143886908.313 7     -2837.891 7        42.941               
G23  25166102.204 6 132248742.884 6      2695.243 6        41.317               
G24  23830968.120 7 125232533.889 7      2739.983 7        42.818               
> 2025 07 30 06 02 06.0000000  0  8                                             
G05  24616628.372 8 129361231.942 8     -2068.159 8        48.208               
G13  24253435.978 7 127452619.433 7     -2556.315 7        44.453               
G15  22776326.663 7 119690329.615 7      -453.710 7        44.616               
G18  24039726.001 7 126329615.989 7       879.486 7        44.861               
G20  26606044.327 7 139815709.237 7     -2951.386 7        44.279               
G21  27381310.132 7 143889749.060 7     -2843.583 7        42.963               
G23  25165580.197 6 132246044.925 6      2700.879 6        41.289               
G24  23830448.364 7 125229800.064 7      2732.599 7        42.957               
> 2025 07 30 06 02 07.0000000  0  8                                             
G05  24617018.739 8 129363300.138 8     -2067.566 8        48.247               
G13  24253923.248 7 127455175.172 7     -2558.830 7        44.872               
G15  22776412.130 7 119690780.976 7      -454.892 7        44.770               
G18  24039561.177 7 126328738.002 7       877.420 7        44.907               
G20  26606607.201 7 139818662.059 7     -2952.357 7        43.651               
G21  27381852.243 7 143892590.018 7     -2841.030 7        43.515               
G23  25165071.591 6 132243347.063 6      2694.136 6        41.525               
G24  23829921.603 7 125227066.742 7      2733.975 7        43.410               
> 2025 07 30 06 02 08.0000000  0  8                                             
G05  24617413.251 8 129365368.679 8     -2072.017 8        48.175               
G13  24254408.767 7 127457731.119 7     -2558.791 7        44.777               
G15  22776494.989 7 119691232.711 7      -454.402 7        44.828               
G18  24039393.101 7 126327860.691 7       875.384 7        44.975               
G20  26607168.967 7 139821615.114 7     -2950.452 7        44.142               
G21  27382393.871 7 143895431.117 7     -2839.376 7        43.974               
G23  25164565.379 6 132240649.290 6      2700.695 6        41.786               
G24  23829405.260 7 125224333.937 7      2733.482 7        42.477               
> 2025 07 30 06 02 09.0000000  0  8                                             
G05  24617806.370 7 129367437.579 7     -2069.639 7        47.981               
G13  24254898.361 7 127460287.281 7     -2557.626 7        44.705               
G15  22776577.186 7 119691684.843 7      -449.901 7        44.598               
G18  24039223.864 7 126326984.078 7       878.517 7        45.487               
G20  26607730.805 7 139824568.423 7     -2954.332 7        44.426               
G21  27382929.244 7 143898272.424 7     -2838.875 7        43.983               
G23  25164050.287 6 132237951.664 6      2698.263 6        41.798               
G24  23828882.394 7 125221601.681 7      2735.208 7        42.668               
> 2025 07 30 06 02 10.0000000  0  8                                             
G05  24618197.862 7 129369506.822 7     -2067.144 7        47.895               
G13  24255380.771 7 127462843.650 7     -2553.242 7        44.417               
G15  22776660.367 7 119692137.328 7      -452.075 7        45.214               
G18  24039057.699 7 126326108.135 7       875.777 7        45.581               
G20  26608293.715 7 139827521.950 7     -2953.621 7        44.344               
G21  27383468.085 7 143901113.868 7     -2842.318 7        44.097               
G23  25163534.658 6 132235254.113 6      2698.690 6        41.369               
G24  23828362.781 7 125218869.941 7      2729.383 7        43.124               
> 2025 07 30 06 02 11.0000000  0  8                                             
G05  24618593.161 8 129371576.389 8     -2069.628 8        48.536               
G13  24255867.791 7 127465400.202 7     -2558.428 7        44.853               
G15  22776743.940 7 119692590.176 7      -453.954 7        44.815               
G18  24038891.035 7 126325232.859 7       871.280 7        45.080               
G20  26608856.822 7 139830475.693 7     -2951.993 7        44.299               
G21  27384009.195 7 143903955.467 7     -2845.174 7        43.623               
G23  25163017.278 6 132232556.646 6      2696.034 6        41.108               
