     3.02           OBSERVATION DATA    G                   RINEX VERSION / TYPE
G = GPS  R = GLONASS  E = GALILEO  S = GEO  M = MIXED       COMMENT             
GNSS-SDR            suhjw               20250806 070424 UTC PGM / RUN BY / DATE 
GPS OBSERVATION DATA FILE GENERATED BY GNSS-SDR             COMMENT             
GNSS-SDR VERSION 0.0.20                                     COMMENT             
See https://gnss-sdr.org                                    COMMENT             
DEFAULT MARKER NAME                                         MARKER NAME         
suhjw               CTTC                                    OBSERVER / AGENCY   
GNSS-SDR            Software Receiver   0.0.20              REC # / TYPE / VERS 
Antenna number      Antenna type                            ANT # / TYPE        
        0.0000        0.0000        0.0000                  APPROX POSITION XYZ 
        0.0000        0.0000        0.0000                  ANTENNA: DELTA H/E/N
G    4 C1C L1C D1C S1C                                      SYS / # / OBS TYPES 
DBHZ                                                        SIGNAL STRENGTH UNIT
  2025    08    06    07    04   42.1200000     GPS         TIME OF FIRST OBS   
    18    18   137     7                                    LEAP SECONDS        
                                                            END OF HEADER       
> 2025 08 06 07 04 43.0000000  0  6                                             
G05  28292682.928 7 148679061.985 7     -3502.075 7        44.200               
G10  26689215.086 7 140252758.399 7      3122.572 7        42.591               
G12  27275734.244 8 143334964.141 8      3202.827 8        48.721               
G15  24801127.678 7 130330813.766 7     -2028.110 7        45.091               
G24  23393445.254 7 122933369.713 7      -731.137 7        46.049               
G25  28320381.468 7 148824588.365 7      3591.330 7        42.039               
> 2025 08 06 07 04 44.0000000  0  6                                             
G05  28293349.782 7 148682564.189 7     -3504.850 7        44.182               
G10  26688616.492 7 140249637.392 7      3118.158 7        43.218               
G12  27275123.034 8 143331760.361 8      3206.695 8        48.784               
G15  24801516.079 7 130332843.356 7     -2027.853 7        45.044               
G24  23393584.114 7 122934099.040 7      -730.022 7        45.644               
G25  28319695.101 7 148820995.525 7      3592.777 7        42.123               
> 2025 08 06 07 04 45.0000000  0  6                                             
G05  28294013.259 7 148686066.561 7     -3502.627 7        44.928               
G10  26688021.418 7 140246516.523 7      3121.967 7        43.067               
G12  27274513.862 8 143328556.729 8      3205.715 8        48.513               
G15  24801903.158 7 130334873.170 7     -2024.499 7        45.033               
G24  23393726.691 7 122934829.015 7      -727.731 7        46.305               
G25  28319012.987 7 148817402.545 7      3595.494 7        42.684               
> 2025 08 06 07 04 46.0000000  0  6                                             
G05  28294681.381 7 148689569.094 7     -3504.014 7        44.164               
G10  26687432.366 7 140243395.780 7      3116.505 7        42.756               
G12  27273905.010 7 143325353.209 7      3204.419 7        47.970               
G15  24802287.021 7 130336903.254 7     -2026.896 7        44.747               
G24  23393863.961 7 122935559.614 7      -728.524 7        46.794               
G25  28318329.622 7 148813809.475 7      3587.336 7        43.146               
> 2025 08 06 07 04 47.0000000  0  6                                             
G05  28295347.717 7 148693071.749 7     -3502.809 7        44.547               
G10  26686834.486 7 140240275.154 7      3118.547 7        42.629               
G12  27273297.321 8 143322149.781 8      3204.230 8        48.295               
G15  24802671.955 7 130338933.538 7     -2031.151 7        44.780               
G24  23394004.858 7 122936290.801 7      -732.484 7        45.892               
G25  28317643.433 7 148810216.214 7      3594.685 7        42.802               
> 2025 08 06 07 04 48.0000000  0  6                                             
G05  28296015.536 7 148696574.524 7     -3505.276 7        44.342               
G10  26686243.146 7 140237154.621 7      3120.796 7        42.762               
G12  27272686.075 7 143318946.434 7      3200.899 7        47.717               
G15  24803058.945 7 130340964.028 7     -2029.069 7        44.913               
G24  23394142.986 7 122937022.578 7      -732.786 7        46.245               
G25  28316957.477 7 148806622.799 7      3592.556 7        42.687               
> 2025 08 06 07 04 49.0000000  0  6                                             
G05  28296680.282 7 148700077.447 7     -3501.185 7        44.595               
G10  26685643.891 7 140234034.250 7      3122.797 7        42.688               
G12  27272075.455 8 143315743.218 8      3203.442 8        48.176               
G15  24803442.592 7 130342994.771 7     -2032.762 7        44.848               
G24  23394282.114 7 122937754.988 7      -731.762 7        46.271               
G25  28316276.417 7 148803029.268 7      3591.595 7        42.988               
> 2025 08 06 07 04 50.0000000  0  6                                             
G05  28297348.976 7 148703580.586 7     -3503.833 7        44.639               
G10  26685053.230 7 140230914.061 7      3123.041 7        42.381               
G12  27271467.086 8 143312540.161 8      3204.282 8        48.086               
G15  24803833.048 7 130345025.797 7     -2028.197 7        45.610               
G24  23394421.707 7 122938488.089 7      -737.993 7        46.556               
G25  28315586.244 7 148799435.640 7      3591.236 7        42.985               
> 2025 08 06 07 04 51.0000000  0  6                                             
G05  28298013.829 7 148707083.891 7     -3502.897 7        44.797               
G10  26684456.226 7 140227794.020 7      3124.947 7        42.490               
G12  27270857.574 7 143309337.266 7      3201.713 7        47.775               
G15  24804222.003 7 130347057.076 7     -2032.249 7        44.953               
G24  23394558.994 7 122939221.802 7      -730.782 7        46.441               
G25  28314905.059 7 148795841.914 7      3595.897 7        42.227               
> 2025 08 06 07 04 52.0000000  0  6                                             
G05  28298683.256 7 148710587.341 7     -3508.493 7        44.907               
G10  26683862.099 7 140224674.096 7      3116.413 7        42.051               
G12  27270246.203 7 143306134.464 7      3201.154 7        47.419               
G15  24804611.369 7 130349088.585 7     -2033.454 7        45.640               
G24  23394699.623 7 122939956.154 7      -734.245 7        46.218               
G25  28314223.374 7 148792248.039 7      3592.840 7        42.481               
> 2025 08 06 07 04 53.0000000  0  6                                             
G05  28299348.270 7 148714090.900 7     -3503.973 7        44.725               
G10  26683270.491 7 140221554.278 7      3122.286 7        42.299               
G12  27269637.441 7 143302931.761 7      3202.800 7        47.495               
G15  24804995.482 7 130351120.291 7     -2034.481 7        45.789               
G24  23394839.145 7 122940691.087 7      -733.854 7        46.686               
G25  28313539.348 7 148788654.007 7      3594.261 7        42.562               
> 2025 08 06 07 04 54.0000000  0  6                                             
G05  28300014.820 7 148717594.626 7     -3507.139 7        44.077               
G10  26682672.362 7 140218434.612 7      3118.561 7        42.716               
G12  27269029.019 7 143299729.184 7      3200.660 7        46.992               
G15  24805382.168 7 130353152.254 7     -2029.381 7        45.644               
G24  23394978.470 7 122941426.646 7      -735.559 7        46.722               
G25  28312853.892 7 148785059.851 7      3591.522 7        42.564               
> 2025 08 06 07 04 55.0000000  0  6                                             
G05  28300685.016 7 148721098.430 7     -3503.123 7        44.322               
G10  26682082.934 7 140215314.997 7      3119.684 7        42.408               
G12  27268421.615 7 143296526.669 7      3204.395 7        47.158               
G15  24805767.924 7 130355184.380 7     -2030.821 7        45.628               
G24  23395119.456 7 122942162.766 7      -739.148 7        46.384               
G25  28312170.598 7 148781465.491 7      3593.199 7        43.057               
> 2025 08 06 07 04 56.0000000  0  6                                             
G05  28301347.796 7 148724602.391 7     -3504.879 7        44.491               
G10  26681487.717 7 140212195.549 7      3117.432 7        42.209               
G12  27267809.636 7 143293324.289 7      3203.766 7        47.239               
G15  24806154.306 7 130357216.748 7     -2034.509 7        45.177               
G24  23395260.943 7 122942899.525 7      -737.394 7        46.167               
G25  28311489.592 7 148777871.013 7      3597.620 7        43.143               
> 2025 08 06 07 04 57.0000000  0  6                                             
G05  28302015.186 7 148728106.479 7     -3501.511 7        44.882               
G10  26680895.037 7 140209076.189 7      3112.461 7        42.339               
G12  27267202.536 7 143290122.003 7      3203.256 7        47.334               
G15  24806539.294 7 130359249.350 7     -2033.184 7        45.019               
G24  23395398.570 7 122943636.878 7      -741.196 7        46.475               
G25  28310802.046 7 148774276.380 7      3596.288 7        42.772               
> 2025 08 06 07 04 58.0000000  0  6                                             
G05  28302682.773 7 148731610.735 7     -3508.273 7        45.149               
G10  26680298.247 7 140205956.992 7      3122.661 7        42.523               
G12  27266589.629 7 143286919.854 7      3200.150 7        47.173               
G15  24806928.517 7 130361282.194 7     -2034.718 7        45.310               
G24  23395541.183 7 122944374.870 7      -740.138 7        46.008               
G25  28310119.002 7 148770681.642 7      3595.002 7        42.488               
> 2025 08 06 07 04 59.0000000  0  6                                             
G05  28303349.930 7 148735115.088 7     -3503.970 7        44.834               
G10  26679710.875 7 140202837.887 7      3121.201 7        43.022               
G12  27265982.297 7 143283717.778 7      3199.983 7        47.345               
G15  24807316.525 7 130363315.230 7     -2039.393 7        45.339               
G24  23395684.189 7 122945113.424 7      -741.628 7        46.673               
G25  28309433.332 7 148767086.703 7      3589.885 7        42.822               
> 2025 08 06 07 05 00.0000000  0  6                                             
G05  28304018.107 7 148738619.636 7     -3504.067 7        44.103               
G10  26679119.500 7 140199718.953 7      3113.293 7        42.842               
G12  27265374.911 7 143280515.875 7      3201.133 7        46.788               
G15  24807701.513 7 130365348.571 7     -2030.705 7        45.205               
G24  23395823.835 7 122945852.670 7      -742.586 7        46.551               
G25  28308748.484 7 148763491.699 7      3594.777 7        42.805               
> 2025 08 06 07 05 01.0000000  0  6                                             
G05  28304687.588 7 148742124.327 7     -3502.598 7        43.663               
G10  26678527.552 7 140196600.132 7      3116.060 7        42.608               
G12  27264765.255 7 143277314.059 7      3203.475 7        47.444               
G15  24808088.002 7 130367382.093 7     -2035.772 7        45.236               
G24  23395959.336 7 122946592.494 7      -744.457 7        46.468               
G25  28308067.442 7 148759896.522 7      3598.717 7        43.654               
> 2025 08 06 07 05 02.0000000  0  6                                             
G05  28305353.244 7 148745629.174 7     -3506.503 7        44.113               
G10  26677937.392 7 140193481.476 7      3117.431 7        42.938               
G12  27264155.939 7 143274112.398 7      3199.818 7        47.144               
G15  24808473.777 7 130369415.908 7     -2034.415 7        44.692               
G24  23396098.696 7 122947332.978 7      -741.658 7        45.614               
G25  28307381.968 7 148756301.255 7      3593.250 7        43.937               
> 2025 08 06 07 05 03.0000000  0  6                                             
G05  28306017.096 7 148749134.124 7     -3505.025 7        43.950               
G10  26677341.532 7 140190362.907 7      3118.148 7        42.966               
G12  27263545.587 7 143270910.802 7      3202.997 7        46.827               
G15  24808861.123 7 130371449.887 7     -2032.754 7        44.792               
G24  23396241.649 7 122948074.008 7      -742.119 7        45.694               
G25  28306697.745 7 148752705.810 7      3594.298 7        44.193               
> 2025 08 06 07 05 04.0000000  0  6                                             
G05  28306687.471 7 148752639.210 7     -3501.959 7        43.899               
G10  26676750.156 7 140187244.441 7      3121.491 7        43.062               
G12  27262936.611 7 143267709.307 7      3202.228 7        47.592               
G15  24809248.560 7 130373484.090 7     -2037.354 7        45.176               
G24  23396384.083 7 122948815.654 7      -738.663 7        45.869               
G25  28306013.612 7 148749110.206 7      3599.777 7        43.670               
> 2025 08 06 07 05 05.0000000  0  6                                             
G05  28307351.359 7 148756144.508 7     -3502.275 7        43.780               
G10  26676152.974 7 140184126.187 7      3120.667 7        43.536               
G12  27262327.009 7 143264508.004 7      3201.076 7        46.971               
G15  24809636.264 7 130375518.599 7     -2032.885 7        45.159               
G24  23396525.355 7 122949557.996 7      -741.443 7        46.258               
G25  28305328.246 7 148745514.537 7      3591.498 7        44.150               
> 2025 08 06 07 05 06.0000000  0  7                                             
G32  28113313.032 6 147736505.002 6      2358.084 6        39.241               
G05  28308020.839 7 148759649.950 7     -3504.937 7        43.815               
G10  26675564.100 7 140181008.057 7      3115.491 7        43.380               
G12  27261719.999 7 143261306.805 7      3202.777 7        47.133               
G15  24810027.899 7 130377553.339 7     -2034.038 7        45.271               
G24  23396666.628 7 122950300.946 7      -742.694 7        45.870               
G25  28304646.006 7 148741918.725 7      3596.267 7        44.205               
> 2025 08 06 07 05 07.0000000  0  7                                             
G32  28112863.090 6 147734145.652 6      2353.273 6        39.321               
G05  28308685.138 7 148763155.502 7     -3506.971 7        43.442               
G10  26674973.690 7 140177890.006 7      3120.457 7        42.885               
G12  27261106.430 7 143258105.697 7      3203.869 7        47.174               
G15  24810410.135 7 130379588.282 7     -2033.389 7        45.184               
G24  23396809.276 7 122951044.482 7      -742.383 7        45.384               
G25  28303961.301 7 148738322.749 7      3597.550 7        44.453               
> 2025 08 06 07 05 08.0000000  0  7                                             
G32  28112414.077 6 147731786.304 6      2355.749 6        39.572               
G05  28309350.581 7 148766661.166 7     -3507.895 7        43.399               
G10  26674379.598 7 140174772.067 7      3120.256 7        43.491               
G12  27260498.704 7 143254904.661 7      3201.673 7        47.152               
G15  24810803.576 7 130381623.390 7     -2034.037 7        45.826               
G24  23396946.492 7 122951788.586 7      -738.252 7        45.962               
G25  28303278.276 7 148734726.583 7      3599.963 7        44.265               
> 2025 08 06 07 05 09.0000000  0  7                                             
G32  28111973.177 6 147729426.976 6      2362.699 6        40.024               
G05  28310018.703 7 148770166.970 7     -3504.576 7        43.538               
G10  26673785.453 7 140171654.236 7      3116.753 7        43.401               
G12  27259889.639 7 143251703.752 7      3203.864 7        46.571               
G15  24811189.100 7 130383658.735 7     -2037.282 7        45.523               
G24  23397089.641 7 122952533.306 7      -749.089 7        45.287               
G25  28302593.463 7 148731130.281 7      3593.850 7        43.848               
> 2025 08 06 07 05 10.0000000  0  7                                             
G32  28111522.717 6 147727067.702 6      2357.151 6        39.293               
G05  28310687.184 7 148773672.912 7     -3503.495 7        44.024               
G10  26673194.739 7 140168536.568 7      3119.967 7        43.616               
G12  27259280.359 7 143248502.950 7      3200.566 7        46.193               
G15  24811573.266 7 130385694.313 7     -2033.223 7        45.140               
G24  23397231.021 7 122953278.651 7      -744.684 7        45.609               
G25  28301907.811 7 148727533.847 7      3595.202 7        43.513               
> 2025 08 06 07 05 11.0000000  0  7                                             
G32  28111073.900 6 147724708.486 6      2365.286 6        38.863               
G05  28311354.788 7 148777179.004 7     -3505.219 7        44.014               
G10  26672598.164 7 140165419.012 7      3120.163 7        44.273               
G12  27258671.918 7 143245302.270 7      3201.905 7        46.625               
G15  24811955.413 7 130387730.149 7     -2033.292 7        45.142               
G24  23397372.132 7 122954024.617 7      -745.975 7        46.382               
G25  28301223.016 7 148723937.283 7      3597.249 7        43.328               
> 2025 08 06 07 05 12.0000000  0  7                                             
G32  28110625.138 6 147722349.365 6      2359.918 6        38.898               
G05  28312022.607 7 148780685.311 7     -3506.170 7        44.261               
G10  26672007.110 7 140162301.664 7      3118.160 7        43.826               
G12  27258063.282 7 143242101.775 7      3198.401 7        47.175               
G15  24812342.938 7 130389766.279 7     -2034.143 7        44.376               
G24  23397511.350 7 122954771.270 7      -745.999 7        45.705               
G25  28300537.221 7 148720340.660 7      3600.133 7        43.710               
> 2025 08 06 07 05 13.0000000  0  7                                             
G32  28110176.875 6 147719990.321 6      2353.117 6        39.309               
G05  28312691.355 7 148784191.747 7     -3503.998 7        42.945               
G10  26671415.127 7 140159184.441 7      3115.483 7        44.095               
G12  27257456.843 7 143238901.390 7      3200.879 7        46.725               
G15  24812730.035 7 130391802.628 7     -2035.915 7        45.160               
G24  23397654.660 7 122955518.517 7      -750.077 7        46.047               
G25  28299852.712 7 148716743.907 7      3597.289 7        43.674               
> 2025 08 06 07 05 14.0000000  0  7                                             
G32  28109726.397 6 147717631.281 6      2357.924 6        39.108               
G05  28313354.421 7 148787698.323 7     -3506.602 7        43.562               
G10  26670819.535 7 140156067.335 7      3117.052 7        44.620               
G12  27256846.919 7 143235701.119 7      3201.353 7        46.845               
G15  24813119.723 7 130393839.209 7     -2031.972 7        44.856               
G24  23397797.808 7 122956266.392 7      -748.601 7        45.470               
G25  28299170.134 7 148713146.993 7      3596.249 7        43.331               
> 2025 08 06 07 05 15.0000000  0  7                                             
G32  28109280.583 6 147715272.329 6      2360.248 6        39.259               
G05  28314025.135 7 148791205.072 7     -3508.062 7        43.692               
G10  26670229.571 7 140152950.387 7      3115.756 7        43.624               
G12  27256237.568 7 143232500.979 7      3203.583 7        46.757               
G15  24813508.499 7 130395876.042 7     -2036.875 7        44.796               
G24  23397939.045 7 122957014.891 7      -745.408 7        45.689               
G25  28298482.516 7 148709549.973 7      3597.772 7        42.945               
> 2025 08 06 07 05 16.0000000  0  7                                             
G32  28108826.674 6 147712913.398 6      2363.738 6        39.231               
G05  28314689.344 7 148794711.932 7     -3508.642 7        43.876               
G10  26669633.157 7 140149833.547 7      3116.418 7        43.533               
G12  27255625.393 7 143229300.935 7      3199.836 7        46.705               
G15  24813897.025 7 130397913.086 7     -2037.325 7        44.881               
G24  23398084.749 7 122957763.979 7      -751.658 7        45.762               
G25  28297794.612 7 148705952.794 7      3597.787 7        43.615               
> 2025 08 06 07 05 17.0000000  0  7                                             
G32  28108383.737 6 147710554.497 6      2360.635 6        40.181               
G05  28315354.251 7 148798218.950 7     -3507.996 7        43.649               
G10  26669033.383 7 140146716.811 7      3118.473 7        43.842               
G12  27255015.505 7 143226100.987 7      3203.246 7        46.634               
G15  24814287.267 7 130399950.335 7     -2040.921 7        45.542               
G24  23398225.110 7 122958513.679 7      -749.240 7        45.850               
G25  28297114.428 7 148702355.461 7      3598.525 7        43.323               
> 2025 08 06 07 05 18.0000000  0  8                                             
G32  28107943.498 6 147708195.590 6      2359.361 6        39.854               
G05  28316025.161 7 148801726.057 7     -3512.298 7        43.361               
G10  26668441.275 7 140143600.153 7      3114.771 7        43.856               
G12  27254409.692 7 143222901.119 7      3201.459 7        46.729               
G15  24814676.722 7 130401987.776 7     -2038.274 7        45.583               
G23  23621365.910 6 124131116.491 6      1100.886 6        41.039               
G24  23398372.315 7 122959263.940 7      -750.206 7        46.367               
G25  28296429.383 7 148698757.929 7      3604.217 7        43.364               
> 2025 08 06 07 05 19.0000000  0  8                                             
G32  28107495.718 6 147705836.713 6      2364.725 6        40.559               
G05  28316689.942 7 148805233.278 7     -3502.959 7        43.505               
G10  26667846.004 7 140140483.628 7      3115.698 7        43.727               
G12  27253800.001 7 143219701.304 7      3198.378 7        46.740               
G15  24815061.960 7 130404025.410 7     -2039.562 7        45.688               
G23  23621151.947 6 124130009.969 6      1110.018 6        41.429               
G24  23398514.481 7 122960014.777 7      -748.694 7        46.104               
G25  28295740.693 7 148695160.247 7      3600.478 7        43.104               
> 2025 08 06 07 05 20.0000000  0  8                                             
G32  28107047.063 6 147703477.898 6      2362.633 6        40.851               
G05  28317358.476 7 148808740.706 7     -3505.824 7        42.766               
G10  26667257.971 7 140137367.241 7      3117.097 7        44.338               
G12  27253190.953 7 143216501.661 7      3198.538 7        46.537               
G15  24815451.058 7 130406063.316 7     -2038.602 7        45.278               
G23  23620939.645 6 124128904.003 6      1104.796 6        41.017               
G24  23398658.881 7 122960766.264 7      -751.738 7        46.282               
G25  28295061.152 7 148691562.478 7      3596.163 7        43.033               
> 2025 08 06 07 05 21.0000000  0  8                                             
G32  28106599.104 6 147701119.133 6      2357.647 6        40.756               
G05  28318028.958 7 148812248.257 7     -3508.698 7        43.129               
G10  26666663.558 7 140134250.991 7      3115.767 7        43.846               
G12  27252583.174 7 143213302.135 7      3197.902 7        46.828               
G15  24815835.207 7 130408101.440 7     -2037.869 7        44.794               
G23  23620730.685 6 124127798.565 6      1107.445 6        41.044               
G24  23398802.065 7 122961518.374 7      -750.895 7        45.805               
G25  28294373.802 7 148687964.566 7      3593.195 7        42.802               
> 2025 08 06 07 05 22.0000000  0  8                                             
G32  28106156.971 6 147698760.427 6      2359.849 6        40.221               
G05  28318693.775 7 148815755.938 7     -3508.200 7        43.468               
G10  26666071.432 7 140131134.838 7      3116.717 7        44.130               
G12  27251976.664 7 143210102.699 7      3200.893 7        47.110               
G15  24816225.395 7 130410139.774 7     -2039.902 7        45.269               
G23  23620519.598 6 124126693.603 6      1101.811 6        41.089               
G24  23398944.356 7 122962271.061 7      -758.528 7        46.151               
G25  28293688.632 7 148684366.471 7      3598.817 7        42.831               
> 2025 08 06 07 05 23.0000000  0  8                                             
G32  28105699.720 6 147696401.684 6      2358.928 6        40.651               
G05  28319365.310 7 148819263.725 7     -3506.164 7        43.400               
G10  26665478.538 7 140128018.780 7      3115.035 7        44.713               
G12  27251365.990 7 143206903.321 7      3196.391 7        47.521               
G15  24816610.615 7 130412178.294 7     -2037.977 7        45.153               
G23  23620311.334 6 124125589.099 6      1108.778 6        41.610               
G24  23399088.631 7 122963024.324 7      -752.939 7        46.268               
G25  28293007.697 7 148680768.207 7      3601.168 7        43.086               
> 2025 08 06 07 05 24.0000000  0  8                                             
G32  28105254.281 6 147694042.978 6      2359.793 6        40.519               
G05  28320027.536 7 148822771.664 7     -3510.021 7        43.060               
G10  26664885.447 7 140124902.840 7      3118.385 7        44.301               
G12  27250759.319 7 143203704.072 7      3197.439 7        47.776               
G15  24817002.286 7 130414217.043 7     -2040.647 7        45.172               
G23  23620109.182 7 124124485.112 7      1101.024 7        42.007               
G24  23399232.244 7 122963778.185 7      -751.860 7        46.332               
G25  28292319.454 7 148677169.795 7      3602.440 7        43.397               
> 2025 08 06 07 05 25.0000000  0  8                                             
G32  28104802.642 6 147691684.351 6      2356.264 6        40.393               
G05  28320698.643 7 148826279.740 7     -3506.852 7        43.164               
G10  26664291.159 7 140121787.026 7      3112.093 7        44.142               
G12  27250150.146 7 143200504.936 7      3197.716 7        47.822               
G15  24817388.025 7 130416256.028 7     -2043.270 7        45.778               
G23  23619892.967 6 124123381.641 6      1111.178 6        41.507               
G24  23399372.641 7 122964532.678 7      -754.378 7        45.870               
G25  28291636.303 7 148673571.263 7      3597.600 7        43.300               
> 2025 08 06 07 05 26.0000000  0  8                                             
G32  28104350.609 6 147689325.732 6      2356.691 6        39.058               
G05  28321365.283 7 148829787.962 7     -3508.863 7        44.011               
G10  26663698.336 7 140118671.357 7      3116.874 7        44.476               
G12  27249538.900 7 143197305.914 7      3197.961 7        47.914               
G15  24817777.784 7 130418295.239 7     -2040.447 7        44.978               
G23  23619682.273 6 124122278.662 6      1105.889 6        41.239               
G24  23399518.113 7 122965287.780 7      -757.618 7        45.735               
G25  28290949.758 7 148669972.589 7      3599.636 7        43.404               
> 2025 08 06 07 05 27.0000000  0  8                                             
G32  28103895.342 6 147686967.179 6      2352.276 6        39.862               
G05  28322033.227 7 148833296.320 7     -3511.175 7        44.289               
G10  26663105.871 7 140115555.799 7      3115.531 7        44.052               
G12  27248932.944 7 143194107.009 7      3199.146 7        47.755               
G15  24818167.668 7 130420334.680 7     -2039.704 7        45.355               
G23  23619467.523 6 124121176.232 6      1102.494 6        41.387               
G24  23399661.655 7 122966043.484 7      -754.537 7        45.487               
G25  28290268.394 7 148666373.767 7      3599.218 7        42.810               
> 2025 08 06 07 05 28.0000000  0  8                                             
G32  28103451.225 6 147684608.668 6      2359.436 6        39.756               
G05  28322699.456 7 148836804.819 7     -3507.164 7        44.193               
G10  26662513.227 7 140112440.395 7      3116.603 7        43.957               
G12  27248324.682 7 143190908.234 7      3199.710 7        47.654               
G15  24818558.446 7 130422374.373 7     -2043.697 7        45.706               
G23  23619255.293 6 124120074.331 6      1095.774 6        41.096               
G24  23399807.412 7 122966799.838 7      -758.813 7        45.802               
G25  28289582.027 7 148662774.835 7      3595.272 7        43.003               
> 2025 08 06 07 05 29.0000000  0  8                                             
G32  28103003.392 6 147682250.210 6      2357.055 6        39.519               
G05  28323366.667 7 148840313.446 7     -3508.919 7        44.426               
G10  26661921.709 7 140109325.116 7      3116.404 7        44.080               
G12  27247715.867 8 143187709.583 8      3199.879 8        48.155               
G15  24818944.613 7 130424414.273 7     -2039.956 7        46.110               
G23  23619043.920 6 124118972.925 6      1101.951 6        40.893               
G24  23399950.239 7 122967556.775 7      -754.802 7        46.194               
G25  28288897.840 7 148659175.752 7      3595.997 7        42.878               
> 2025 08 06 07 05 30.0000000  0  8                                             
G32  28102554.129 6 147679891.812 6      2362.726 6        39.193               
G05  28324034.736 7 148843822.211 7     -3511.894 7        43.798               
G10  26661332.209 7 140106209.984 7      3117.175 7        44.164               
G12  27247106.533 7 143184511.048 7      3196.204 7        47.359               
G15  24819333.086 7 130426454.420 7     -2042.992 7        45.909               
G23  23618844.055 6 124117872.042 6      1096.697 6        40.603               
G24  23400094.692 7 122968314.349 7      -754.114 7        46.306               
G25  28288214.993 7 148655576.552 7      3599.513 7        42.852               
> 2025 08 06 07 05 31.0000000  0  8                                             
G32  28102113.640 6 147677533.390 6      2355.770 6        39.451               
G05  28324705.789 7 148847331.076 7     -3505.179 7        43.811               
G10  26660738.279 7 140103094.922 7      3115.396 7        44.399               
G12  27246498.325 8 143181312.599 8      3199.544 8        48.579               
G15  24819719.896 7 130428494.766 7     -2041.753 7        45.616               
G23  23618637.150 6 124116771.628 6      1100.759 6        41.553               
G24  23400240.254 7 122969072.485 7      -761.182 7        46.420               
G25  28287530.288 7 148651977.164 7      3600.817 7        43.460               
> 2025 08 06 07 05 32.0000000  0  8                                             
G32  28101664.198 6 147675175.002 6      2360.598 6        39.519               
G05  28325369.945 7 148850840.061 7     -3507.482 7        43.257               
G10  26660147.761 7 140099979.976 7      3111.426 7        44.424               
G12  27245888.884 8 143178114.226 8      3198.913 8        48.373               
G15  24820107.011 7 130430535.312 7     -2045.815 7        45.999               
G23  23618434.408 7 124115671.689 7      1110.293 7        42.538               
G24  23400383.456 7 122969831.205 7      -757.217 7        46.304               
G25  28286846.726 7 148648377.627 7      3602.234 7        43.282               
> 2025 08 06 07 05 33.0000000  0  8                                             
G32  28101212.219 6 147672816.653 6      2362.493 6        39.556               
G05  28326039.337 7 148854349.183 7     -3509.597 7        43.382               
G10  26659553.491 7 140096865.146 7      3112.535 7        44.383               
G12  27245280.265 8 143174915.968 8      3198.966 8        48.337               
G15  24820496.413 7 130432576.064 7     -2041.028 7        45.988               
G23  23618219.765 7 124114572.278 7      1099.989 7        42.150               
G24  23400526.301 7 122970590.540 7      -760.977 7        46.557               
G25  28286160.448 7 148644777.951 7      3598.285 7        43.266               
> 2025 08 06 07 05 34.0000000  0  8                                             
G32  28100761.258 6 147670458.404 6      2360.051 6        40.054               
G05  28326706.834 7 148857858.483 7     -3509.480 7        42.365               
G10  26658959.686 7 140093750.490 7      3117.015 7        44.452               
G12  27244671.128 8 143171717.859 8      3197.701 8        48.230               
G15  24820881.633 7 130434617.085 7     -2040.280 7        45.864               
G23  23618006.034 7 124113473.417 7      1100.115 7        42.132               
G24  23400669.861 7 122971350.527 7      -764.954 7        45.968               
G25  28285473.045 7 148641178.163 7      3599.107 7        43.397               
> 2025 08 06 07 05 35.0000000  0  8                                             
G32  28100323.485 6 147668100.151 6      2350.376 6        39.761               
G05  28327374.421 7 148861367.889 7     -3506.084 7        42.339               
G10  26658370.419 7 140090635.931 7      3110.939 7        44.308               
G12  27244060.186 7 143168519.857 7      3196.388 7        47.946               
G15  24821271.660 7 130436658.327 7     -2043.067 7        45.759               
G23  23617795.715 6 124112375.024 6      1098.556 6        41.785               
G24  23400816.958 7 122972111.094 7      -762.017 7        46.380               
G25  28284787.518 7 148637578.222 7      3600.611 7        43.735               
> 2025 08 06 07 05 36.0000000  0  8                                             
G32  28099863.680 6 147665741.967 6      2359.725 6        39.720               
G05  28328041.043 7 148864877.463 7     -3507.435 7        42.166               
G10  26657773.933 7 140087521.518 7      3114.381 7        44.665               
G12  27243455.320 7 143165321.976 7      3199.191 7        47.487               
G15  24821663.528 7 130438699.811 7     -2041.560 7        46.049               
G23  23617586.952 6 124111277.161 6      1096.986 6        41.679               
G24  23400961.269 7 122972872.280 7      -763.616 7        45.912               
G25  28284102.938 7 148633978.151 7      3599.783 7        43.529               
> 2025 08 06 07 05 37.0000000  0  8                                             
G32  28099410.843 6 147663383.817 6      2358.117 6        39.299               
G05  28328711.631 7 148868387.166 7     -3503.518 7        42.248               
G10  26657183.505 7 140084407.238 7      3113.668 7        44.624               
G12  27242843.699 7 143162124.225 7      3198.787 7        47.270               
G15  24822048.695 7 130440741.538 7     -2039.482 7        45.655               
G23  23617377.795 7 124110179.815 7      1096.585 7        42.433               
G24  23401105.543 7 122973634.087 7      -758.609 7        45.963               
G25  28283416.821 7 148630377.966 7      3597.914 7        43.128               
> 2025 08 06 07 05 38.0000000  0  8                                             
G32  28098952.449 6 147661025.731 6      2363.454 6        39.266               
G05  28329378.503 7 148871897.032 7     -3515.882 7        42.788               
G10  26656591.593 7 140081293.084 7      3113.520 7        44.154               
G12  27242237.170 7 143158926.569 7      3197.600 7        47.735               
G15  24822438.204 7 130442783.447 7     -2037.230 7        46.117               
G23  23617174.570 7 124109082.984 7      1094.303 7        42.041               
G24  23401253.534 7 122974396.501 7      -765.671 7        46.599               
G25  28282732.259 7 148626777.620 7      3603.999 7        43.651               
> 2025 08 06 07 05 39.0000000  0  8                                             
G32  28098505.276 6 147658667.669 6      2364.798 6        38.190               
G05  28330045.411 7 148875407.002 7     -3512.072 7        42.829               
G10  26656000.736 7 140078179.036 7      3112.487 7        44.788               
G12  27241626.407 7 143155729.019 7      3197.338 7        47.664               
G15  24822827.534 7 130444825.592 7     -2039.388 7        46.483               
G23  23616970.953 6 124107986.616 6      1090.946 6        41.923               
G24  23401396.630 7 122975159.514 7      -764.042 7        46.203               
G25  28282042.997 7 148623177.129 7      3599.103 7        42.477               
> 2025 08 06 07 05 40.0000000  0  8                                             
G32  28098057.425 6 147656309.624 6      2358.897 6        38.456               
G05  28330717.429 7 148878917.121 7     -3510.521 7        42.787               
G10  26655405.608 7 140075065.102 7      3119.518 7        44.472               
G12  27241017.985 7 143152531.573 7      3199.200 7        47.410               
G15  24823216.507 7 130446867.952 7     -2042.379 7        46.454               
G23  23616767.818 6 124106890.761 6      1098.392 6        41.799               
G24  23401543.441 7 122975923.131 7      -765.289 7        46.375               
G25  28281364.921 7 148619576.497 7      3598.795 7        43.174               
> 2025 08 06 07 05 41.0000000  0  8                                             
G32  28097618.258 6 147653951.600 6      2347.398 6        38.806               
G05  28331382.121 7 148882427.304 7     -3510.586 7        43.031               
G10  26654813.501 7 140071951.275 7      3111.648 7        44.228               
G12  27240410.688 7 143149334.201 7      3196.796 7        47.316               
G15  24823602.639 7 130448910.495 7     -2041.102 7        46.071               
G23  23616550.262 6 124105795.397 6      1096.273 6        41.436               
G24  23401688.038 7 122976687.311 7      -761.892 7        46.035               
G25  28280678.357 7 148615975.692 7      3599.104 7        43.174               
> 2025 08 06 07 05 42.0000000  0  8                                             
G32  28097154.414 6 147651593.605 6      2352.107 6        39.013               
G05  28332050.726 7 148885937.642 7     -3509.753 7        43.358               
G10  26654220.303 7 140068837.561 7      3113.178 7        44.153               
G12  27239799.300 7 143146136.944 7      3197.433 7        47.497               
G15  24823995.167 7 130450953.271 7     -2046.768 7        46.242               
G23  23616337.371 6 124104700.540 6      1086.637 6        41.846               
G24  23401835.511 7 122977452.102 7      -764.079 7        46.209               
G25  28279992.151 7 148612374.737 7      3596.617 7        43.083               
> 2025 08 06 07 05 43.0000000  0  8                                             
G32  28096705.598 6 147649235.628 6      2354.794 6        38.457               
G05  28332718.456 7 148889448.105 7     -3506.131 7        42.829               
G10  26653622.923 7 140065723.969 7      3111.834 7        44.444               
G12  27239192.057 7 143142939.779 7      3197.916 7        46.857               
G15  24824384.444 7 130452996.243 7     -2050.733 7        46.038               
G23  23616124.497 6 124103606.180 6      1091.899 6        41.827               
G24  23401979.213 7 122978217.476 7      -766.503 7        45.850               
G25  28279309.215 7 148608773.617 7      3603.835 7        42.878               
> 2025 08 06 07 05 44.0000000  0  8                                             
G32  28096254.101 6 147646877.694 6      2358.615 6        38.758               
G05  28333382.433 7 148892958.702 7     -3508.592 7        42.991               
G10  26653030.404 7 140062610.503 7      3116.201 7        44.400               
G12  27238582.902 7 143139742.749 7      3199.203 7        46.831               
G15  24824773.435 7 130455039.448 7     -2044.017 7        46.039               
G23  23615914.536 6 124102512.333 6      1087.329 6        41.847               
G24  23402125.632 7 122978983.464 7      -763.816 7        46.009               
G25  28278621.883 7 148605172.375 7      3599.912 7        43.525               
> 2025 08 06 07 05 45.0000000  0  8                                             
G32  28095810.395 6 147644519.818 6      2353.306 6        38.160               
G05  28334048.215 7 148896469.448 7     -3509.744 7        43.307               
G10  26652437.153 7 140059497.160 7      3111.198 7        44.730               
G12  27237973.228 7 143136545.819 7      3194.711 7        46.664               
G15  24825161.121 7 130457082.878 7     -2046.370 7        45.917               
G23  23615705.343 7 124101418.973 7      1092.679 7        42.019               
G24  23402269.496 7 122979750.079 7      -765.761 7        45.749               
G25  28277937.446 7 148601570.987 7      3603.116 7        43.138               
> 2025 08 06 07 05 46.0000000  0  8                                             
G32  28095365.600 6 147642161.980 6      2359.005 6        37.904               
G05  28334720.269 7 148899980.374 7     -3516.448 7        43.118               
G10  26651843.562 7 140056383.961 7      3112.124 7        44.277               
G12  27237367.129 7 143133349.016 7      3196.014 7        46.694               
G15  24825549.433 7 130459126.537 7     -2040.440 7        46.291               
G23  23615502.870 6 124100326.173 6      1088.113 6        41.703               
G24  23402418.863 7 122980517.285 7      -765.018 7        46.116               
G25  28277249.238 7 148597969.489 7      3604.786 7        43.019               
> 2025 08 06 07 05 47.0000000  0  8                                             
G32  28094917.463 6 147639804.151 6      2362.000 6        37.834               
G05  28335386.051 7 148903491.368 7     -3511.104 7        43.369               
G10  26651255.117 7 140053270.848 7      3109.279 7        44.644               
G12  27236758.206 7 143130152.288 7      3195.295 7        46.287               
G15  24825937.530 7 130461170.395 7     -2043.691 7        46.017               
G23  23615300.360 6 124099233.810 6      1095.517 6        41.710               
G24  23402563.763 7 122981285.080 7      -768.047 7        46.331               
G25  28276566.105 7 148594367.798 7      3599.283 7        43.683               
> 2025 08 06 07 05 48.0000000  0  8                                             
G32  28094464.054 6 147637446.394 6      2351.459 6        37.691               
G05  28336059.659 7 148907002.521 7     -3511.095 7        43.077               
G10  26650660.400 7 140050157.881 7      3115.110 7        43.926               
G12  27236152.393 7 143126955.698 7      3197.271 7        46.425               
G15  24826326.646 7 130463214.496 7     -2044.988 7        46.038               
G23  23615100.459 7 124098142.006 7      1091.123 7        42.368               
G24  23402709.145 7 122982053.488 7      -767.433 7        46.464               
G25  28275880.632 7 148590766.002 7      3603.125 7        43.944               
> 2025 08 06 07 05 49.0000000  0  8                                             
G32  28094012.665 6 147635088.685 6      2351.715 6        37.537               
G05  28336724.208 7 148910513.843 7     -3511.699 7        43.115               
G10  26650068.417 7 140047045.043 7      3112.250 7        44.292               
G12  27235540.986 7 143123759.237 7      3195.208 7        46.730               
G15  24826715.815 7 130465258.831 7     -2042.140 7        45.643               
G23  23614892.482 7 124097050.689 7      1095.177 7        42.520               
G24  23402856.707 7 122982822.505 7      -769.824 7        46.338               
G25  28275196.230 7 148587164.065 7      3598.564 7        43.870               
> 2025 08 06 07 05 50.0000000  0  8                                             
G32  28093564.492 6 147632730.983 6      2360.588 6        37.207               
G05  28337392.331 6 148914025.298 6     -3511.708 6        41.798               
G10  26649475.720 7 140043932.343 7      3111.779 7        43.837               
G12  27234933.440 7 143120562.878 7      3194.128 7        46.010               
G15  24827104.913 7 130467303.409 7     -2045.318 7        45.645               
G23  23614682.628 7 124095959.876 7      1094.879 7        42.494               
G24  23402999.803 7 122983592.177 7      -765.956 7        46.018               
G25  28274512.311 7 148583561.993 7      3602.459 7        44.218               
> 2025 08 06 07 05 51.0000000  0  8                                             
G32  28093102.899 6 147630373.379 6      2351.663 6        37.409               
G05  28338059.846 7 148917536.850 7     -3510.232 7        42.424               
G10  26648880.377 7 140040819.755 7      3114.426 7        43.809               
G12  27234323.892 7 143117366.642 7      3196.784 7        45.654               
G15  24827494.315 7 130469348.184 7     -2046.186 7        45.769               
G23  23614468.074 7 124094869.587 7      1090.753 7        42.051               
G24  23403144.845 7 122984362.414 7      -775.631 7        46.183               
G25  28273827.445 7 148579959.779 7      3600.540 7        43.620               
> 2025 08 06 07 05 52.0000000  0  8                                             
G32  28092658.604 6 147628015.741 6      2358.468 6        37.046               
G05  28338731.114 7 148921048.564 7     -3510.975 7        42.131               
G10  26648290.843 7 140037707.317 7      3109.987 7        44.788               
G12  27233715.523 7 143114170.524 7      3194.614 7        45.532               
G15  24827885.289 7 130471393.207 7     -2046.729 7        46.506               
G23  23614252.842 6 124093779.817 6      1094.067 6        41.521               
G24  23403292.318 7 122985133.276 7      -769.674 7        46.398               
G25  28273141.865 7 148576357.429 7      3602.085 7        42.843               
> 2025 08 06 07 05 53.0000000  0  8                                             
G32  28092206.875 6 147625658.226 6      2358.539 6        36.844               
G05  28339398.790 7 148924560.435 7     -3512.257 7        42.296               
G10  26647699.717 7 140034595.014 7      3112.211 7        44.581               
G12  27233106.725 7 143110974.553 7      3197.798 7        45.693               
G15  24828275.281 7 130473438.458 7     -2041.098 7        46.490               
G23  23614043.864 6 124092690.592 6      1091.573 6        41.155               
G24  23403441.954 7 122985904.749 7      -774.402 7        45.978               
G25  28272454.854 7 148572754.956 7      3603.795 7        43.524               
> 2025 08 06 07 05 54.0000000  0  8                                             
G32  28091753.502 6 147623300.669 6      2360.128 6        37.059               
G05  28340066.055 7 148928072.402 7     -3512.462 7        42.502               
G10  26647107.306 7 140031482.802 7      3110.747 7        44.241               
G12  27232498.732 7 143107778.633 7      3198.770 7        45.438               
G15  24828666.898 7 130475483.902 7     -2049.748 7        46.527               
G23  23613836.762 6 124091601.809 6      1084.114 6        41.104               
G24  23403589.123 7 122986676.807 7      -775.078 7        46.398               
G25  28271768.309 7 148569152.320 7      3606.156 7        43.217               
> 2025 08 06 07 05 55.0000000  0  8                                             
G32  28091311.351 6 147620943.193 6      2354.328 6        37.151               
G05  28340733.302 7 148931584.520 7     -3510.677 7        43.026               
G10  26646518.897 7 140028370.737 7      3109.719 7        44.579               
G12  27231895.795 7 143104582.876 7      3194.179 7        46.205               
G15  24829055.335 7 130477529.588 7     -2044.477 7        46.818               
G23  23613630.839 6 124090513.596 6      1087.798 6        41.506               
G24  23403735.595 7 122987449.487 7      -772.153 7        46.617               
G25  28271084.193 7 148565549.557 7      3603.835 7        43.041               
> 2025 08 06 07 05 56.0000000  0  8                                             
G32  28090871.558 6 147618585.750 6      2366.158 6        36.736               
G05  28341404.534 7 148935096.777 7     -3514.282 7        42.269               
G10  26645926.896 7 140025258.793 7      3111.797 7        44.456               
G12  27231282.798 7 143101387.210 7      3195.133 7        45.652               
G15  24829443.236 7 130479575.476 7     -2047.313 7        47.440               
G23  23613429.062 6 124089425.885 6      1087.048 6        41.939               
G24  23403883.783 7 122988222.747 7      -772.083 7        46.329               
G25  28270397.415 7 148561946.629 7      3603.783 7        43.480               
> 2025 08 06 07 05 57.0000000  0  8                                             
G32  28090412.735 6 147616228.340 6      2357.749 6        36.340               
G05  28342071.728 7 148938609.122 7     -3511.259 7        42.860               
G10  26645331.947 7 140022146.953 7      3110.833 7        44.417               
G12  27230677.539 7 143098191.654 7      3197.982 7        45.709               
G15  24829834.067 7 130481621.583 7     -2047.395 7        47.073               
G23  23613228.965 6 124088338.606 6      1087.363 6        41.632               
G24  23404027.700 7 122988996.607 7      -776.819 7        46.757               
G25  28269711.012 7 148558343.571 7      3601.247 7        43.485               
> 2025 08 06 07 05 58.0000000  0  8                                             
G32  28089964.652 6 147613870.945 6      2357.077 6        37.217               
G05  28342743.317 7 148942121.584 7     -3508.493 7        42.957               
G10  26644741.018 7 140019035.225 7      3112.569 7        43.925               
G12  27230068.330 7 143094996.187 7      3195.017 7        46.371               
G15  24830225.560 7 130483667.882 7     -2047.981 7        46.080               
G23  23613022.578 6 124087251.850 6      1083.819 6        41.644               
G24  23404178.229 7 122989771.045 7      -771.913 7        46.478               
G25  28269026.718 7 148554740.332 7      3605.012 7        43.209               
> 2025 08 06 07 05 59.0000000  0  8                                             
G32  28089518.855 6 147611513.600 6      2361.088 6        37.464               
G05  28343407.956 7 148945634.198 7     -3515.523 7        43.063               
G10  26644148.928 7 140015923.638 7      3110.439 7        45.140               
G12  27229460.337 7 143091800.830 7      3197.514 7        45.913               
G15  24830611.852 7 130485714.406 7     -2044.036 7        46.673               
G23  23612813.725 6 124086165.616 6      1085.877 6        41.426               
G24  23404323.701 7 122990546.106 7      -772.552 7        46.371               
G25  28268340.708 7 148551136.975 7      3596.931 7        42.983               
> 2025 08 06 07 06 00.0000000  0  8                                             
G32  28089061.265 6 147609156.276 6      2361.624 6        37.224               
G05  28344077.669 7 148949146.934 7     -3514.638 7        43.539               
G10  26643556.552 7 140012812.178 7      3110.387 7        44.666               
G12  27228854.237 7 143088605.602 7      3194.548 7        46.160               
G15  24831002.630 7 130487761.172 7     -2044.300 7        46.500               
G23  23612610.357 6 124085079.891 6      1084.324 6        41.621               
G24  23404472.299 7 122991321.785 7      -772.018 7        46.520               
G25  28267654.002 7 148547533.493 7      3600.567 7        42.537               
> 2025 08 06 07 06 01.0000000  0  8                                             
G32  28088620.061 6 147606799.014 6      2346.655 6        37.351               
G05  28344748.097 7 148952659.788 7     -3514.537 7        43.198               
G10  26642961.621 7 140009700.813 7      3110.149 7        44.238               
G12  27228244.778 7 143085410.474 7      3197.743 7        46.078               
G15  24831390.155 7 130489808.123 7     -2045.116 7        46.609               
G23  23612398.806 6 124083994.665 6      1090.758 6        41.534               
G24  23404618.021 7 122992098.036 7      -776.701 7        46.698               
G25  28266969.868 7 148543929.836 7      3607.899 7        43.286               
> 2025 08 06 07 06 02.0000000  0  8                                             
G32  28088163.186 6 147604441.719 6      2363.185 6        36.807               
G05  28345415.987 7 148956172.765 7     -3518.203 7        42.928               
G10  26642370.764 7 140006589.576 7      3111.751 7        44.437               
G12  27227638.482 7 143082215.440 7      3195.902 7        45.814               
G15  24831778.110 7 130491855.297 7     -2047.872 7        46.246               
G23  23612186.879 6 124082909.927 6      1078.061 6        41.393               
G24  23404767.692 7 122992874.887 7      -778.380 7        46.992               
G25  28266281.911 7 148540326.026 7      3607.210 7        43.323               
> 2025 08 06 07 06 03.0000000  0  8                                             
G32  28087723.948 6 147602084.459 6      2361.548 6        37.267               
G05  28346083.806 7 148959685.833 7     -3511.849 7        42.860               
G10  26641775.868 7 140003478.430 7      3109.867 7        44.833               
G12  27227029.238 7 143079020.503 7      3195.422 7        46.495               
G15  24832166.636 7 130493902.644 7     -2045.525 7        45.974               
G23  23611976.865 6 124081825.685 6      1080.874 6        41.864               
G24  23404916.416 7 122993652.306 7      -774.976 7        47.008               
G25  28265593.757 7 148536722.059 7      3603.036 7        43.763               
> 2025 08 06 07 06 04.0000000  0  8                                             
G32  28087274.881 6 147599727.257 6      2357.538 6        36.564               
G05  28346754.055 7 148963199.047 7     -3511.524 7        42.763               
G10  26641184.457 7 140000367.414 7      3106.204 7        44.648               
G12  27226421.584 7 143075825.663 7      3194.638 7        46.266               
G15  24832558.432 7 130495950.231 7     -2046.082 7        45.914               
G23  23611775.659 7 124080741.928 7      1081.006 7        42.165               
G24  23405065.122 7 122994430.336 7      -781.244 7        45.894               
G25  28264909.391 7 148533117.955 7      3605.021 7        43.578               
> 2025 08 06 07 06 05.0000000  0  8                                             
G32  28086834.732 6 147597370.120 6      2358.145 6        37.060               
G05  28347421.177 7 148966712.420 7     -3514.481 7        42.930               
G10  26640593.815 7 139997256.542 7      3111.909 7        44.362               
G12  27225811.714 7 143072630.972 7      3194.623 7        45.863               
G15  24832950.907 7 130497998.080 7     -2049.696 7        45.701               
G23  23611571.845 6 124079658.691 6      1085.135 6        41.774               
G24  23405207.842 7 122995208.985 7      -776.288 7        45.602               
G25  28264224.079 7 148529513.730 7      3607.430 7        43.419               
> 2025 08 06 07 06 06.0000000  0  8                                             
G32  28086378.929 6 147595013.003 6      2348.826 6        36.793               
G05  28348089.675 7 148970225.921 7     -3512.401 7        42.926               
G10  26640002.600 7 139994145.790 7      3110.072 7        44.374               
G12  27225202.452 7 143069436.396 7      3195.109 7        46.095               
G15  24833339.058 7 130500046.120 7     -2046.697 7        46.186               
G23  23611367.048 6 124078575.989 6      1083.085 6        41.890               
G24  23405355.083 7 122995988.251 7      -777.490 7        46.188               
G25  28263538.033 7 148525909.359 7      3602.121 7        43.627               
> 2025 08 06 07 06 07.0000000  0  8                                             
G32  28085933.758 6 147592655.921 6      2353.268 6        36.815               
G05  28348757.995 7 148973739.558 7     -3514.667 7        43.063               
G10  26639409.009 7 139991035.171 7      3112.542 7        44.691               
G12  27224589.134 7 143066241.924 7      3191.894 7        45.804               
G15  24833726.298 7 130502094.412 7     -2049.454 7        46.085               
G23  23611160.554 6 124077493.774 6      1079.661 6        41.876               
G24  23405503.771 7 122996768.110 7      -777.664 7        45.771               
G25  28262850.701 7 148522304.852 7      3603.578 7        43.425               
> 2025 08 06 07 06 08.0000000  0  8                                             
G32  28085479.384 6 147590298.876 6      2354.630 6        36.610               
G05  28349428.190 7 148977253.341 7     -3512.723 7        43.192               
G10  26638817.098 7 139987924.700 7      3107.789 7        45.044               
G12  27223987.287 7 143063047.591 7      3193.895 7        45.741               
G15  24834117.326 7 130504142.932 7     -2047.296 7        46.193               
G23  23610951.880 6 124076412.118 6      1085.116 6        41.583               
G24  23405651.869 7 122997548.590 7      -780.221 7        46.131               
G25  28262168.247 7 148518700.233 7      3608.486 7        43.300               
> 2025 08 06 07 06 09.0000000  0  8                                             
G32  28085042.004 6 147587941.895 6      2352.635 6        36.651               
G05  28350091.989 7 148980767.275 7     -3511.841 7        42.886               
G10  26638224.793 7 139984814.381 7      3108.417 7        45.435               
G12  27223379.329 7 143059853.396 7      3195.114 7        46.171               
G15  24834505.691 7 130506191.697 7     -2051.269 7        46.100               
G23  23610740.400 6 124075330.979 6      1080.081 6        41.982               
