     3.02           OBSERVATION DATA    G                   RINEX VERSION / TYPE
G = GPS  R = GLONASS  E = GALILEO  S = GEO  M = MIXED       COMMENT             
GNSS-SDR            suhjw               20250805 074630 UTC PGM / RUN BY / DATE 
GPS OBSERVATION DATA FILE GENERATED BY GNSS-SDR             COMMENT             
GNSS-SDR VERSION 0.0.20                                     COMMENT             
See https://gnss-sdr.org                                    COMMENT             
DEFAULT MARKER NAME                                         MARKER NAME         
suhjw               CTTC                                    OBSERVER / AGENCY   
GNSS-SDR            Software Receiver   0.0.20              REC # / TYPE / VERS 
Antenna number      Antenna type                            ANT # / TYPE        
        0.0000        0.0000        0.0000                  APPROX POSITION XYZ 
        0.0000        0.0000        0.0000                  ANTENNA: DELTA H/E/N
G    4 C1C L1C D1C S1C                                      SYS / # / OBS TYPES 
DBHZ                                                        SIGNAL STRENGTH UNIT
  2025    08    05    07    46   48.1200000     GPS         TIME OF FIRST OBS   
    18    18   137     7                                    LEAP SECONDS        
                                                            END OF HEADER       
> 2025 08 05 07 46 49.0000000  0  5                                             
G12  23493420.767 7 123458747.709 7      2646.939 7        47.816               
G15  23295926.062 8 122420929.325 8     -2505.895 8        49.082               
G23  20924841.000 7 109960759.972 7      -188.726 7        45.826               
G24  21496166.020 7 112963118.014 7     -1940.848 7        44.120               
G25  24239854.680 7 127381288.644 7      3660.228 7        43.941               
> 2025 08 05 07 46 50.0000000  0  5                                             
G12  23492913.599 8 123456099.910 8      2647.692 8        48.084               
G15  23296405.997 8 122423435.830 8     -2504.102 8        49.150               
G23  20924871.181 7 109960945.753 7      -188.779 7        45.622               
G24  21496535.257 7 112965056.447 7     -1937.752 7        44.219               
G25  24239159.012 7 127377631.483 7      3657.673 7        44.214               
> 2025 08 05 07 46 51.0000000  0  5                                             
G12  23492413.204 8 123453452.462 8      2647.914 8        48.284               
G15  23296881.956 8 122425942.489 8     -2506.377 8        48.710               
G23  20924905.194 7 109961132.122 7      -185.773 7        45.827               
G24  21496907.218 7 112966995.297 7     -1938.067 7        44.117               
G25  24238462.969 7 127373974.402 7      3656.800 7        44.594               
> 2025 08 05 07 46 52.0000000  0  5                                             
G12  23491910.387 8 123450805.363 8      2649.352 8        48.168               
G15  23297356.548 8 122428449.304 8     -2506.514 8        48.971               
G23  20924942.317 7 109961319.095 7      -190.929 7        46.300               
G24  21497275.838 7 112968934.547 7     -1939.262 7        44.850               
G25  24237766.068 7 127370317.368 7      3652.804 7        44.636               
> 2025 08 05 07 46 53.0000000  0  5                                             
G12  23491404.676 7 123448158.646 7      2647.555 7        47.713               
G15  23297834.411 8 122430956.324 8     -2507.518 8        48.654               
G23  20924976.447 7 109961506.686 7      -187.097 7        45.857               
G24  21497645.522 7 112970874.223 7     -1940.871 7        44.556               
G25  24237071.508 7 127366660.417 7      3659.219 7        44.395               
> 2025 08 05 07 46 54.0000000  0  5                                             
G12  23490901.654 8 123445512.351 8      2645.449 8        48.059               
G15  23298311.183 8 122433463.582 8     -2508.088 8        49.095               
G23  20925013.954 7 109961694.955 7      -188.247 7        45.671               
G24  21498015.652 7 112972814.411 7     -1940.088 7        44.558               
G25  24236374.724 7 127363003.647 7      3647.922 7        44.778               
> 2025 08 05 07 46 55.0000000  0  5                                             
G12  23490398.052 7 123442866.481 7      2644.354 7        47.923               
G15  23298788.411 8 122435971.063 8     -2508.972 8        49.433               
G23  20925051.559 7 109961883.880 7      -191.530 7        45.600               
G24  21498380.537 7 112974755.056 7     -1941.826 7        44.250               
G25  24235682.380 7 127359346.977 7      3655.037 7        44.841               
> 2025 08 05 07 46 56.0000000  0  5                                             
G12  23489893.707 7 123440220.931 7      2646.215 7        47.576               
G15  23299263.200 8 122438478.690 8     -2506.273 8        48.692               
G23  20925090.049 7 109962073.382 7      -188.457 7        45.643               
G24  21498748.201 7 112976696.097 7     -1941.560 7        43.894               
G25  24234985.711 7 127355690.369 7      3656.977 7        44.532               
> 2025 08 05 07 46 57.0000000  0  5                                             
G12  23489390.310 7 123437575.770 7      2643.748 7        47.791               
G15  23299744.046 8 122440986.508 8     -2512.166 8        48.858               
G23  20925121.311 7 109962263.512 7      -191.636 7        46.130               
G24  21499120.788 7 112978637.564 7     -1940.206 7        44.116               
G25  24234288.453 7 127352033.855 7      3657.777 7        45.294               
> 2025 08 05 07 46 58.0000000  0  5                                             
G12  23488882.857 7 123434931.035 7      2646.251 7        46.798               
G15  23300219.353 8 122443494.574 8     -2508.579 8        49.233               
G23  20925158.818 7 109962454.312 7      -191.925 7        45.940               
G24  21499487.755 7 112980579.517 7     -1944.523 7        44.150               
G25  24233595.242 7 127348377.485 7      3654.865 7        44.826               
> 2025 08 05 07 46 59.0000000  0  5                                             
G12  23488381.532 7 123432286.657 7      2642.116 7        47.629               
G15  23300698.377 8 122446002.817 8     -2506.919 8        48.891               
G23  20925192.153 7 109962645.717 7      -191.220 7        45.470               
G24  21499857.894 7 112982521.909 7     -1943.173 7        44.241               
G25  24232901.736 7 127344721.208 7      3657.513 7        45.283               
> 2025 08 05 07 47 00.0000000  0  5                                             
G12  23487878.305 7 123429642.690 7      2641.986 7        47.140               
G15  23301172.183 8 122448511.272 8     -2509.102 8        49.300               
G23  20925225.318 7 109962837.790 7      -195.408 7        45.727               
G24  21500225.853 7 112984464.752 7     -1944.545 7        44.565               
G25  24232202.226 7 127341065.032 7      3656.392 7        45.574               
> 2025 08 05 07 47 01.0000000  0  5                                             
G12  23487376.775 7 123426999.088 7      2643.310 7        47.312               
G15  23301650.886 8 122451019.913 8     -2508.105 8        48.719               
G23  20925265.496 7 109963030.462 7      -194.290 7        45.705               
G24  21500601.961 7 112986408.003 7     -1942.044 7        43.929               
G25  24231508.712 7 127337408.967 7      3655.978 7        45.239               
> 2025 08 05 07 47 02.0000000  0  5                                             
G12  23486873.467 7 123424355.881 7      2644.438 7        47.494               
G15  23302127.024 8 122453528.760 8     -2510.017 8        48.398               
G23  20925303.486 7 109963223.792 7      -198.267 7        45.876               
G24  21500969.187 7 112988351.736 7     -1944.816 7        43.985               
G25  24230812.159 7 127333753.010 7      3653.178 7        44.768               
> 2025 08 05 07 47 03.0000000  0  5                                             
G12  23486369.757 7 123421713.040 7      2644.085 7        47.224               
G15  23302603.823 8 122456037.795 8     -2509.065 8        48.695               
G23  20925341.127 7 109963417.722 7      -193.041 7        45.999               
G24  21501335.779 7 112990295.887 7     -1943.879 7        43.810               
G25  24230115.643 7 127330097.119 7      3657.202 7        44.949               
> 2025 08 05 07 47 04.0000000  0  5                                             
G12  23485868.245 7 123419070.572 7      2643.022 7        47.114               
G15  23303082.025 8 122458547.017 8     -2512.381 8        48.802               
G23  20925377.857 7 109963612.259 7      -194.619 7        46.110               
G24  21501707.571 7 112992240.459 7     -1944.306 7        43.884               
G25  24229420.350 7 127326441.332 7      3655.773 7        45.036               
> 2025 08 05 07 47 05.0000000  0  5                                             
G12  23485362.373 7 123416428.490 7      2643.199 7        46.756               
G15  23303559.369 8 122461056.405 8     -2508.487 8        48.537               
G23  20925414.444 7 109963807.438 7      -196.818 7        46.230               
G24  21502077.513 7 112994185.478 7     -1943.333 7        43.199               
G25  24228723.244 7 127322785.636 7      3652.898 7        45.328               
> 2025 08 05 07 47 06.0000000  0  5                                             
G12  23484859.995 7 123413786.804 7      2641.908 7        46.766               
G15  23304037.553 8 122463566.010 8     -2513.357 8        48.715               
G23  20925450.360 7 109964003.244 7      -200.507 7        45.261               
G24  21502446.008 7 112996130.914 7     -1945.514 7        43.240               
G25  24228027.040 7 127319130.044 7      3650.331 7        44.412               
> 2025 08 05 07 47 07.0000000  0  5                                             
G12  23484359.582 7 123411145.431 7      2643.877 7        47.099               
G15  23304517.783 8 122466075.749 8     -2511.237 8        48.061               
G23  20925488.261 7 109964199.607 7      -196.879 7        45.510               
G24  21502818.783 7 112998076.748 7     -1945.907 7        43.047               
G25  24227332.346 7 127315474.478 7      3655.172 7        44.734               
> 2025 08 05 07 47 08.0000000  0  5                                             
G12  23483857.882 7 123408504.484 7      2639.797 7        46.659               
G15  23304994.037 8 122468585.732 8     -2508.579 8        48.555               
G23  20925530.020 7 109964396.661 7      -198.228 7        45.766               
G24  21503187.974 7 113000023.072 7     -1943.085 7        43.269               
G25  24226636.517 7 127311819.063 7      3660.058 7        44.054               
> 2025 08 05 07 47 09.0000000  0  5                                             
G12  23483355.378 7 123405863.943 7      2640.722 7        46.806               
G15  23305471.774 8 122471095.909 8     -2508.913 8        49.023               
G23  20925567.778 7 109964594.334 7      -193.962 7        45.635               
G24  21503559.909 7 113001969.833 7     -1946.026 7        44.014               
G25  24225939.196 7 127308163.765 7      3659.059 7        43.955               
> 2025 08 05 07 47 10.0000000  0  5                                             
G12  23482852.740 7 123403223.738 7      2640.822 7        47.372               
G15  23305949.583 8 122473606.258 8     -2513.127 8        49.226               
G23  20925607.152 7 109964792.613 7      -198.920 7        46.450               
G24  21503932.067 7 113003917.017 7     -1947.187 7        43.898               
G25  24225242.144 7 127304508.549 7      3655.269 7        43.888               
> 2025 08 05 07 47 11.0000000  0  5                                             
G12  23482348.709 7 123400583.966 7      2639.793 7        47.580               
G15  23306424.988 8 122476116.834 8     -2510.773 8        48.679               
G23  20925641.237 7 109964991.552 7      -201.699 7        46.113               
G24  21504300.160 7 113005864.645 7     -1949.630 7        44.159               
G25  24224545.448 7 127300853.457 7      3659.961 7        43.842               
> 2025 08 05 07 47 12.0000000  0  5                                             
G12  23481846.697 7 123397944.579 7      2642.023 7        46.830               
G15  23306903.780 8 122478627.607 8     -2510.692 8        49.217               
G23  20925677.627 7 109965191.109 7      -201.965 7        45.807               
G24  21504673.015 7 113007812.747 7     -1952.328 7        44.447               
G25  24223850.728 7 127297198.444 7      3652.589 7        44.373               
> 2025 08 05 07 47 13.0000000  0  5                                             
G12  23481343.612 7 123395305.574 7      2641.133 7        46.999               
G15  23307384.242 8 122481138.597 8     -2509.772 8        48.554               
G23  20925715.965 7 109965391.314 7      -197.831 7        46.216               
G24  21505041.207 7 113009761.271 7     -1949.832 7        44.870               
G25  24223158.508 7 127293543.555 7      3654.901 7        44.563               
> 2025 08 05 07 47 14.0000000  0  5                                             
G12  23480840.769 7 123392666.946 7      2644.724 7        46.977               
G15  23307861.032 8 122483649.747 8     -2510.742 8        49.016               
G23  20925754.035 7 109965592.127 7      -202.559 7        46.667               
G24  21505410.818 7 113011710.207 7     -1950.179 7        44.647               
G25  24222460.428 7 127289888.746 7      3656.200 7        44.277               
> 2025 08 05 07 47 15.0000000  0  5                                             
G12  23480339.436 7 123390028.682 7      2639.001 7        47.242               
G15  23308339.350 8 122486161.094 8     -2511.532 8        49.722               
G23  20925793.991 7 109965793.561 7      -203.275 7        46.726               
G24  21505782.244 7 113013659.587 7     -1951.031 7        44.770               
G25  24221764.367 7 127286234.046 7      3655.422 7        43.595               
> 2025 08 05 07 47 16.0000000  0  5                                             
G12  23479838.031 7 123387390.798 7      2639.920 7        47.265               
G15  23308817.650 8 122488672.631 8     -2509.431 8        49.385               
G23  20925835.509 7 109965995.617 7      -203.153 7        46.627               
G24  21506154.554 7 113015609.396 7     -1953.375 7        44.775               
G25  24221071.764 7 127282579.429 7      3658.700 7        44.069               
> 2025 08 05 07 47 17.0000000  0  5                                             
G12  23479334.651 7 123384753.397 7      2637.637 7        47.670               
G15  23309296.996 8 122491184.460 8     -2512.765 8        49.546               
G23  20925874.285 7 109966198.389 7      -203.255 7        46.032               
G24  21506528.142 7 113017559.728 7     -1950.370 7        44.557               
G25  24220374.568 7 127278925.016 7      3653.474 7        44.448               
> 2025 08 05 07 47 18.0000000  0  6                                             
G32  24616270.804 6 129359331.925 6      2279.894 6        40.817               
G12  23478835.123 7 123382116.317 7      2636.467 7        47.591               
G15  23309773.232 8 122493696.421 8     -2513.533 8        49.086               
G23  20925912.453 7 109966401.738 7      -206.984 7        45.735               
G24  21506899.576 7 113019510.447 7     -1953.529 7        44.381               
G25  24219681.518 7 127275270.636 7      3656.986 7        43.378               
> 2025 08 05 07 47 19.0000000  0  6                                             
G32  24615834.559 6 129357056.669 6      2272.657 6        40.423               
G12  23478336.354 7 123379479.647 7      2634.988 7        47.377               
G15  23310250.657 8 122496208.593 8     -2510.209 8        49.786               
G23  20925952.149 7 109966605.734 7      -204.836 7        46.010               
G24  21507270.573 7 113021461.628 7     -1948.583 7        44.470               
G25  24218982.125 7 127271616.374 7      3652.723 7        43.436               
> 2025 08 05 07 47 20.0000000  0  6                                             
G32  24615400.833 6 129354781.483 6      2272.651 6        40.417               
G12  23477831.876 7 123376843.394 7      2634.929 7        47.573               
G15  23310730.699 8 122498720.998 8     -2512.603 8        49.010               
G23  20925987.548 7 109966810.387 7      -206.043 7        46.274               
G24  21507640.024 7 113023413.280 7     -1951.219 7        44.957               
G25  24218289.164 7 127267962.253 7      3651.525 7        44.005               
> 2025 08 05 07 47 21.0000000  0  6                                             
G32  24614970.172 6 129352506.346 6      2277.851 6        40.777               
G12  23477331.918 7 123374207.498 7      2636.988 7        47.744               
G15  23311204.988 8 122501233.562 8     -2512.951 8        49.051               
G23  20926028.977 7 109967015.634 7      -206.178 7        45.434               
G24  21508012.414 7 113025365.334 7     -1952.875 7        45.222               
G25  24217593.639 7 127264308.198 7      3657.546 7        43.800               
> 2025 08 05 07 47 22.0000000  0  6                                             
G32  24614538.268 6 129350231.200 6      2268.896 6        40.831               
G12  23476831.603 8 123371572.007 8      2633.437 8        48.145               
G15  23311685.914 8 122503746.310 8     -2512.061 8        48.997               
G23  20926069.093 7 109967221.500 7      -203.914 7        45.873               
G24  21508386.243 7 113027317.822 7     -1949.799 7        44.689               
G25  24216896.131 7 127260654.237 7      3653.909 7        44.022               
> 2025 08 05 07 47 23.0000000  0  6                                             
G32  24614103.828 6 129347956.090 6      2277.231 6        41.054               
G12  23476331.038 7 123368936.918 7      2636.170 7        47.695               
G15  23312165.028 8 122506259.269 8     -2513.774 8        48.720               
G23  20926105.885 7 109967428.023 7      -208.520 7        45.671               
G24  21508755.801 7 113029270.766 7     -1952.753 7        44.142               
G25  24216203.250 7 127257000.385 7      3658.915 7        43.965               
> 2025 08 05 07 47 24.0000000  0  6                                             
G32  24613667.055 6 129345681.020 6      2278.020 6        40.313               
G12  23475829.884 7 123366302.192 7      2635.196 7        47.832               
G15  23312640.799 8 122508772.421 8     -2513.484 8        48.968               
G23  20926145.992 7 109967635.134 7      -205.636 7        46.323               
G24  21509134.446 7 113031224.121 7     -1952.812 7        43.947               
G25  24215508.708 7 127253346.631 7      3652.853 7        43.395               
> 2025 08 05 07 47 25.0000000  0  6                                             
G32  24613236.546 6 129343405.935 6      2279.572 6        40.586               
G12  23475326.612 7 123363667.791 7      2634.389 7        47.369               
G15  23313118.983 8 122511285.700 8     -2512.248 8        48.979               
G23  20926184.616 7 109967842.825 7      -206.999 7        45.482               
G24  21509506.765 7 113033177.862 7     -1951.987 7        44.884               
G25  24214812.612 7 127249692.915 7      3653.093 7        44.180               
> 2025 08 05 07 47 26.0000000  0  6                                             
G32  24612808.431 6 129341130.890 6      2270.864 6        41.067               
G12  23474826.502 7 123361033.773 7      2634.111 7        47.618               
G15  23313600.241 8 122513799.178 8     -2515.213 8        49.248               
G23  20926220.739 7 109968051.147 7      -209.529 7        45.690               
G24  21509877.431 7 113035132.024 7     -1952.256 7        44.701               
G25  24214120.786 7 127246039.301 7      3650.651 7        44.445               
> 2025 08 05 07 47 27.0000000  0  6                                             
G32  24612372.114 6 129338855.841 6      2276.676 6        41.119               
G12  23474324.830 7 123358400.106 7      2629.681 7        47.879               
G15  23314079.577 8 122516312.806 8     -2513.955 8        49.623               
G23  20926260.167 7 109968260.053 7      -209.928 7        45.222               
G24  21510243.782 7 113037086.594 7     -1957.029 7        44.664               
G25  24213421.892 7 127242385.728 7      3651.830 7        43.830               
> 2025 08 05 07 47 28.0000000  0  6                                             
G32  24611937.932 6 129336580.867 6      2267.892 6        40.984               
G12  23473824.801 7 123355766.859 7      2635.202 7        47.610               
G15  23314556.323 8 122518826.684 8     -2512.970 8        49.186               
G23  20926299.800 7 109968469.635 7      -208.374 7        45.457               
G24  21510617.208 7 113039041.648 7     -1953.184 7        44.341               
G25  24212725.090 7 127238732.319 7      3653.401 7        44.198               
> 2025 08 05 07 47 29.0000000  0  6                                             
G32  24611510.068 6 129334305.881 6      2275.309 6        40.668               
G12  23473321.019 7 123353133.960 7      2636.010 7        47.981               
G15  23315034.980 8 122521340.708 8     -2514.468 8        49.623               
G23  20926343.526 7 109968679.796 7      -209.966 7        45.686               
G24  21510987.830 7 113040997.084 7     -1953.576 7        44.447               
G25  24212031.227 7 127235078.977 7      3656.741 7        43.466               
> 2025 08 05 07 47 30.0000000  0  6                                             
G32  24611075.189 6 129332030.926 6      2282.179 6        40.294               
G12  23472819.570 7 123350501.434 7      2634.271 7        47.313               
G15  23315514.111 8 122523854.949 8     -2513.652 8        49.371               
G23  20926384.580 7 109968890.590 7      -212.523 7        45.527               
G24  21511357.665 7 113042952.965 7     -1955.379 7        44.383               
G25  24211335.157 7 127231425.722 7      3653.024 7        43.080               
> 2025 08 05 07 47 31.0000000  0  6                                             
G32  24610641.338 6 129329756.027 6      2276.386 6        40.503               
G12  23472319.916 7 123347869.299 7      2627.986 7        47.948               
G15  23315991.330 8 122526369.384 8     -2514.707 8        49.174               
G23  20926425.526 7 109969101.994 7      -212.401 7        46.134               
G24  21511731.145 7 113044909.266 7     -1955.889 7        44.725               
G25  24210642.670 7 127227772.572 7      3655.224 7        42.653               
> 2025 08 05 07 47 32.0000000  0  6                                             
G32  24610206.996 6 129327481.211 6      2275.247 6        40.718               
G12  23471821.371 7 123345237.593 7      2631.514 7        47.012               
G15  23316469.631 8 122528884.065 8     -2514.546 8        49.776               
G23  20926465.776 7 109969314.096 7      -211.753 7        46.112               
G24  21512101.838 7 113046866.077 7     -1955.008 7        44.129               
G25  24209947.118 7 127224119.581 7      3659.164 7        43.212               
> 2025 08 05 07 47 33.0000000  0  6                                             
G32  24609776.084 6 129325206.368 6      2278.138 6        41.046               
G12  23471317.893 7 123342606.233 7      2630.149 7        47.924               
G15  23316949.208 8 122531398.879 8     -2514.439 8        49.342               
G23  20926507.108 7 109969526.770 7      -213.252 7        45.747               
G24  21512475.721 7 113048823.270 7     -1959.481 7        44.559               
G25  24209249.440 7 127220466.642 7      3654.137 7        42.875               
> 2025 08 05 07 47 34.0000000  0  6                                             
G32  24609341.438 6 129322931.594 6      2271.481 6        40.866               
G12  23470816.086 7 123339975.270 7      2634.242 7        47.808               
G15  23317428.134 8 122533913.897 8     -2512.972 8        49.295               
G23  20926545.401 7 109969740.083 7      -211.214 7        45.496               
G24  21512842.777 7 113050780.904 7     -1957.140 7        44.987               
G25  24208556.640 7 127216813.799 7      3646.095 7        42.975               
> 2025 08 05 07 47 35.0000000  0  6                                             
G32  24608912.171 6 129320656.858 6      2274.991 6        40.041               
G12  23470314.878 8 123337344.713 8      2629.689 8        48.053               
G15  23317903.334 8 122536429.116 8     -2513.197 8        49.749               
G23  20926588.224 7 109969954.044 7      -212.348 7        46.021               
G24  21513217.196 7 113052738.996 7     -1959.930 7        43.567               
G25  24207860.927 7 127213161.094 7      3658.362 7        43.164               
> 2025 08 05 07 47 36.0000000  0  6                                             
G32  24608476.703 6 129318382.128 6      2281.260 6        39.952               
G12  23469816.323 7 123334714.497 7      2627.190 7        47.341               
G15  23318385.494 8 122538944.505 8     -2514.749 8        48.850               
G23  20926629.412 7 109970168.595 7      -212.560 7        45.944               
G24  21513593.687 7 113054697.461 7     -1958.356 7        44.400               
G25  24207165.304 7 127209508.446 7      3649.145 7        43.149               
> 2025 08 05 07 47 37.0000000  0  6                                             
G32  24608046.577 6 129316107.547 6      2276.737 6        40.545               
G12  23469314.874 7 123332084.765 7      2628.633 7        47.713               
G15  23318864.696 8 122541460.191 8     -2515.517 8        49.357               
G23  20926670.904 7 109970383.872 7      -213.932 7        46.722               
G24  21513966.087 7 113056656.484 7     -1959.250 7        44.540               
G25  24206470.565 7 127205855.993 7      3660.499 7        43.423               
> 2025 08 05 07 47 38.0000000  0  6                                             
G32  24607610.430 6 129313832.935 6      2276.883 6        40.886               
G12  23468815.863 7 123329455.364 7      2628.745 7        47.816               
G15  23319343.041 8 122543975.997 8     -2513.330 8        49.065               
G23  20926709.564 7 109970599.717 7      -215.480 7        46.298               
G24  21514340.353 7 113058615.873 7     -1957.254 7        44.491               
G25  24205776.845 7 127202203.589 7      3652.502 7        43.505               
> 2025 08 05 07 47 39.0000000  0  6                                             
G32  24607182.601 6 129311558.397 6      2266.456 6        40.729               
G12  23468314.253 8 123326826.409 8      2630.544 8        48.076               
G15  23319820.189 8 122546492.059 8     -2518.454 8        49.681               
G23  20926751.350 7 109970816.245 7      -218.254 7        46.507               
G24  21514715.531 7 113060575.767 7     -1961.152 7        44.994               
G25  24205077.014 7 127198551.350 7      3651.835 7        43.038               
> 2025 08 05 07 47 40.0000000  0  6                                             
G32  24606745.266 6 129309283.864 6      2270.380 6        39.949               
G12  23467814.984 8 123324197.775 8      2626.931 8        48.103               
G15  23320299.543 8 122549008.265 8     -2517.600 8        49.088               
G23  20926792.261 7 109971033.345 7      -218.075 7        46.327               
G24  21515087.698 7 113062536.035 7     -1959.122 7        45.389               
G25  24204384.000 7 127194899.166 7      3653.364 7        43.363               
> 2025 08 05 07 47 41.0000000  0  6                                             
G32  24606311.504 6 129307009.364 6      2278.021 6        40.662               
G12  23467315.777 8 123321569.538 8      2628.632 8        48.174               
G15  23320778.719 8 122551524.658 8     -2514.638 8        48.876               
G23  20926829.250 7 109971251.081 7      -219.909 7        45.728               
G24  21515459.035 7 113064496.741 7     -1961.478 7        45.925               
G25  24203689.797 7 127191247.075 7      3647.065 7        43.159               
> 2025 08 05 07 47 42.0000000  0  7                                             
G32  24605877.216 6 129304734.960 6      2278.296 6        40.790               
G10  22911444.209 6 120400465.483 6      2593.715 6        40.901               
G12  23466814.729 8 123318941.752 8      2628.729 8        48.563               
G15  23321259.360 8 122554041.318 8     -2518.347 8        49.557               
G23  20926873.976 7 109971469.484 7      -220.337 7        45.920               
G24  21515833.507 7 113066457.940 7     -1962.268 7        45.535               
G25  24202997.542 7 127187595.122 7      3650.796 7        43.258               
> 2025 08 05 07 47 43.0000000  0  7                                             
G32  24605444.178 6 129302460.548 6      2279.194 6        40.945               
G10  22910951.650 6 120397870.386 6      2592.559 6        40.885               
G12  23466318.274 8 123316314.305 8      2625.775 8        48.811               
G15  23321735.417 8 122556558.117 8     -2516.558 8        49.727               
G23  20926916.040 7 109971688.491 7      -221.761 7        46.533               
G24  21516207.809 7 113068419.515 7     -1961.108 7        44.834               
G25  24202302.107 7 127183943.262 7      3654.542 7        43.539               
> 2025 08 05 07 47 44.0000000  0  7                                             
G32  24605015.982 6 129300186.192 6      2267.077 6        40.414               
G10  22910449.182 6 120395275.643 6      2592.123 6        40.531               
G12  23465816.226 8 123313687.261 8      2625.054 8        48.600               
G15  23322218.542 8 122559075.140 8     -2515.716 8        49.337               
G23  20926960.141 7 109971908.134 7      -220.375 7        46.455               
G24  21516583.907 7 113070381.556 7     -1961.996 7        45.353               
G25  24201605.259 7 127180291.503 7      3657.817 7        43.578               
> 2025 08 05 07 47 45.0000000  0  7                                             
G32  24604579.656 6 129297911.872 6      2274.981 6        40.084               
G10  22909962.992 6 120392681.199 6      2593.906 6        40.423               
G12  23465316.430 8 123311060.585 8      2626.007 8        48.257               
G15  23322696.592 8 122561592.323 8     -2518.348 8        49.745               
G23  20927002.383 7 109972128.385 7      -219.962 7        46.766               
G24  21516952.751 7 113072344.007 7     -1964.524 7        45.742               
G25  24200907.992 7 127176639.834 7      3656.082 7        43.970               
> 2025 08 05 07 47 46.0000000  0  7                                             
G32  24604145.520 6 129295637.569 6      2276.372 6        40.837               
G10  22909467.904 6 120390087.136 6      2595.345 6        40.953               
G12  23464817.142 8 123308434.314 8      2623.729 8        48.813               
G15  23323174.249 8 122564109.726 8     -2519.185 8        49.657               
G23  20927042.937 7 109972349.275 7      -223.254 7        46.759               
G24  21517326.553 7 113074306.917 7     -1965.928 7        45.134               
G25  24200216.827 7 127172988.305 7      3647.765 7        44.354               
> 2025 08 05 07 47 47.0000000  0  7                                             
G32  24603717.726 6 129293363.293 6      2276.198 6        40.943               
G10  22908970.976 6 120387493.358 6      2597.612 6        40.716               
G12  23464318.525 8 123305808.414 8      2626.679 8        48.043               
G15  23323655.149 8 122566627.292 8     -2519.360 8        49.508               
G23  20927081.954 7 109972570.781 7      -224.256 7        46.017               
G24  21517701.079 7 113076270.232 7     -1965.353 7        45.587               
G25  24199523.277 7 127169336.844 7      3650.298 7        44.080               
> 2025 08 05 07 47 48.0000000  0  7                                             
G32  24603285.564 6 129291089.131 6      2271.384 6        41.002               
G10  22908476.977 6 120384900.004 6      2601.773 6        41.378               
G12  23463819.283 8 123303182.971 8      2625.975 8        48.292               
G15  23324134.378 8 122569145.119 8     -2520.335 8        49.816               
G23  20927122.615 7 109972792.997 7      -223.152 7        46.205               
G24  21518076.891 7 113078234.064 7     -1961.752 7        45.251               
G25  24198827.269 7 127165685.554 7      3658.195 7        44.394               
> 2025 08 05 07 47 49.0000000  0  7                                             
G32  24602847.335 6 129288815.046 6      2276.306 6        40.371               
G10  22907978.905 6 120382307.023 6      2588.996 6        41.121               
G12  23463319.468 7 123300557.940 7      2623.504 7        47.942               
G15  23324611.428 8 122571663.171 8     -2517.851 8        49.155               
G23  20927169.700 7 109973015.868 7      -225.861 7        45.743               
G24  21518449.353 7 113080198.353 7     -1962.622 7        45.338               
G25  24198131.584 7 127162034.406 7      3656.976 7        44.670               
> 2025 08 05 07 47 50.0000000  0  7                                             
G32  24602419.720 6 129286540.968 6      2269.039 6        40.193               
G10  22907480.190 6 120379714.355 6      2585.355 6        40.615               
G12  23462819.502 8 123297933.271 8      2623.558 8        48.225               
G15  23325089.638 8 122574181.401 8     -2520.247 8        48.936               
G23  20927212.237 7 109973239.328 7      -226.644 7        46.507               
G24  21518823.477 7 113082163.064 7     -1964.200 7        45.217               
G25  24197439.668 7 127158383.331 7      3648.285 7        44.695               
> 2025 08 05 07 47 51.0000000  0  7                                             
G32  24601984.994 6 129284266.959 6      2272.894 6        40.094               
G10  22906994.242 6 120377122.049 6      2589.484 6        40.779               
G12  23462321.832 8 123295309.035 8      2625.062 8        48.488               
G15  23325568.877 8 122576699.862 8     -2519.699 8        48.838               
G23  20927261.913 7 109973463.464 7      -225.488 7        46.574               
G24  21519194.447 7 113084128.224 7     -1961.574 7        44.691               
G25  24196743.634 7 127154732.422 7      3651.812 7        44.744               
> 2025 08 05 07 47 52.0000000  0  7                                             
G32  24601552.966 6 129281992.948 6      2269.930 6        40.654               
G10  22906491.934 6 120374530.049 6      2593.242 6        41.253               
G12  23461820.713 8 123292685.131 8      2623.219 8        48.057               
G15  23326049.544 8 122579218.462 8     -2518.566 8        49.157               
G23  20927300.841 7 109973688.169 7      -225.436 7        46.114               
G24  21519570.125 7 113086093.776 7     -1967.147 7        44.762               
G25  24196050.995 7 127151081.542 7      3649.080 7        44.546               
> 2025 08 05 07 47 53.0000000  0  7                                             
G32  24601122.787 6 129279718.948 6      2275.483 6        40.722               
G10  22906001.519 6 120371938.328 6      2594.780 6        40.834               
G12  23461319.406 7 123290061.587 7      2622.362 7        47.962               
G15  23326527.603 8 122581737.239 8     -2519.105 8        48.725               
G23  20927344.378 7 109973913.464 7      -222.295 7        46.729               
G24  21519943.293 7 113088059.737 7     -1964.733 7        44.597               
G25  24195352.665 7 127147430.741 7      3651.346 7        44.246               
> 2025 08 05 07 47 54.0000000  0  7                                             
G32  24600689.793 6 129277444.965 6      2271.338 6        40.928               
G10  22905508.093 6 120369346.990 6      2586.924 6        40.818               
G12  23460826.713 8 123287438.426 8      2622.103 8        48.717               
G15  23327008.262 8 122584256.209 8     -2519.104 8        48.834               
G23  20927383.145 7 109974139.425 7      -224.571 7        47.001               
G24  21520317.640 7 113090026.131 7     -1965.525 7        44.664               
G25  24194658.918 7 127143780.064 7      3649.014 7        44.408               
> 2025 08 05 07 47 55.0000000  0  7                                             
G32  24600265.771 6 129275171.055 6      2271.330 6        41.495               
G10  22905017.686 6 120366755.961 6      2601.395 6        40.878               
G12  23460325.889 8 123284815.678 8      2619.488 8        48.736               
G15  23327486.741 8 122586775.380 8     -2515.901 8        48.711               
G23  20927424.610 7 109974366.007 7      -228.042 7        46.446               
G24  21520689.959 7 113091992.979 7     -1969.482 7        44.463               
G25  24193968.879 7 127140129.487 7      3649.467 7        44.495               
> 2025 08 05 07 47 56.0000000  0  7                                             
G32  24599824.754 6 129272897.178 6      2274.270 6        41.512               
G10  22904523.126 6 120364165.294 6      2590.927 6        40.306               
G12  23459825.708 8 123282193.308 8      2622.549 8        49.024               
G15  23327965.032 8 122589294.749 8     -2518.344 8        48.220               
G23  20927469.006 7 109974593.220 7      -229.240 7        46.659               
G24  21521063.582 7 113093960.258 7     -1966.828 7        44.309               
G25  24193269.289 7 127136479.025 7      3652.789 7        44.460               
> 2025 08 05 07 47 57.0000000  0  7                                             
G32  24599396.157 6 129270623.318 6      2267.152 6        41.337               
G10  22904036.963 6 120361574.924 6      2590.408 6        41.177               
G12  23459326.555 8 123279571.330 8      2621.462 8        48.957               
G15  23328444.145 8 122591814.298 8     -2518.171 8        48.571               
G23  20927512.749 7 109974821.044 7      -225.838 7        46.569               
G24  21521439.582 7 113095927.963 7     -1970.546 7        44.773               
G25  24192574.085 7 127132828.643 7      3653.583 7        44.674               
> 2025 08 05 07 47 58.0000000  0  7                                             
G32  24598960.447 6 129268349.507 6      2261.514 6        41.999               
G10  22903538.855 6 120358984.924 6      2591.228 6        40.935               
G12  23458828.777 8 123276949.730 8      2620.795 8        48.775               
G15  23328926.037 8 122594334.041 8     -2521.287 8        48.580               
G23  20927557.985 7 109975049.495 7      -227.710 7        46.984               
G24  21521815.341 7 113097896.096 7     -1969.820 7        45.006               
G25  24191880.794 7 127129178.374 7      3644.248 7        44.699               
> 2025 08 05 07 47 59.0000000  0  7                                             
G32  24598527.445 7 129266075.798 7      2270.667 7        42.127               
G10  22903049.083 6 120356395.318 6      2588.356 6        41.473               
G12  23458329.374 8 123274328.592 8      2617.940 8        48.451               
G15  23329400.808 8 122596854.039 8     -2518.612 8        49.122               
G23  20927605.168 7 109975278.651 7      -228.337 7        46.083               
G24  21522191.636 7 113099864.726 7     -1972.181 7        44.176               
G25  24191185.564 7 127125528.266 7      3652.405 7        44.336               
> 2025 08 05 07 48 00.0000000  0  7                                             
G32  24598099.571 6 129263802.086 6      2274.764 6        41.349               
G10  22902558.337 6 120353806.011 6      2587.826 6        41.170               
G12  23457827.951 8 123271707.800 8      2621.748 8        48.204               
G15  23329883.138 8 122599374.213 8     -2520.968 8        48.973               
G23  20927645.132 7 109975508.392 7      -232.694 7        46.142               
G24  21522562.212 7 113101833.760 7     -1969.094 7        44.641               
G25  24190490.798 7 127121878.225 7      3655.241 7        44.697               
> 2025 08 05 07 48 01.0000000  0  7                                             
G32  24597668.258 6 129261528.373 6      2270.784 6        41.588               
G10  22902063.329 6 120351216.992 6      2581.302 6        41.354               
G12  23457328.762 8 123269087.355 8      2618.969 8        48.447               
G15  23330360.500 8 122601894.526 8     -2520.091 8        49.015               
G23  20927685.203 7 109975738.710 7      -232.988 7        45.705               
G24  21522940.205 7 113103803.194 7     -1967.673 7        45.214               
G25  24189796.855 7 127118228.271 7      3648.466 7        44.554               
> 2025 08 05 07 48 02.0000000  0  7                                             
G32  24597231.968 6 129259254.709 6      2271.802 6        41.923               
G10  22901570.752 6 120348628.342 6      2594.596 6        41.130               
G12  23456830.654 8 123266467.312 8      2618.593 8        48.689               
G15  23330841.221 8 122604415.042 8     -2521.873 8        49.393               
G23  20927727.544 7 109975969.690 7      -231.430 7        46.036               
G24  21523315.383 7 113105773.084 7     -1973.067 7        44.897               
G25  24189103.340 7 127114578.422 7      3652.469 7        44.568               
> 2025 08 05 07 48 03.0000000  0  7                                             
G32  24596800.315 7 129256981.097 7      2275.861 7        42.145               
G10  22901079.041 6 120346040.062 6      2588.166 6        41.055               
G12  23456330.018 8 123263847.698 8      2618.809 8        48.565               
G15  23331321.710 8 122606935.798 8     -2520.317 8        48.659               
G23  20927772.074 7 109976201.329 7      -230.954 7        45.877               
G24  21523690.695 7 113107743.410 7     -1970.067 7        44.998               
G25  24188405.644 7 127110928.731 7      3646.788 7        44.317               
> 2025 08 05 07 48 04.0000000  0  7                                             
G32  24596369.064 7 129254707.540 7      2275.146 7        42.572               
G10  22900579.906 6 120343452.088 6      2586.257 6        41.237               
G12  23455832.705 8 123261228.461 8      2617.950 8        48.355               
G15  23331802.119 8 122609456.723 8     -2520.646 8        49.175               
G23  20927817.925 7 109976433.581 7      -233.941 7        45.862               
G24  21524067.919 7 113109714.177 7     -1970.267 7        44.939               
G25  24187710.575 7 127107279.114 7      3649.479 7        43.706               
> 2025 08 05 07 48 05.0000000  0  7                                             
G32  24595939.743 7 129252434.045 7      2273.444 7        42.664               
G10  22900091.036 6 120340864.479 6      2585.922 6        40.971               
G12  23455336.026 8 123258609.637 8      2617.042 8        48.099               
G15  23332283.850 8 122611977.858 8     -2519.932 8        48.752               
G23  20927867.012 7 109976666.481 7      -231.133 7        45.565               
G24  21524441.462 7 113111685.388 7     -1971.462 7        44.154               
G25  24187017.007 7 127103629.633 7      3654.603 7        43.519               
> 2025 08 05 07 48 06.0000000  0  7                                             
G32  24595503.989 7 129250160.580 7      2268.242 7        42.621               
G10  22899602.694 6 120338277.232 6      2586.061 6        40.882               
G12  23454836.882 8 123255991.204 8      2616.344 8        48.599               
G15  23332764.062 8 122614499.206 8     -2520.046 8        49.201               
G23  20927911.371 7 109976900.007 7      -232.700 7        45.680               
G24  21524815.997 7 113113657.036 7     -1972.648 7        44.804               
G25  24186323.322 7 127099980.253 7      3645.930 7        43.982               
> 2025 08 05 07 48 07.0000000  0  7                                             
G32  24595074.533 7 129247887.091 7      2276.684 7        42.785               
G10  22899106.971 6 120335690.262 6      2585.679 6        40.946               
G12  23454337.005 7 123253373.100 7      2618.814 7        47.795               
G15  23333243.157 8 122617020.677 8     -2522.924 8        49.359               
G23  20927955.526 7 109977134.112 7      -238.040 7        45.951               
G24  21525187.511 7 113115629.073 7     -1976.501 7        44.990               
G25  24185627.127 7 127096330.926 7      3645.358 7        43.842               
> 2025 08 05 07 48 08.0000000  0  7                                             
G32  24594637.582 7 129245613.659 7      2272.304 7        42.590               
G10  22898616.672 6 120333103.633 6      2589.980 6        40.710               
G12  23453841.604 8 123250755.415 8      2621.022 8        48.174               
G15  23333722.369 8 122619542.356 8     -2524.065 8        49.733               
G23  20927993.792 7 109977368.864 7      -234.672 7        45.998               
G24  21525563.976 7 113117601.558 7     -1975.173 7        44.644               
G25  24184935.239 7 127092681.729 7      3651.106 7        43.760               
> 2025 08 05 07 48 09.0000000  0  7                                             
G32  24594204.169 7 129243340.268 7      2275.429 7        42.443               
G10  22898122.486 6 120330517.372 6      2582.236 6        41.283               
G12  23453343.514 8 123248138.115 8      2618.122 8        48.476               
G15  23334202.384 8 122622064.236 8     -2522.155 8        49.920               
G23  20928036.499 7 109977604.243 7      -235.814 7        45.997               
G24  21525939.735 7 113119574.474 7     -1972.401 7        45.344               
G25  24184236.337 7 127089032.625 7      3647.845 7        43.533               
> 2025 08 05 07 48 10.0000000  0  7                                             
G32  24593775.080 7 129241066.893 7      2265.899 7        43.007               
G10  22897627.979 6 120327931.402 6      2585.477 6        41.326               
G12  23452843.861 8 123245521.191 8      2615.085 8        48.160               
G15  23334680.997 8 122624586.294 8     -2521.701 8        48.934               
G23  20928080.466 7 109977840.242 7      -233.734 7        45.977               
G24  21526317.173 7 113121547.792 7     -1973.277 7        45.108               
G25  24183545.931 7 127085383.616 7      3647.589 7        43.027               
> 2025 08 05 07 48 11.0000000  0  7                                             
G32  24593342.355 7 129238793.545 7      2272.636 7        42.563               
G10  22897134.427 6 120325345.788 6      2585.828 6        41.095               
G12  23452345.610 7 123242904.636 7      2620.422 7        47.688               
G15  23335158.145 8 122627108.539 8     -2521.239 8        48.572               
G23  20928130.097 7 109978076.855 7      -236.924 7        45.626               
G24  21526692.012 7 113123521.536 7     -1974.854 7        45.058               
G25  24182853.364 7 127081734.677 7      3650.416 7        42.994               
> 2025 08 05 07 48 12.0000000  0  7                                             
G32  24592908.236 7 129236520.195 7      2276.460 7        42.694               
G10  22896641.716 6 120322760.452 6      2585.300 6        41.180               
G12  23451847.493 7 123240288.440 7      2614.365 7        47.925               
G15  23335642.011 8 122629630.923 8     -2522.475 8        49.103               
G23  20928175.896 7 109978314.047 7      -239.841 7        45.437               
G24  21527070.192 7 113125495.681 7     -1972.679 7        44.544               
G25  24182156.784 7 127078085.836 7      3649.223 7        43.651               
> 2025 08 05 07 48 13.0000000  0  7                                             
G32  24592477.512 7 129234246.883 7      2277.368 7        42.540               
G10  22896152.096 6 120320175.471 6      2581.287 6        40.735               
G12  23451351.708 7 123237672.639 7      2613.792 7        47.984               
G15  23336120.454 8 122632153.527 8     -2525.343 8        49.040               
G23  20928226.510 7 109978551.882 7      -237.490 7        45.523               
G24  21527443.806 7 113127470.272 7     -1971.485 7        44.441               
G25  24181462.671 7 127074437.101 7      3645.105 7        43.918               
> 2025 08 05 07 48 14.0000000  0  7                                             
G32  24592043.938 7 129231973.549 7      2269.834 7        42.963               
G10  22895657.240 6 120317590.744 6      2587.965 6        41.260               
G12  23450851.125 7 123235057.140 7      2618.639 7        47.668               
G15  23336599.898 8 122634676.235 8     -2524.112 8        48.219               
G23  20928271.012 7 109978790.257 7      -236.949 7        45.805               
G24  21527818.618 7 113129445.201 7     -1974.221 7        43.901               
G25  24180769.800 7 127070788.388 7      3650.117 7        44.208               
> 2025 08 05 07 48 15.0000000  0  7                                             
G32  24591611.213 7 129229700.306 7      2268.815 7        42.601               
G10  22895166.664 6 120315006.426 6      2576.368 6        41.144               
G12  23450354.974 7 123232442.112 7      2614.175 7        47.178               
G15  23337079.261 8 122637199.199 8     -2523.131 8        48.272               
G23  20928316.007 7 109979029.311 7      -238.448 7        45.641               
G24  21528196.932 7 113131420.626 7     -1978.441 7        44.442               
G25  24180076.240 7 127067139.847 7      3651.403 7        43.729               
> 2025 08 05 07 48 16.0000000  0  7                                             
G32  24591179.301 7 129227427.048 7      2270.903 7        42.091               
G10  22894671.102 6 120312422.402 6      2588.118 6        41.111               
G12  23449856.723 7 123229827.430 7      2610.885 7        47.963               
G15  23337559.634 8 122639722.331 8     -2520.970 8        48.675               
G23  20928358.213 7 109979268.978 7      -240.229 7        46.129               
G24  21528571.618 7 113133396.440 7     -1975.894 7        45.185               
G25  24179379.402 7 127063491.363 7      3642.740 7        44.193               
> 2025 08 05 07 48 17.0000000  0  7                                             
G32  24590743.163 6 129225153.769 6      2267.973 6        41.667               
G10  22894182.188 6 120309838.649 6      2586.041 6        41.237               
G12  23449361.161 8 123227213.076 8      2613.984 8        48.670               
G15  23338042.035 8 122642245.592 8     -2524.302 8        48.822               
G23  20928399.339 7 109979509.211 7      -240.801 7        45.819               
G24  21528950.290 7 113135372.640 7     -1977.578 7        44.996               
G25  24178686.048 7 127059842.949 7      3649.633 7        44.222               
> 2025 08 05 07 48 18.0000000  0  7                                             
G32  24590308.445 7 129222880.582 7      2266.113 7        42.340               
G10  22893691.094 6 120307255.301 6      2580.798 6        41.416               
G12  23448864.349 8 123224599.167 8      2613.450 8        48.450               
G15  23338521.318 8 122644769.088 8     -2522.069 8        48.874               
G23  20928446.727 7 109979750.119 7      -243.135 7        45.790               
G24  21529322.939 7 113137349.319 7     -1978.323 7        44.991               
G25  24177992.712 7 127056194.680 7      3647.899 7        44.146               
> 2025 08 05 07 48 19.0000000  0  7                                             
G32  24589878.114 6 129220607.448 6      2270.406 6        41.352               
G10  22893204.163 6 120304672.283 6      2585.672 6        41.396               
G12  23448366.947 8 123221985.644 8      2613.762 8        48.587               
G15  23339002.013 8 122647292.780 8     -2522.454 8        48.928               
G23  20928493.750 7 109979991.649 7      -240.628 7        45.431               
G24  21529699.913 7 113139326.410 7     -1982.199 7        45.199               
G25  24177298.894 7 127052546.523 7      3649.048 7        43.934               
> 2025 08 05 07 48 20.0000000  0  7                                             
G32  24589441.512 7 129218334.326 7      2273.936 7        42.058               
G10  22892711.621 6 120302089.610 6      2583.266 6        41.517               
G12  23447867.025 7 123219372.514 7      2613.232 7        47.752               
G15  23339482.154 8 122649816.652 8     -2522.118 8        48.632               
G23  20928540.388 7 109980233.816 7      -240.863 7        45.840               
G24  21530075.082 7 113141303.936 7     -1974.637 7        44.794               
G25  24176602.136 7 127048898.475 7      3648.425 7        43.256               
> 2025 08 05 07 48 21.0000000  0  7                                             
G32  24589007.670 6 129216061.232 6      2279.093 6        41.828               
G10  22892223.368 6 120299507.279 6      2579.736 6        41.729               
G12  23447370.695 8 123216759.775 8      2612.652 8        48.146               
G15  23339961.365 8 122652340.715 8     -2523.740 8        49.041               
G23  20928585.212 7 109980476.600 7      -240.501 7        45.925               
G24  21530447.866 7 113143281.891 7     -1975.597 7        44.647               
G25  24175906.039 7 127045250.504 7      3646.074 7        43.539               
> 2025 08 05 07 48 22.0000000  0  7                                             
G32  24588583.280 7 129213788.197 7      2270.040 7        42.428               
G10  22891736.446 6 120296925.269 6      2583.001 6        41.903               
G12  23446873.561 8 123214147.433 8      2608.603 8        48.285               
G15  23340445.303 8 122654864.983 8     -2521.398 8        48.830               
G23  20928628.375 7 109980720.020 7      -242.809 7        45.087               
G24  21530826.555 7 113145260.295 7     -1976.199 7        44.826               
G25  24175215.991 7 127041602.680 7      3646.141 7        44.424               
> 2025 08 05 07 48 23.0000000  0  7                                             
G32  24588145.632 7 129211515.214 7      2274.514 7        42.543               
G10  22891240.321 6 120294343.631 6      2583.125 6        41.440               
G12  23446375.408 7 123211535.497 7      2612.461 7        47.332               
G15  23340921.325 8 122657389.471 8     -2524.670 8        48.653               
G23  20928674.334 7 109980964.088 7      -244.519 7        45.220               
G24  21531204.128 7 113147239.140 7     -1979.512 7        44.961               
G25  24174521.324 7 127037954.968 7      3647.675 7        43.720               
> 2025 08 05 07 48 24.0000000  0  7                                             
G32  24587716.901 7 129209242.292 7      2273.583 7        42.680               
G10  22890746.207 6 120291762.341 6      2585.075 6        41.935               
G12  23445877.149 8 123208923.955 8      2612.788 8        48.136               
G15  23341401.608 8 122659914.146 8     -2523.547 8        48.754               
G23  20928721.562 7 109981208.805 7      -244.880 7        45.194               
G24  21531583.371 7 113149218.430 7     -1983.680 7        44.672               
G25  24173826.666 7 127034307.385 7      3647.537 7        43.539               
> 2025 08 05 07 48 25.0000000  0  7                                             
G32  24587280.557 7 129206969.388 7      2274.127 7        42.622               
G10  22890254.344 7 120289181.413 7      2582.107 7        42.291               
G12  23445379.800 7 123206312.828 7      2611.942 7        47.873               
G15  23341882.008 8 122662439.016 8     -2523.490 8        48.677               
G23  20928770.139 7 109981454.148 7      -244.052 7        45.922               
G24  21531954.028 7 113151198.156 7     -1978.897 7        44.986               
G25  24173131.096 7 127030659.898 7      3647.759 7        43.540               
> 2025 08 05 07 48 26.0000000  0  7                                             
G32  24586851.790 7 129204696.546 7      2273.201 7        42.235               
G10  22889768.789 7 120286600.821 7      2580.993 7        42.351               
G12  23444881.987 7 123203702.096 7      2609.415 7        47.773               
G15  23342361.595 8 122664964.120 8     -2524.985 8        48.964               
G23  20928820.476 7 109981700.128 7      -248.302 7        45.385               
G24  21532337.265 7 113153178.323 7     -1980.032 7        44.738               
G25  24172438.019 7 127027012.560 7      3642.354 7        43.552               
> 2025 08 05 07 48 27.0000000  0  7                                             
G32  24586421.870 7 129202423.763 7      2271.351 7        42.152               
G10  22889274.345 6 120284020.577 6      2585.350 6        41.741               
G12  23444385.568 7 123201091.763 7      2614.074 7        47.408               
G15  23342842.209 8 122667489.413 8     -2527.803 8        48.614               
G23  20928868.633 7 109981946.749 7      -242.342 7        45.483               
G24  21532712.514 7 113155158.925 7     -1982.512 7        44.829               
G25  24171738.831 7 127023365.308 7      3647.085 7        43.471               
> 2025 08 05 07 48 28.0000000  0  7                                             
G32  24585988.234 7 129200151.017 7      2269.037 7        43.018               
G10  22888779.355 6 120281440.683 6      2575.575 6        41.860               
G12  23443888.987 7 123198481.842 7      2609.590 7        47.979               
G15  23343323.493 8 122670014.913 8     -2523.296 8        48.992               
G23  20928916.683 7 109982194.009 7      -246.537 7        45.822               
G24  21533087.362 7 113157139.989 7     -1983.091 7        44.346               
G25  24171050.356 7 127019718.184 7      3651.079 7        43.873               
> 2025 08 05 07 48 29.0000000  0  7                                             
G32  24585550.067 7 129197878.275 7      2269.977 7        42.251               
G10  22888288.582 7 120278861.122 7      2579.049 7        42.156               
G12  23443392.997 7 123195872.290 7      2612.348 7        47.837               
G15  23343804.483 7 122672540.577 7     -2525.811 7        47.975               
