     3.02           OBSERVATION DATA    G                   RINEX VERSION / TYPE
G = GPS  R = GLONASS  E = GALILEO  S = GEO  M = MIXED       COMMENT             
GNSS-SDR            suhjw               20250730 042500 UTC PGM / RUN BY / DATE 
GPS OBSERVATION DATA FILE GENERATED BY GNSS-SDR             COMMENT             
GNSS-SDR VERSION 0.0.20                                     COMMENT             
See https://gnss-sdr.org                                    COMMENT             
DEFAULT MARKER NAME                                         MARKER NAME         
suhjw               CTTC                                    OBSERVER / AGENCY   
GNSS-SDR            Software Receiver   0.0.20              REC # / TYPE / VERS 
Antenna number      Antenna type                            ANT # / TYPE        
        0.0000        0.0000        0.0000                  APPROX POSITION XYZ 
        0.0000        0.0000        0.0000                  ANTENNA: DELTA H/E/N
G    4 C1C L1C D1C S1C                                      SYS / # / OBS TYPES 
DBHZ                                                        SIGNAL STRENGTH UNIT
  2025    07    30    04    25   18.1200000     GPS         TIME OF FIRST OBS   
    18    18   137     7                                    LEAP SECONDS        
                                                            END OF HEADER       
> 2025 07 30 04 25 19.0000000  0  8                                             
G05  23260498.955 7 122234762.411 7      -235.802 7        43.971               
G07  28154108.136 7 147950819.639 7     -2333.905 7        43.665               
G11  25650253.053 7 134792987.183 7     -3178.642 7        45.699               
G13  22396669.071 7 117695309.923 7      -160.844 7        44.262               
G15  23468585.442 7 123328282.449 7      1995.694 7        43.068               
G21  24673565.226 7 129660451.857 7     -1825.703 7        46.522               
G29  25280921.345 6 132852097.873 6     -1387.551 6        40.694               
G30  25810841.981 7 135636884.866 7     -1189.065 7        44.906               
> 2025 07 30 04 25 20.0000000  0  8                                             
G05  23260546.075 7 122234997.837 7      -237.475 7        43.867               
G07  28154546.821 7 147953152.617 7     -2332.481 7        42.818               
G11  25650858.402 7 134796165.339 7     -3176.219 7        45.974               
G13  22396699.163 7 117695471.195 7      -163.437 7        44.768               
G15  23468212.391 7 123326289.544 7      1990.025 7        43.251               
G21  24673914.780 7 129662281.115 7     -1828.591 7        46.324               
G29  25281180.160 6 132853490.007 6     -1391.658 6        40.582               
G30  25811068.721 7 135638073.303 7     -1191.007 7        44.787               
> 2025 07 30 04 25 21.0000000  0  8                                             
G05  23260593.750 7 122235233.585 7      -232.426 7        44.280               
G07  28154993.815 7 147955485.954 7     -2334.743 7        43.322               
G11  25651468.629 7 134799343.830 7     -3178.352 7        46.589               
G13  22396726.681 7 117695633.088 7      -160.734 7        43.999               
G15  23467830.423 7 123324297.079 7      1990.225 7        42.852               
G21  24674261.153 7 129664110.575 7     -1828.135 7        46.747               
G29  25281441.315 6 132854882.736 6     -1386.505 6        40.289               
G30  25811295.979 7 135639262.331 7     -1187.137 7        44.414               
> 2025 07 30 04 25 22.0000000  0  8                                             
G05  23260641.996 7 122235469.621 7      -235.832 7        44.494               
G07  28155437.806 7 147957819.631 7     -2332.657 7        43.324               
G11  25652072.174 7 134802522.628 7     -3180.236 7        47.570               
G13  22396764.188 7 117695795.620 7      -163.523 7        44.505               
G15  23467450.259 7 123322305.098 7      1993.654 7        42.796               
G21  24674608.527 7 129665940.224 7     -1830.024 7        45.842               
G29  25281708.029 6 132856276.028 6     -1398.096 6        40.476               
G30  25811521.200 7 135640451.903 7     -1183.971 7        44.282               
> 2025 07 30 04 25 23.0000000  0  8                                             
G05  23260681.737 7 122235705.918 7      -236.173 7        44.251               
G07  28155880.368 7 147960153.619 7     -2331.073 7        43.944               
G11  25652680.256 7 134805701.711 7     -3178.222 7        47.708               
G13  22396791.027 7 117695958.735 7      -162.532 7        43.966               
G15  23467073.205 7 123320313.506 7      1991.480 7        42.892               
G21  24674954.847 7 129667770.032 7     -1830.809 7        45.457               
G29  25281974.742 6 132857669.850 6     -1394.513 6        40.608               
G30  25811743.991 7 135641642.027 7     -1191.839 7        44.028               
> 2025 07 30 04 25 24.0000000  0  8                                             
G05  23260731.109 7 122235942.430 7      -235.536 7        43.772               
G07  28156324.360 7 147962487.894 7     -2336.376 7        44.196               
G11  25653283.854 7 134808881.039 7     -3179.741 7        47.756               
G13  22396822.816 7 117696122.418 7      -166.355 7        44.247               
G15  23466695.364 7 123318322.305 7      1987.813 7        42.213               
G21  24675302.381 7 129669599.966 7     -1829.396 7        44.956               
G29  25282239.078 6 132859064.137 6     -1397.435 6        41.474               
G30  25811973.161 7 135642832.646 7     -1186.867 7        43.145               
> 2025 07 30 04 25 25.0000000  0  8                                             
G05  23260776.389 7 122236179.210 7      -235.022 7        44.648               
G07  28156767.994 7 147964822.490 7     -2332.679 7        44.044               
G11  25653887.094 7 134812060.666 7     -3176.808 7        47.659               
G13  22396859.358 7 117696286.696 7      -167.483 7        44.704               
G15  23466315.701 7 123316331.506 7      1989.431 7        42.997               
G21  24675648.612 7 129671430.073 7     -1829.090 7        45.003               
G29  25282501.538 6 132860458.970 6     -1394.147 6        41.017               
G30  25812200.759 7 135644023.791 7     -1192.238 7        43.508               
> 2025 07 30 04 25 26.0000000  0  8                                             
G05  23260821.115 7 122236416.296 7      -235.518 7        44.612               
G07  28157212.879 7 147967157.434 7     -2332.563 7        44.399               
G11  25654493.122 8 134815240.620 8     -3179.735 8        48.148               
G13  22396890.468 7 117696451.618 7      -158.598 7        45.088               
G15  23465937.539 7 123314341.159 7      1994.114 7        42.834               
G21  24675997.754 7 129673260.380 7     -1827.373 7        45.464               
G29  25282767.394 6 132861854.376 6     -1399.847 6        41.215               
G30  25812427.553 7 135645215.545 7     -1193.696 7        43.851               
> 2025 07 30 04 25 27.0000000  0  8                                             
G05  23260866.199 7 122236653.669 7      -242.296 7        44.293               
G07  28157654.655 7 147969492.739 7     -2339.148 7        44.301               
G11  25655097.756 8 134818420.905 8     -3178.600 8        48.023               
G13  22396920.453 7 117696617.168 7      -163.302 7        44.408               
G15  23465562.272 7 123312351.268 7      1987.708 7        42.971               
G21  24676346.165 7 129675090.878 7     -1832.510 7        45.460               
G29  25283035.482 6 132863250.366 6     -1395.496 6        40.550               
G30  25812652.148 7 135646407.844 7     -1193.949 7        43.753               
> 2025 07 30 04 25 28.0000000  0  8                                             
G05  23260911.372 7 122236891.358 7      -237.731 7        43.710               
G07  28158097.289 7 147971828.380 7     -2337.181 7        43.812               
G11  25655703.784 7 134821601.523 7     -3180.377 7        47.810               
G13  22396947.649 7 117696783.352 7      -164.146 7        44.370               
G15  23465185.057 7 123310361.844 7      1987.196 7        43.357               
G21  24676696.969 7 129676921.585 7     -1824.933 7        45.746               
G29  25283298.872 6 132864646.910 6     -1395.599 6        40.748               
G30  25812881.676 7 135647600.723 7     -1192.212 7        43.596               
> 2025 07 30 04 25 29.0000000  0  8                                             
G05  23260954.561 7 122237129.287 7      -237.642 7        43.604               
G07  28158540.994 7 147974164.328 7     -2329.941 7        43.448               
G11  25656308.955 7 134824782.392 7     -3181.938 7        47.659               
G13  22396977.097 7 117696950.114 7      -165.864 7        44.710               
G15  23464804.053 7 123308372.815 7      1986.183 7        43.174               
G21  24677044.200 7 129678752.423 7     -1828.568 7        45.786               
G29  25283566.050 6 132866043.975 6     -1394.631 6        40.853               
G30  25813111.257 7 135648794.133 7     -1193.218 7        43.829               
> 2025 07 30 04 25 30.0000000  0  8                                             
G05  23260999.055 7 122237367.532 7      -240.461 7        44.355               
G07  28158985.075 7 147976500.655 7     -2334.369 7        44.010               
G11  25656912.481 7 134827963.623 7     -3181.880 7        47.547               
G13  22397015.373 7 117697117.545 7      -167.441 7        44.256               
G15  23464425.873 7 123306384.257 7      1990.728 7        42.912               
G21  24677395.684 7 129680583.492 7     -1833.403 7        45.213               
G29  25283841.554 6 132867441.625 6     -1396.839 6        41.716               
G30  25813337.640 7 135649988.125 7     -1191.469 7        44.230               
> 2025 07 30 04 25 31.0000000  0  8                                             
G05  23261039.903 7 122237606.060 7      -236.271 7        43.543               
G07  28159431.336 7 147978837.313 7     -2336.499 7        44.012               
G11  25657518.366 7 134831145.153 7     -3182.847 7        47.288               
G13  22397046.358 7 117697285.561 7      -169.893 7        44.686               
G15  23464055.466 7 123304396.125 7      1991.485 7        43.096               
G21  24677742.075 7 129682414.716 7     -1831.980 7        46.071               
G29  25284107.427 7 132868839.816 7     -1399.101 7        42.373               
G30  25813563.987 7 135651182.677 7     -1192.534 7        44.616               
> 2025 07 30 04 25 32.0000000  0  8                                             
G05  23261087.060 7 122237844.874 7      -238.455 7        43.920               
G07  28159881.171 7 147981174.300 7     -2337.682 7        43.937               
G11  25658121.928 7 134834326.996 7     -3180.587 7        46.716               
G13  22397080.363 7 117697454.216 7      -170.527 7        44.168               
G15  23463675.410 7 123302408.429 7      1986.559 7        43.273               
G21  24678094.255 7 129684246.144 7     -1830.130 7        46.021               
G29  25284377.089 7 132870238.541 7     -1399.436 7        42.183               
G30  25813794.211 7 135652377.769 7     -1194.935 7        44.115               
> 2025 07 30 04 25 33.0000000  0  8                                             
G05  23261135.378 7 122238083.938 7      -242.500 7        43.577               
G07  28160321.946 7 147983511.601 7     -2335.976 7        43.973               
G11  25658725.937 7 134837509.124 7     -3182.207 7        46.747               
G13  22397112.134 7 117697623.460 7      -171.508 7        45.034               
G15  23463294.925 7 123300421.164 7      1985.264 7        43.597               
G21  24678441.147 7 129686077.731 7     -1833.556 7        45.843               
G29  25284645.857 7 132871637.846 7     -1400.845 7        42.312               
G30  25814021.112 7 135653573.413 7     -1193.667 7        44.529               
> 2025 07 30 04 25 34.0000000  0  8                                             
G05  23261184.053 7 122238323.308 7      -238.408 7        43.778               
G07  28160769.708 7 147985849.273 7     -2337.301 7        44.307               
G11  25659333.269 7 134840691.594 7     -3180.444 7        45.951               
G13  22397144.512 7 117697793.327 7      -167.922 7        45.508               
G15  23462919.586 7 123298434.322 7      1988.333 7        43.760               
G21  24678789.503 7 129687909.515 7     -1828.547 7        45.531               
G29  25284906.137 7 132873037.674 7     -1403.091 7        42.188               
G30  25814247.316 7 135654769.608 7     -1194.624 7        44.448               
> 2025 07 30 04 25 35.0000000  0  8                                             
G05  23261229.923 7 122238562.930 7      -237.295 7        43.962               
G07  28161215.433 7 147988187.243 7     -2341.085 7        44.316               
G11  25659937.081 7 134843874.319 7     -3183.157 7        46.908               
G13  22397178.589 7 117697963.786 7      -171.826 7        45.357               
G15  23462541.496 7 123296447.904 7      1986.548 7        43.681               
G21  24679136.966 7 129689741.433 7     -1831.319 7        46.071               
G29  25285170.992 6 132874438.039 6     -1399.603 6        41.993               
G30  25814474.342 7 135655966.347 7     -1193.339 7        44.438               
> 2025 07 30 04 25 36.0000000  0  9                                             
G05  23261272.201 7 122238802.822 7      -241.452 7        43.641               
G07  28161659.103 7 147990525.535 7     -2337.723 7        44.237               
G11  25660546.147 7 134847057.356 7     -3184.610 7        46.701               
G13  22397209.109 7 117698134.857 7      -171.273 7        45.091               
G15  23462161.761 7 123294461.908 7      1986.947 7        43.672               
G18  26554602.304 6 139545376.919 6      3388.704 6        38.357               
G21  24679486.574 7 129691573.534 7     -1832.285 7        45.469               
G29  25285447.354 7 132875838.941 7     -1397.303 7        42.159               
G30  25814701.618 7 135657163.622 7     -1197.691 7        44.499               
> 2025 07 30 04 25 37.0000000  0  9                                             
G05  23261320.411 7 122239042.993 7      -233.405 7        43.739               
G07  28162102.094 7 147992864.194 7     -2334.952 7        44.026               
G11  25661152.854 7 134850240.708 7     -3184.894 7        47.163               
G13  22397241.148 7 117698306.541 7      -174.187 7        45.080               
G15  23461777.631 7 123292476.376 7      1988.046 7        43.318               
G18  26553961.485 6 139541990.316 6      3393.448 6        39.055               
G21  24679838.147 7 129693405.842 7     -1833.414 7        46.018               
G29  25285706.901 7 132877240.417 7     -1405.243 7        42.051               
G30  25814927.215 7 135658361.480 7     -1198.213 7        44.048               
> 2025 07 30 04 25 38.0000000  0  9                                             
G05  23261359.080 7 122239283.453 7      -244.831 7        43.334               
G07  28162544.245 7 147995203.192 7     -2340.309 7        44.060               
G11  25661758.328 7 134853424.352 7     -3186.419 7        47.196               
G13  22397276.136 7 117698478.858 7      -173.450 7        45.049               
G15  23461400.433 7 123290491.229 7      1985.688 7        42.872               
G18  26553318.361 6 139538603.820 6      3388.963 6        37.897               
G21  24680184.306 7 129695238.308 7     -1832.101 7        45.724               
G29  25285973.597 6 132878642.413 6     -1403.068 6        41.790               
G30  25815154.991 7 135659559.866 7     -1199.646 7        43.745               
> 2025 07 30 04 25 39.0000000  0  9                                             
G05  23261403.574 7 122239524.168 7      -238.901 7        43.271               
G07  28162990.828 7 147997542.511 7     -2338.585 7        44.525               
G11  25662366.696 7 134856608.297 7     -3185.966 7        47.429               
G13  22397308.872 7 117698651.764 7      -175.242 7        45.244               
G15  23461022.200 7 123288506.537 7      1986.750 7        42.979               
G18  26552674.219 6 139535217.504 6      3391.408 6        38.188               
G21  24680534.717 7 129697070.943 7     -1838.023 7        45.189               
G29  25286239.041 7 132880044.996 7     -1404.996 7        42.154               
G30  25815385.912 7 135660758.812 7     -1202.093 7        44.245               
> 2025 07 30 04 25 40.0000000  0  9                                             
G05  23261445.870 7 122239765.187 7      -236.636 7        43.952               
G07  28163433.872 7 147999882.172 7     -2338.842 7        43.986               
G11  25662971.777 7 134859792.560 7     -3184.084 7        47.791               
G13  22397343.877 7 117698825.298 7      -171.510 7        44.894               
G15  23460644.395 7 123286522.290 7      1983.751 7        43.371               
G18  26552031.166 6 139531831.341 6      3393.552 6        38.678               
G21  24680877.945 7 129698903.764 7     -1829.929 7        44.975               
G29  25286506.040 6 132881448.113 6     -1406.054 6        41.968               
G30  25815614.707 7 135661958.302 7     -1199.034 7        44.088               
> 2025 07 30 04 25 41.0000000  0  9                                             
G05  23261498.887 7 122240006.488 7      -242.135 7        43.348               
G07  28163880.544 7 148002222.178 7     -2338.559 7        43.765               
G11  25663577.394 7 134862977.133 7     -3182.758 7        47.917               
G13  22397375.184 7 117698999.465 7      -175.059 7        45.106               
G15  23460266.144 7 123284538.485 7      1990.353 7        43.526               
G18  26551388.471 6 139528445.380 6      3390.126 6        38.526               
G21  24681225.980 7 129700736.793 7     -1836.254 7        45.212               
G29  25286777.720 6 132882851.789 6     -1402.103 6        41.879               
G30  25815845.486 7 135663158.368 7     -1201.484 7        43.948               
> 2025 07 30 04 25 42.0000000  0 10                                             
G05  23261545.829 7 122240248.041 7      -247.081 7        44.313               
G07  28164325.644 7 148004562.490 7     -2340.594 7        44.087               
G11  25664181.760 7 134866161.991 7     -3183.227 7        47.794               
G13  22397403.506 7 117699174.210 7      -177.910 7        44.403               
G15  23459887.695 7 123282555.083 7      1984.138 7        43.267               
G18  26550740.791 6 139525059.510 6      3385.959 6        38.388               
G21  24681577.053 7 129702569.970 7     -1830.269 7        45.166               
G24  27718602.665 7 145662230.810 7      3958.459 7        42.805               
G29  25287041.843 7 132884255.969 7     -1410.576 7        42.190               
G30  25816069.456 7 135664358.960 7     -1203.177 7        43.933               
> 2025 07 30 04 25 43.0000000  0 10                                             
G05  23261589.519 7 122240489.827 7      -238.656 7        44.001               
G07  28164773.370 7 148006903.086 7     -2342.719 7        43.721               
G11  25664785.644 7 134869347.120 7     -3182.865 7        46.975               
G13  22397436.724 7 117699349.527 7      -170.400 7        44.290               
G15  23459509.855 7 123280572.076 7      1978.851 7        42.445               
G18  26550100.007 6 139521673.793 6      3388.869 6        38.168               
G21  24681927.143 7 129704403.295 7     -1832.824 7        45.047               
G24  27717852.166 7 145658274.719 7      3958.449 7        43.288               
G29  25287310.146 7 132885660.662 7     -1402.624 7        42.415               
G30  25816300.431 7 135665560.078 7     -1206.423 7        43.982               
> 2025 07 30 04 25 44.0000000  0 10                                             
G05  23261642.822 7 122240731.894 7      -244.824 7        44.535               
G07  28165219.720 7 148009244.010 7     -2338.655 7        44.444               
G11  25665394.870 7 134872532.543 7     -3185.322 7        47.179               
G13  22397467.120 7 117699525.458 7      -174.636 7        44.214               
G15  23459134.570 7 123278589.498 7      1981.100 7        42.997               
G18  26549456.615 6 139518288.231 6      3385.231 6        38.476               
G21  24682275.911 7 129706236.776 7     -1837.639 7        45.412               
G24  27717096.485 7 145654318.535 7      3948.009 7        42.471               
G29  25287575.644 7 132887065.901 7     -1410.747 7        42.572               
G30  25816524.401 7 135666761.732 7     -1200.449 7        43.527               
> 2025 07 30 04 25 45.0000000  0 10                                             
G05  23261687.941 7 122240974.234 7      -245.143 7        44.615               
G07  28165668.054 7 148011585.273 7     -2336.662 7        44.538               
G11  25665999.844 7 134875718.289 7     -3186.714 7        46.516               
G13  22397501.339 7 117699701.996 7      -175.044 7        44.152               
G15  23458756.354 7 123276607.358 7      1979.874 7        43.260               
G18  26548809.096 6 139514902.821 6      3385.838 6        38.837               
G21  24682626.340 7 129708070.437 7     -1831.591 7        45.524               
G24  27716346.379 7 145650362.281 7      3956.924 7        42.607               
G29  25287843.215 7 132888471.700 7     -1408.357 7        42.345               
G30  25816750.123 7 135667963.954 7     -1202.647 7        43.343               
> 2025 07 30 04 25 46.0000000  0 10                                             
G05  23261729.147 7 122241216.896 7      -238.138 7        44.130               
G07  28166113.886 7 148013926.902 7     -2337.643 7        44.502               
G11  25666600.886 7 134878904.363 7     -3186.027 7        46.160               
G13  22397541.115 7 117699879.187 7      -176.804 7        43.857               
G15  23458375.047 7 123274625.681 7      1982.606 7        43.269               
G18  26548172.154 6 139511517.607 6      3389.943 6        38.793               
G21  24682974.911 7 129709904.324 7     -1831.413 7        45.509               
G24  27715591.556 7 145646405.968 7      3956.818 7        42.343               
G29  25288112.912 6 132889878.074 6     -1403.884 6        41.897               
G30  25816981.723 7 135669166.746 7     -1203.784 7        43.464               
> 2025 07 30 04 25 47.0000000  0 10                                             
G05  23261777.483 7 122241459.809 7      -241.899 7        43.590               
G07  28166559.200 7 148016268.822 7     -2344.472 7        44.143               
G11  25667209.309 7 134882090.727 7     -3185.807 7        46.287               
G13  22397575.513 7 117700056.981 7      -179.667 7        45.018               
G15  23457999.315 7 123272644.403 7      1979.079 7        43.163               
G18  26547521.936 6 139508132.519 6      3390.271 6        38.561               
G21  24683324.125 7 129711738.363 7     -1834.573 7        45.101               
G24  27714841.986 7 145642449.551 7      3950.899 7        42.720               
G29  25288377.641 7 132891284.963 7     -1412.921 7        42.154               
G30  25817210.357 7 135670370.072 7     -1203.895 7        43.503               
> 2025 07 30 04 25 48.0000000  0 10                                             
G05  23261823.281 7 122241702.985 7      -237.644 7        43.759               
G07  28167005.568 7 148018611.078 7     -2344.018 7        44.300               
G11  25667818.321 7 134885277.377 7     -3184.982 7        46.796               
G13  22397610.286 7 117700235.360 7      -176.114 7        44.766               
G15  23457622.422 7 123270663.553 7      1988.129 7        42.767               
G18  26546882.565 6 139504747.585 6      3374.669 6        38.403               
G21  24683674.072 7 129713572.552 7     -1837.020 7        44.939               
G24  27714085.233 7 145638493.025 7      3953.720 7        42.124               
G29  25288642.657 7 132892692.406 7     -1408.249 7        42.421               
G30  25817442.083 7 135671573.938 7     -1202.517 7        43.257               
> 2025 07 30 04 25 49.0000000  0 10                                             
G05  23261871.564 7 122241946.407 7      -240.475 7        43.492               
G07  28167451.865 7 148020953.644 7     -2341.981 7        44.434               
G11  25668426.833 7 134888464.315 7     -3186.220 7        47.355               
G13  22397645.113 7 117700414.344 7      -182.409 7        44.420               
G15  23457243.241 7 123268683.131 7      1975.212 7        42.432               
G18  26546236.921 6 139501362.785 6      3384.923 6        38.423               
G21  24684022.482 7 129715406.929 7     -1832.660 7        45.334               
G24  27713330.999 7 145634536.419 7      3953.894 7        42.215               
G29  25288916.232 7 132894100.382 7     -1407.279 7        42.616               
G30  25817667.054 7 135672778.342 7     -1200.249 7        42.727               
> 2025 07 30 04 25 50.0000000  0 10                                             
G05  23261916.701 7 122242190.134 7      -243.406 7        43.521               
G07  28167893.033 7 148023296.559 7     -2344.136 7        43.925               
G11  25669030.234 7 134891651.568 7     -3188.398 7        46.725               
G13  22397676.920 7 117700593.947 7      -179.762 7        44.091               
G15  23456868.277 7 123266703.161 7      1974.063 7        42.795               
G18  26545599.962 6 139497978.180 6      3383.965 6        38.956               
G21  24684372.322 7 129717241.481 7     -1831.921 7        45.261               
G24  27712578.767 7 145630579.717 7      3957.583 7        42.190               
G29  25289178.495 7 132895508.901 7     -1416.427 7        42.134               
G30  25817898.047 7 135673983.317 7     -1208.284 7        43.697               
> 2025 07 30 04 25 51.0000000  0 10                                             
G05  23261959.372 7 122242434.188 7      -244.039 7        43.805               
G07  28168342.368 7 148025639.841 7     -2343.510 7        43.968               
G11  25669639.943 7 134894839.173 7     -3190.495 7        46.865               
G13  22397710.192 7 117700774.211 7      -185.354 7        44.179               
G15  23456494.743 7 123264723.672 7      1978.345 7        43.447               
G18  26544954.193 6 139494593.784 6      3383.912 6        38.742               
G21  24684720.429 7 129719076.259 7     -1836.094 7        45.270               
G24  27711826.249 6 145626622.987 6      3960.521 6        41.991               
G29  25289449.104 7 132896918.004 7     -1404.529 7        42.061               
G30  25818133.614 7 135675188.889 7     -1207.630 7        43.304               
> 2025 07 30 04 25 52.0000000  0 10                                             
G05  23262007.583 7 122242678.472 7      -246.675 7        43.947               
G07  28168787.396 7 148027983.433 7     -2344.827 7        43.952               
G11  25670247.275 7 134898027.046 7     -3189.343 7        46.974               
G13  22397744.858 7 117700955.051 7      -178.430 7        43.945               
G15  23456123.604 7 123262744.572 7      1982.150 7        43.198               
G18  26544315.948 6 139491209.490 6      3380.451 6        39.490               
G21  24685072.305 7 129720911.193 7     -1835.954 7        45.735               
G24  27711070.568 6 145622666.129 6      3954.879 6        41.360               
G29  25289722.393 7 132898327.636 7     -1406.334 7        42.251               
G30  25818360.247 7 135676394.965 7     -1205.200 7        43.193               
> 2025 07 30 04 25 53.0000000  0 10                                             
G05  23262056.597 7 122242923.052 7      -238.217 7        44.153               
G07  28169231.066 7 148030327.357 7     -2343.135 7        43.975               
G11  25670852.517 7 134901215.236 7     -3188.630 7        47.419               
G13  22397778.184 7 117701136.531 7      -180.208 7        44.536               
G15  23455744.691 7 123260765.933 7      1975.714 7        43.260               
G18  26543659.547 6 139487825.401 6      3380.956 6        39.173               
G21  24685415.962 7 129722746.297 7     -1835.270 7        45.418               
G24  27710316.513 6 145618709.216 6      3956.823 6        40.941               
G29  25289989.695 6 132899737.830 6     -1416.386 6        41.768               
G30  25818584.414 7 135677601.616 7     -1206.430 7        43.409               
> 2025 07 30 04 25 54.0000000  0 10                                             
G05  23262097.821 7 122243167.974 7      -248.023 7        44.075               
G07  28169679.007 7 148032671.662 7     -2345.546 7        44.132               
G11  25671460.046 7 134904403.778 7     -3189.512 7        47.740               
G13  22397814.136 7 117701318.659 7      -185.697 7        44.558               
G15  23455372.104 7 123258787.763 7      1980.298 7        43.626               
G18  26543014.350 6 139484441.492 6      3394.096 6        38.938               
G21  24685763.533 7 129724581.654 7     -1839.335 7        45.341               
G24  27709563.405 6 145614752.255 6      3960.614 6        41.219               
G29  25290251.405 6 132901148.605 6     -1413.545 6        41.986               
G30  25818815.585 7 135678808.869 7     -1204.614 7        43.525               
> 2025 07 30 04 25 55.0000000  0 10                                             
G05  23262153.555 7 122243413.234 7      -243.646 7        44.693               
G07  28170124.588 7 148035016.350 7     -2343.667 7        43.554               
G11  25672065.537 7 134907592.667 7     -3186.804 7        47.335               
G13  22397846.819 7 117701501.447 7      -185.216 7        44.571               
G15  23454994.496 7 123256810.081 7      1974.106 7        43.673               
G18  26542368.045 6 139481057.813 6      3378.995 6        39.189               
G21  24686114.302 7 129726417.240 7     -1836.085 7        45.107               
G24  27708807.492 6 145610795.258 6      3958.652 6        40.585               
G29  25290524.998 7 132902559.996 7     -1412.756 7        42.326               
G30  25819048.044 7 135680016.705 7     -1205.528 7        43.583               
> 2025 07 30 04 25 56.0000000  0 10                                             
G05  23262198.620 7 122243658.687 7      -246.958 7        43.667               
G07  28170568.955 7 148037361.313 7     -2344.297 7        44.019               
G11  25672671.833 7 134910781.823 7     -3190.864 7        46.669               
G13  22397883.396 7 117701684.793 7      -181.222 7        44.809               
G15  23454625.018 7 123254832.784 7      1976.993 7        44.006               
G18  26541724.707 6 139477674.226 6      3383.520 6        38.048               
G21  24686462.247 7 129728252.931 7     -1836.125 7        44.470               
G24  27708058.994 6 145606838.123 6      3964.170 6        41.115               
G29  25290789.084 7 132903971.860 7     -1414.349 7        42.397               
G30  25819277.839 7 135681225.082 7     -1211.559 7        43.562               
> 2025 07 30 04 25 57.0000000  0 10                                             
G05  23262244.901 7 122243904.461 7      -242.688 7        43.510               
G07  28171015.002 7 148039706.612 7     -2344.925 7        44.054               
G11  25673278.862 7 134913971.286 7     -3191.948 7        47.541               
G13  22397914.471 7 117701868.773 7      -181.902 7        44.914               
G15  23454242.728 7 123252855.912 7      1971.004 7        43.707               
G18  26541082.512 6 139474290.813 6      3388.222 6        38.696               
G21  24686809.371 7 129730088.821 7     -1835.609 7        44.698               
G24  27707303.474 6 145602880.909 6      3962.213 6        40.511               
G29  25291053.420 7 132905384.286 7     -1412.146 7        42.021               
G30  25819508.743 7 135682433.982 7     -1209.153 7        43.606               
> 2025 07 30 04 25 58.0000000  0 10                                             
G05  23262292.611 7 122244150.465 7      -248.404 7        44.082               
G07  28171462.657 7 148042052.223 7     -2343.766 7        43.732               
G11  25673884.836 7 134917161.019 7     -3189.460 7        47.561               
G13  22397951.191 7 117702053.360 7      -186.650 7        44.785               
G15  23453868.158 7 123250879.448 7      1978.975 7        44.130               
G18  26540437.172 6 139470907.547 6      3378.416 6        37.876               
G21  24687160.390 7 129731924.857 7     -1834.488 7        44.614               
G24  27706554.959 6 145598923.595 6      3965.064 6        40.720               
G29  25291324.315 6 132906797.249 6     -1418.351 6        41.946               
G30  25819743.256 7 135683643.424 7     -1204.793 7        43.386               
> 2025 07 30 04 25 59.0000000  0 10                                             
G05  23262337.087 7 122244396.754 7      -243.830 7        43.963               
G07  28171910.311 7 148044398.164 7     -2349.108 7        43.887               
G11  25674492.937 7 134920351.069 7     -3188.650 7        47.064               
G13  22397988.252 7 117702238.533 7      -192.211 7        45.002               
G15  23453493.337 7 123248903.451 7      1978.452 7        44.020               
G18  26539790.510 6 139467524.421 6      3385.622 6        38.124               
G21  24687513.714 7 129733761.094 7     -1840.347 7        44.804               
G24  27705795.829 6 145594966.202 6      3961.123 6        41.262               
G29  25291596.835 6 132908210.743 6     -1413.511 6        41.821               
G30  25819972.658 7 135684853.427 7     -1212.448 7        43.897               
> 2025 07 30 04 26 00.0000000  0 10                                             
G05  23262384.065 7 122244643.280 7      -251.094 7        43.875               
G07  28172356.322 7 148046744.376 7     -2343.530 7        43.874               
G11  25675101.306 7 134923541.354 7     -3192.408 7        46.504               
G13  22398020.327 7 117702424.262 7      -186.389 7        44.622               
G15  23453116.051 7 123246927.808 7      1976.997 7        43.749               
G18  26539152.533 6 139464141.410 6      3385.837 6        38.034               
G21  24687862.589 7 129735597.432 7     -1840.962 7        44.888               
G24  27705048.046 6 145591008.652 6      3956.173 6        41.229               
G29  25291863.101 7 132909624.713 7     -1415.513 7        42.148               
G30  25820204.741 7 135686063.922 7     -1211.892 7        44.246               
> 2025 07 30 04 26 01.0000000  0 10                                             
G05  23262431.150 7 122244890.073 7      -243.380 7        44.007               
G07  28172804.978 7 148049090.927 7     -2347.246 7        43.751               
G11  25675707.244 7 134926731.962 7     -3189.515 7        46.832               
G13  22398060.889 7 117702610.610 7      -187.275 7        45.269               
G15  23452737.120 7 123244952.619 7      1975.296 7        44.209               
G18  26538511.070 6 139460758.560 6      3376.269 6        38.180               
G21  24688212.339 7 129737433.951 7     -1836.073 7        44.603               
G24  27704293.812 6 145587051.035 6      3955.754 6        41.298               
G29  25292133.156 6 132911039.258 6     -1418.690 6        41.840               
G30  25820431.678 7 135687274.962 7     -1213.956 7        43.951               
> 2025 07 30 04 26 02.0000000  0 10                                             
G05  23262477.288 7 122245137.107 7      -246.607 7        43.970               
G07  28173251.596 7 148051437.770 7     -2345.358 7        43.938               
G11  25676312.146 7 134929922.829 7     -3188.799 7        47.294               
G13  22398098.003 7 117702797.542 7      -183.761 7        45.028               
G15  23452358.636 7 123242977.796 7      1973.430 7        44.221               
G18  26537873.915 6 139457375.837 6      3381.143 6        38.208               
G21  24688559.856 7 129739270.605 7     -1833.662 7        44.574               
G24  27703541.401 6 145583093.305 6      3951.922 6        41.258               
G29  25292401.817 7 132912454.298 7     -1416.700 7        42.164               
G30  25820663.564 7 135688486.516 7     -1212.873 7        43.394               
> 2025 07 30 04 26 03.0000000  0 10                                             
G05  23262524.730 7 122245384.389 7      -245.103 7        44.204               
G07  28173696.570 7 148053784.912 7     -2344.753 7        43.500               
G11  25676922.106 7 134933113.971 7     -3193.248 7        47.021               
G13  22398130.561 7 117702985.070 7      -187.774 7        44.958               
G15  23451978.383 7 123241003.394 7      1968.755 7        43.694               
G18  26537224.054 6 139453993.265 6      3381.721 6        37.635               
G21  24688908.820 7 129741107.426 7     -1838.620 7        44.808               
G24  27702784.791 6 145579135.443 6      3960.203 6        41.192               
G29  25292675.534 7 132913869.844 7     -1411.774 7        42.291               
G30  25820892.824 7 135689698.614 7     -1210.872 7        43.316               
> 2025 07 30 04 26 04.0000000  0 10                                             
G05  23262565.489 7 122245631.954 7      -248.913 7        44.423               
G07  28174144.618 7 148056132.405 7     -2344.473 7        43.965               
G11  25677527.848 7 134936305.425 7     -3190.992 7        47.359               
G13  22398162.546 7 117703173.207 7      -192.903 7        44.884               
G15  23451598.452 7 123239029.426 7      1973.445 7        43.652               
G18  26536581.859 6 139450610.834 6      3383.234 6        38.587               
G21  24689256.498 7 129742944.420 7     -1838.809 7        44.823               
G24  27702025.572 6 145575177.509 6      3959.372 6        40.549               
G29  25292943.034 7 132915285.945 7     -1417.236 7        42.057               
G30  25821121.976 7 135690911.245 7     -1214.705 7        43.042               
> 2025 07 30 04 26 05.0000000  0 10                                             
G05  23262611.788 7 122245879.779 7      -248.239 7        43.641               
G07  28174593.041 7 148058480.192 7     -2347.434 7        44.113               
G11  25678134.179 7 134939497.165 7     -3187.791 7        47.492               
G13  22398201.590 7 117703361.925 7      -190.927 7        44.372               
G15  23451224.346 7 123237055.887 7      1974.574 7        43.164               
G18  26535942.452 6 139447228.554 6      3383.621 6        38.469               
G21  24689609.518 7 129744781.578 7     -1833.583 7        44.588               
G24  27701282.257 6 145571219.480 6      3959.907 6        40.861               
G29  25293204.172 7 132916702.599 7     -1417.831 7        42.469               
G30  25821353.916 7 135692124.402 7     -1212.334 7        42.986               
> 2025 07 30 04 26 06.0000000  0 11                                             
G05  23262664.251 7 122246127.872 7      -254.700 7        43.971               
G07  28175038.248 7 148060828.302 7     -2348.778 7        44.008               
G11  25678744.621 7 134942689.170 7     -3189.078 7        47.550               
G13  22398235.613 7 117703551.236 7      -186.702 7        44.371               
G15  23450846.095 7 123235082.745 7      1972.477 7        42.980               
G18  26535292.859 6 139443846.424 6      3377.970 6        38.254               
G20  24062599.619 7 126449813.672 7     -1435.761 7        46.045               
G21  24689959.430 7 129746618.888 7     -1833.613 7        45.162               
G24  27700527.004 6 145567261.351 6      3954.848 6        40.202               
G29  25293475.245 7 132918119.743 7     -1419.479 7        42.378               
G30  25821584.855 7 135693338.103 7     -1216.792 7        43.464               
> 2025 07 30 04 26 07.0000000  0 11                                             
G05  23262709.603 7 122246376.221 7      -250.882 7        44.055               
G07  28175489.155 7 148063176.719 7     -2348.113 7        44.330               
G11  25679348.951 7 134945881.463 7     -3192.463 7        47.742               
G13  22398271.690 7 117703741.152 7      -190.769 7        43.990               
G15  23450468.916 7 123233110.042 7      1970.896 7        43.172               
G18  26534651.487 6 139440464.430 6      3385.550 6        38.222               
G20  24062871.282 7 126451249.358 7     -1432.890 7        46.291               
G21  24690307.911 7 129748456.366 7     -1836.921 7        44.771               
G24  27699779.650 6 145563303.104 6      3956.388 6        40.684               
G29  25293743.834 6 132919537.427 6     -1422.564 6        41.501               
G30  25821815.455 7 135694552.350 7     -1214.728 7        44.097               
> 2025 07 30 04 26 08.0000000  0 11                                             
G05  23262759.922 7 122246624.794 7      -249.245 7        43.573               
G07  28175933.969 7 148065525.462 7     -2350.020 7        44.371               
G11  25679959.786 7 134949074.022 7     -3191.663 7        47.700               
G13  22398312.861 7 117703931.627 7      -192.895 7        44.706               
G15  23450097.436 7 123231137.704 7      1975.038 7        43.081               
G18  26534010.007 6 139437082.531 6      3379.957 6        38.725               
G20  24063146.179 7 126452685.260 7     -1437.832 7        45.911               
G21  24690658.966 7 129750293.985 7     -1837.656 7        45.136               
G24  27699019.788 6 145559344.737 6      3957.533 6        41.656               
G29  25294005.168 6 132920955.613 6     -1421.569 6        40.934               
G30  25822041.480 7 135695767.094 7     -1218.603 7        43.642               
> 2025 07 30 04 26 09.0000000  0 11                                             
G05  23262807.472 7 122246873.690 7      -251.382 7        43.508               
G07  28176381.981 7 148067874.534 7     -2351.151 7        44.422               
G11  25680567.744 7 134952266.919 7     -3192.895 7        47.934               
G13  22398349.546 7 117704122.753 7      -189.280 7        44.880               
G15  23449723.474 7 123229165.827 7      1972.277 7        43.809               
G18  26533369.009 6 139433700.857 6      3380.272 6        37.655               
G20  24063420.486 7 126454121.468 7     -1436.121 7        46.219               
G21  24691006.179 7 129752131.793 7     -1836.406 7        44.690               
G24  27698270.594 6 145555386.330 6      3959.686 6        41.328               
G29  25294286.480 6 132922374.395 6     -1426.473 6        40.629               
G30  25822278.298 7 135696982.410 7     -1212.045 7        43.778               
> 2025 07 30 04 26 10.0000000  0 11                                             
G05  23262849.553 7 122247122.842 7      -255.549 7        43.283               
G07  28176828.117 7 148070223.862 7     -2348.245 7        44.027               
G11  25681174.683 8 134955460.066 8     -3190.997 8        48.009               
G13  22398389.108 7 117704314.449 7      -189.129 7        44.874               
G15  23449349.386 7 123227194.361 7      1969.581 7        43.105               
G18  26532714.073 6 139430319.325 6      3383.706 6        38.570               
G20  24063694.472 7 126455557.899 7     -1438.678 7        46.318               
G21  24691359.396 7 129753969.746 7     -1836.984 7        44.618               
G24  27697516.628 6 145551427.806 6      3955.486 6        41.376               
G29  25294553.372 6 132923793.669 6     -1422.858 6        41.054               
G30  25822510.220 7 135698198.256 7     -1220.654 7        43.638               
> 2025 07 30 04 26 11.0000000  0 11                                             
G05  23262902.553 7 122247372.166 7      -247.205 7        43.967               
G07  28177274.128 7 148072573.453 7     -2351.320 7        44.375               
G11  25681783.606 7 134958653.429 7     -3195.955 7        47.237               
G13  22398417.216 7 117704506.675 7      -194.104 7        44.775               
G15  23448974.065 7 123225223.226 7      1970.659 7        42.939               
G18  26532066.947 6 139426937.829 6      3378.448 6        38.122               
G20  24063968.136 7 126456994.487 7     -1437.899 7        46.326               
G21  24691708.342 7 129755807.778 7     -1838.631 7        44.949               
G24  27696759.392 6 145547469.076 6      3956.973 6        41.322               
G29  25294827.054 6 132925213.369 6     -1416.521 6        41.791               
G30  25822738.122 7 135699414.552 7     -1218.653 7        43.724               
> 2025 07 30 04 26 12.0000000  0 11                                             
G05  23262950.906 7 122247621.816 7      -252.426 7        43.857               
G07  28177724.355 7 148074923.429 7     -2352.095 7        43.841               
G11  25682388.383 7 134961847.135 7     -3193.910 7        46.893               
G13  22398459.369 7 117704699.535 7      -194.300 7        45.409               
G15  23448598.636 7 123223252.578 7      1967.747 7        43.606               
G18  26531434.526 6 139423556.535 6      3384.417 6        38.270               
G20  24064242.157 7 126458431.398 7     -1437.494 7        46.827               
G21  24692060.630 7 129757646.051 7     -1840.716 7        44.930               
G24  27696008.447 6 145543510.322 6      3954.953 6        41.391               
G29  25295097.681 6 132926633.698 6     -1422.206 6        41.967               
G30  25822963.736 7 135700631.434 7     -1219.538 7        43.787               
> 2025 07 30 04 26 13.0000000  0 11                                             
G05  23262995.757 7 122247871.731 7      -248.924 7        43.744               
G07  28178164.309 7 148077273.706 7     -2352.449 7        43.814               
G11  25682992.123 7 134965041.132 7     -3194.544 7        46.717               
G13  22398492.837 7 117704892.989 7      -192.704 7        45.490               
G15  23448221.439 7 123221282.315 7      1976.310 7        43.269               
G18  26530789.347 6 139420175.391 6      3378.069 6        37.915               
G20  24064512.534 7 126459868.538 7     -1434.659 7        46.266               
G21  24692407.736 7 129759484.471 7     -1838.171 7        44.631               
G24  27695255.929 6 145539551.474 6      3958.241 6        41.461               
G29  25295375.419 7 132928054.536 7     -1419.678 7        42.271               
G30  25823198.624 7 135701848.856 7     -1217.580 7        43.502               
> 2025 07 30 04 26 14.0000000  0 11                                             
G05  23263051.687 7 122248121.980 7      -248.668 7        44.029               
G07  28178610.623 7 148079624.377 7     -2352.162 7        43.880               
G11  25683605.174 7 134968235.507 7     -3192.819 7        46.235               
G13  22398528.075 7 117705087.127 7      -193.648 7        45.064               
G15  23447850.586 7 123219312.571 7      1968.526 7        43.371               
G18  26530141.845 6 139416794.462 6      3380.539 6        38.429               
G20  24064785.197 7 126461306.003 7     -1436.828 7        46.399               
G21  24692757.325 7 129761323.128 7     -1843.236 7        44.215               
G24  27694505.037 6 145535592.593 6      3955.824 6        41.180               
G29  25295642.150 6 132929475.959 6     -1415.442 6        41.770               
G30  25823433.566 7 135703066.869 7     -1217.779 7        42.814               
> 2025 07 30 04 26 15.0000000  0 11                                             
G05  23263092.893 7 122248372.477 7      -251.569 7        43.877               
G07  28179060.244 7 148081975.320 7     -2349.886 7        44.279               
G11  25684209.611 7 134971430.107 7     -3194.186 7        46.151               
G13  22398566.565 7 117705281.820 7      -191.536 7        45.271               
G15  23447475.747 7 123217343.212 7      1969.375 7        43.350               
G18  26529504.207 6 139413413.636 6      3374.756 6        38.189               
G20  24065061.542 7 126462743.684 7     -1434.290 7        46.401               
G21  24693105.807 7 129763161.912 7     -1840.426 7        44.411               
G24  27693748.784 6 145531633.581 6      3959.527 6        41.904               
G29  25295910.721 6 132930897.902 6     -1421.179 6        41.836               
G30  25823669.187 7 135704285.412 7     -1219.034 7        43.257               
> 2025 07 30 04 26 16.0000000  0 11                                             
G05  23263138.674 7 122248623.340 7      -252.212 7        43.721               
G07  28179506.862 7 148084326.697 7     -2351.067 7        44.129               
G11  25684816.640 7 134974625.124 7     -3196.965 7        46.341               
G13  22398606.645 7 117705477.236 7      -195.478 7        45.818               
G15  23447103.285 7 123215374.377 7      1966.343 7        43.533               
G18  26528853.918 6 139410033.108 6      3369.702 6        38.579               
G20  24065336.010 7 126464181.743 7     -1438.415 7        46.333               
G21  24693448.535 7 129765000.973 7     -1837.252 7        44.851               
G24  27692995.050 7 145527674.599 7      3958.769 7        42.103               
G29  25296181.294 7 132932320.450 7     -1423.075 7        42.560               
G30  25823896.267 7 135705504.590 7     -1218.631 7        43.376               
> 2025 07 30 04 26 17.0000000  0 11                                             
G05  23263185.812 7 122248874.413 7      -248.730 7        43.982               
G07  28179959.038 7 148086678.349 7     -2353.338 7        44.743               
G11  25685426.259 7 134977820.404 7     -3197.404 7        46.329               
G13  22398647.708 7 117705673.223 7      -198.221 7        45.456               
G15  23446731.216 7 123213405.938 7      1969.507 7        43.835               
G18  26528213.849 6 139406652.657 6      3382.928 6        38.424               
G20  24065607.780 7 126465620.002 7     -1435.697 7        46.036               
G21  24693803.646 7 129766840.180 7     -1835.667 7        43.936               
G24  27692241.943 7 145523715.475 7      3958.755 7        42.449               
G29  25296452.385 6 132933743.536 6     -1424.382 6        41.994               
G30  25824133.371 7 135706724.283 7     -1218.661 7        43.935               
> 2025 07 30 04 26 18.0000000  0 11                                             
G05  23263232.951 7 122249125.800 7      -253.938 7        44.136               
G07  28180403.315 7 148089030.331 7     -2353.769 7        44.441               
G11  25686037.076 7 134981015.975 7     -3195.416 7        46.943               
G13  22398682.356 7 117705869.808 7      -197.848 7        45.668               
G15  23446357.271 7 123211437.932 7      1964.867 7        44.464               
G18  26527569.153 6 139403272.385 6      3375.299 6        37.494               
G20  24065879.764 7 126467058.534 7     -1435.737 7        46.542               
G21  24694156.756 7 129768679.559 7     -1837.251 7        43.673               
G24  27691490.103 7 145519756.275 7      3962.248 7        42.650               
G29  25296724.566 6 132935167.147 6     -1424.719 6        41.867               
G30  25824360.665 7 135707944.518 7     -1218.377 7        43.487               
> 2025 07 30 04 26 19.0000000  0 11                                             
G05  23263279.089 7 122249377.453 7      -248.396 7        43.550               
G07  28180852.310 7 148091382.633 7     -2353.556 7        44.425               
G11  25686642.550 7 134984211.851 7     -3195.868 7        46.624               
G13  22398717.183 7 117706067.007 7      -195.915 7        45.859               
G15  23445982.093 7 123209470.354 7      1968.354 7        44.789               
G18  26526921.169 6 139399892.292 6      3370.309 6        38.156               
G20  24066157.449 7 126468497.318 7     -1436.683 7        46.100               
G21  24694503.826 7 129770519.112 7     -1841.961 7        43.956               
G24  27690739.462 7 145515796.991 7      3963.774 7        42.084               
G29  25296991.583 6 132936591.319 6     -1425.311 6        41.713               
G30  25824600.950 7 135709165.315 7     -1215.817 7        43.407               
> 2025 07 30 04 26 20.0000000  0 11                                             
G05  23263328.157 7 122249629.327 7      -247.278 7        43.783               
G07  28181300.001 7 148093735.250 7     -2355.770 7        44.302               
G11  25687249.936 7 134987407.996 7     -3196.192 7        46.870               
G13  22398758.603 7 117706264.779 7      -198.062 7        45.129               
G15  23445605.825 7 123207503.178 7      1972.014 7        43.770               
G18  26526273.113 6 139396512.288 6      3376.914 6        37.436               
G20  24066427.360 7 126469936.362 7     -1438.129 7        45.562               
G21  24694859.080 7 129772358.816 7     -1838.893 7        45.166               
G24  27689983.781 7 145511837.598 7      3959.942 7        42.237               
G29  25297270.036 7 132938015.991 7     -1424.678 7        42.084               
G30  25824824.741 7 135710386.609 7     -1220.695 7        43.463               
> 2025 07 30 04 26 21.0000000  0 11                                             
G05  23263374.563 7 122249881.530 7      -254.196 7        43.827               
G07  28181750.800 7 148096088.199 7     -2350.733 7        44.497               
G11  25687860.574 7 134990604.459 7     -3199.172 7        47.035               
G13  22398795.539 7 117706463.190 7      -194.498 7        45.053               
G15  23445233.024 7 123205536.448 7      1965.437 7        43.352               
G18  26525630.900 6 139393132.500 6      3381.061 6        38.043               
G20  24066703.383 7 126471375.664 7     -1443.143 7        45.702               
G21  24695209.867 7 129774198.714 7     -1837.447 7        44.839               
G24  27689229.940 7 145507878.121 7      3958.582 7        42.346               
G29  25297535.819 6 132939441.229 6     -1423.624 6        41.956               
G30  25825058.772 7 135711608.493 7     -1230.876 7        43.302               
> 2025 07 30 04 26 22.0000000  0 11                                             
G05  23263424.828 7 122250133.996 7      -255.536 7        43.784               
G07  28182197.776 7 148098441.460 7     -2352.315 7        44.477               
G11  25688471.445 7 134993801.199 7     -3196.650 7        47.232               
G13  22398831.312 7 117706662.186 7      -201.732 7        44.452               
G15  23444858.561 7 123203570.154 7      1967.242 7        44.342               
G18  26524994.155 6 139389752.852 6      3375.955 6        37.693               
G20  24066973.724 7 126472815.221 7     -1438.451 7        45.239               
G21  24695563.852 7 129776038.762 7     -1842.233 7        44.994               
G24  27688473.598 7 145503918.550 7      3962.568 7        42.787               
G29  25297811.824 7 132940866.976 7     -1418.266 7        42.207               
G30  25825289.961 7 135712830.910 7     -1225.614 7        42.884               
> 2025 07 30 04 26 23.0000000  0 11                                             
G05  23263469.733 7 122250386.751 7      -252.356 7        43.650               
G07  28182647.236 7 148100795.097 7     -2352.803 7        44.131               
G11  25689076.722 7 134996998.284 7     -3195.087 7        46.967               
G13  22398873.126 7 117706861.839 7      -197.614 7        44.591               
G15  23444485.170 7 123201604.305 7      1969.474 7        44.272               
G18  26524349.959 6 139386373.408 6      3380.705 6        37.291               
G20  24067253.052 7 126474255.106 7     -1442.491 7        45.250               
G21  24695911.762 7 129777879.036 7     -1845.365 7        44.238               
G24  27687724.761 7 145499958.966 7      3954.110 7        42.643               
G29  25298081.146 7 132942293.334 7     -1427.047 7        42.356               
G30  25825520.454 7 135714053.901 7     -1224.121 7        42.711               
> 2025 07 30 04 26 24.0000000  0 11                                             
G05  23263517.068 7 122250639.841 7      -252.846 7        43.338               
G07  28183097.857 7 148103149.102 7     -2357.322 7        44.249               
G11  25689686.931 7 135000195.715 7     -3199.123 7        47.242               
G13  22398911.312 7 117707062.156 7      -202.130 7        45.030               
G15  23444110.831 7 123199638.938 7      1964.994 7        44.139               
G18  26523702.725 6 139382994.169 6      3375.471 6        38.547               
G20  24067523.339 7 126475695.276 7     -1440.399 7        46.168               
G21  24696263.067 7 129779719.537 7     -1841.887 7        44.935               
G24  27686965.935 7 145495999.309 7      3961.663 7        42.138               
G29  25298351.665 7 132943720.253 7     -1428.468 7        42.328               
G30  25825757.308 7 135715277.470 7     -1221.889 7        42.839               
> 2025 07 30 04 26 25.0000000  0 11                                             
G05  23263571.086 7 122250893.160 7      -252.951 7        43.261               
G07  28183546.047 7 148105503.400 7     -2353.903 7        44.432               
G11  25690297.016 7 135003393.398 7     -3195.499 7        47.544               
G13  22398949.748 7 117707263.028 7      -201.781 7        44.987               
G15  23443734.242 7 123197673.984 7      1963.496 7        44.208               
G18  26523068.107 6 139379615.045 6      3374.982 6        38.439               
G20  24067798.325 7 126477135.674 7     -1438.082 7        46.065               
G21  24696609.369 7 129781560.157 7     -1842.745 7        45.214               
G24  27686217.813 7 145492039.525 7      3957.805 7        42.254               
G29  25298625.347 7 132945147.686 7     -1429.682 7        42.478               
G30  25825992.410 7 135716501.566 7     -1227.434 7        42.170               
> 2025 07 30 04 26 26.0000000  0 11                                             
G05  23263623.514 7 122251146.750 7      -257.771 7        43.550               
G07  28183995.275 7 148107858.002 7     -2357.837 7        44.326               
G11  25690905.170 7 135006591.388 7     -3196.581 7        47.106               
G13  22398982.145 7 117707464.484 7      -199.638 7        45.230               
G15  23443364.567 7 123195709.423 7      1963.255 7        43.397               
