     3.02           OBSERVATION DATA    G                   RINEX VERSION / TYPE
G = GPS  R = GLONASS  E = GALILEO  S = GEO  M = MIXED       COMMENT             
GNSS-SDR            suhjw               20250806 063900 UTC PGM / RUN BY / DATE 
GPS OBSERVATION DATA FILE GENERATED BY GNSS-SDR             COMMENT             
GNSS-SDR VERSION 0.0.20                                     COMMENT             
See https://gnss-sdr.org                                    COMMENT             
DEFAULT MARKER NAME                                         MARKER NAME         
suhjw               CTTC                                    OBSERVER / AGENCY   
GNSS-SDR            Software Receiver   0.0.20              REC # / TYPE / VERS 
Antenna number      Antenna type                            ANT # / TYPE        
        0.0000        0.0000        0.0000                  APPROX POSITION XYZ 
        0.0000        0.0000        0.0000                  ANTENNA: DELTA H/E/N
G    4 C1C L1C D1C S1C                                      SYS / # / OBS TYPES 
DBHZ                                                        SIGNAL STRENGTH UNIT
  2025    08    06    06    39   18.1000000     GPS         TIME OF FIRST OBS   
    18    18   137     7                                    LEAP SECONDS        
                                                            END OF HEADER       
> 2025 08 06 06 39 19.0000000  0  8                                             
G05  25378027.173 7 133362425.406 7     -3224.562 7        47.228               
G12  26279380.628 7 138099067.765 7      3234.754 7        43.074               
G13  25062608.022 7 131704891.978 7     -2877.387 7        42.222               
G14  26743030.365 7 140535575.253 7     -1475.265 7        45.401               
G15  22328196.548 7 117335471.215 7     -1664.444 7        46.010               
G18  23112292.492 7 121455927.865 7     -1751.104 7        43.564               
G23  22121714.644 6 116250392.635 6      1804.065 6        41.024               
G24  21386336.179 7 112385956.374 7       255.604 7        45.183               
> 2025 08 06 06 39 20.0000000  0  8                                             
G05  25378640.188 7 133365649.913 7     -3224.725 7        47.198               
G12  26278764.254 7 138095832.912 7      3234.889 7        43.323               
G13  25063154.743 7 131707769.263 7     -2877.335 7        42.211               
G14  26743311.266 7 140537050.608 7     -1475.711 7        45.682               
G15  22328513.062 7 117337135.711 7     -1664.759 7        46.163               
G18  23112624.570 7 121457679.192 7     -1751.726 7        43.549               
G23  22121371.935 6 116248588.574 6      1803.819 6        40.982               
G24  21386285.771 7 112385700.950 7       255.053 7        45.400               
> 2025 08 06 06 39 21.0000000  0  8                                             
G05  25379254.435 7 133368874.623 7     -3224.845 7        47.354               
G12  26278149.203 7 138092597.988 7      3234.939 7        43.160               
G13  25063702.768 7 131710646.547 7     -2877.253 7        42.368               
G14  26743591.578 7 140538526.446 7     -1476.076 7        45.838               
G15  22328829.611 7 117338800.462 7     -1664.959 7        46.081               
G18  23112957.362 7 121459431.109 7     -1752.128 7        43.454               
G23  22121028.331 6 116246784.883 6      1803.477 6        40.936               
G24  21386235.916 7 112385446.194 7       254.298 7        45.327               
> 2025 08 06 06 39 22.0000000  0  8                                             
G05  25379868.433 7 133372099.479 7     -3225.028 7        47.670               
G12  26277532.328 7 138089362.943 7      3235.111 7        42.894               
G13  25064254.402 7 131713523.768 7     -2877.057 7        42.448               
G14  26743871.585 7 140540002.702 7     -1476.498 7        46.149               
G15  22329146.108 7 117340465.402 7     -1665.045 7        46.139               
G18  23113291.049 7 121461183.533 7     -1752.677 7        43.329               
G23  22120683.477 6 116244981.529 6      1803.317 6        40.983               
G24  21386190.457 7 112385192.042 7       253.801 7        45.230               
> 2025 08 06 06 39 23.0000000  0  8                                             
G05  25380481.447 7 133375324.599 7     -3225.184 7        47.963               
G12  26276918.313 7 138086127.876 7      3235.124 7        42.946               
G13  25064801.784 7 131716401.025 7     -2877.315 7        42.412               
G14  26744151.218 7 140541479.489 7     -1476.912 7        46.369               
G15  22329464.033 7 117342130.635 7     -1665.271 7        46.133               
G18  23113626.950 7 121462936.581 7     -1753.300 7        43.418               
G23  22120341.178 6 116243178.583 6      1802.874 6        41.089               
G24  21386142.765 7 112384938.599 7       253.179 7        45.341               
> 2025 08 06 06 39 24.0000000  0  8                                             
G05  25381095.141 8 133378549.924 8     -3225.407 8        48.099               
G12  26276300.331 7 138082892.718 7      3235.338 7        42.870               
G13  25065348.612 7 131719278.283 7     -2877.135 7        42.592               
G14  26744430.778 7 140542956.738 7     -1477.477 7        46.450               
G15  22329782.549 7 117343796.093 7     -1665.464 7        46.060               
G18  23113960.118 7 121464690.190 7     -1753.808 7        43.487               
G23  22119996.806 6 116241375.999 6      1802.365 6        40.872               
G24  21386092.732 7 112384685.811 7       252.512 7        45.414               
> 2025 08 06 06 39 25.0000000  0  8                                             
G05  25381708.888 8 133381775.461 8     -3225.613 8        48.401               
G12  26275683.939 7 138079657.481 7      3235.245 7        42.737               
G13  25065894.278 7 131722155.519 7     -2877.187 7        42.819               
G14  26744711.376 7 140544434.475 7     -1477.980 7        46.412               
G15  22330098.008 7 117345461.814 7     -1665.729 7        46.146               
G18  23114293.644 7 121466444.369 7     -1754.631 7        43.428               
G23  22119653.953 6 116239573.802 6      1802.104 6        40.770               
G24  21386045.343 7 112384433.681 7       251.751 7        45.528               
> 2025 08 06 06 39 26.0000000  0  8                                             
G05  25382323.190 8 133385001.173 8     -3225.842 8        48.633               
G12  26275068.226 7 138076422.140 7      3235.368 7        42.687               
G13  25066441.946 7 131725032.721 7     -2877.230 7        42.975               
G14  26744994.332 7 140545912.660 7     -1478.534 7        46.316               
G15  22330413.897 7 117347127.722 7     -1666.283 7        46.238               
G18  23114629.706 7 121468199.076 7     -1755.022 7        43.289               
G23  22119308.706 6 116237771.935 6      1801.591 6        40.954               
G24  21385998.347 7 112384182.173 7       251.126 7        45.365               
> 2025 08 06 06 39 27.0000000  0  8                                             
G05  25382937.384 8 133388227.153 8     -3226.133 8        48.617               
G12  26274452.066 7 138073186.778 7      3235.371 7        42.558               
G13  25066988.756 7 131727909.954 7     -2877.232 7        43.054               
G14  26745277.627 7 140547391.371 7     -1478.932 7        46.095               
G15  22330730.750 7 117348793.934 7     -1666.361 7        46.144               
G18  23114960.909 7 121469954.412 7     -1755.517 7        43.075               
G23  22118966.532 6 116235970.488 6      1801.335 6        41.109               
G24  21385949.315 7 112383931.368 7       250.434 7        45.162               
> 2025 08 06 06 39 28.0000000  0  8                                             
G05  25383551.095 8 133391453.382 8     -3226.487 8        48.601               
G12  26273836.425 7 138069951.376 7      3235.215 7        42.401               
G13  25067537.335 7 131730787.237 7     -2877.384 7        43.072               
G14  26745563.532 7 140548870.615 7     -1479.617 7        45.821               
G15  22331043.762 7 117350460.431 7     -1666.738 7        45.847               
G18  23115293.487 7 121471710.355 7     -1756.300 7        42.981               
G23  22118624.197 6 116234169.464 6      1800.762 6        41.068               
G24  21385900.264 7 112383681.261 7       249.566 7        45.258               
> 2025 08 06 06 39 29.0000000  0  8                                             
G05  25384164.789 8 133394679.831 8     -3226.583 8        48.546               
G12  26273222.320 7 138066715.927 7      3235.362 7        42.105               
G13  25068084.198 7 131733664.515 7     -2877.207 7        42.975               
G14  26745846.077 7 140550350.339 7     -1479.939 7        45.860               
G15  22331359.794 7 117352127.176 7     -1666.912 7        45.654               
G18  23115626.726 7 121473466.865 7     -1756.840 7        42.841               
G23  22118282.434 6 116232368.812 6      1800.336 6        40.922               
G24  21385851.500 7 112383431.840 7       249.019 7        45.128               
> 2025 08 06 06 39 30.0000000  0  8                                             
G05  25384778.679 8 133397906.457 8     -3226.651 8        48.712               
G12  26272606.017 7 138063480.355 7      3235.476 7        42.168               
G13  25068629.793 7 131736541.738 7     -2877.319 7        42.993               
G14  26746126.066 7 140551830.514 7     -1480.446 7        45.753               
G15  22331679.631 7 117353794.124 7     -1667.083 7        45.515               
G18  23115959.930 7 121475223.917 7     -1757.505 7        42.705               
G23  22117937.580 6 116230568.500 6      1800.141 6        40.899               
G24  21385806.041 7 112383183.018 7       248.326 7        45.039               
> 2025 08 06 06 39 31.0000000  0  8                                             
G05  25385392.319 8 133401133.334 8     -3226.944 8        48.786               
G12  26271990.251 7 138060244.752 7      3235.719 7        42.091               
G13  25069176.925 7 131739418.992 7     -2877.068 7        43.128               
G14  26746406.610 7 140553311.194 7     -1480.890 7        45.652               
G15  22331997.217 7 117355461.357 7     -1667.238 7        45.577               
G18  23116294.688 7 121476981.575 7     -1757.942 7        42.583               
G23  22117594.530 6 116228768.598 6      1799.715 6        40.786               
G24  21385761.225 7 112382934.907 7       247.789 7        45.000               
> 2025 08 06 06 39 32.0000000  0  8                                             
G05  25386005.799 8 133404360.410 8     -3227.174 8        48.787               
G12  26271375.860 7 138057009.051 7      3235.727 7        42.217               
G13  25069725.736 7 131742296.226 7     -2877.229 7        43.199               
G14  26746685.134 7 140554792.353 7     -1481.453 7        45.725               
G15  22332316.090 7 117357128.809 7     -1667.737 7        45.582               
G18  23116629.232 7 121478739.774 7     -1758.592 7        42.280               
G23  22117254.393 6 116226969.052 6      1799.314 6        40.673               
G24  21385715.552 7 112382687.432 7       247.059 7        45.129               
> 2025 08 06 06 39 33.0000000  0  8                                             
G05  25386620.261 8 133407587.738 8     -3227.339 8        48.682               
G12  26270757.252 7 138053773.332 7      3235.809 7        42.305               
G13  25070272.957 7 131745173.477 7     -2877.251 7        43.187               
G14  26746964.463 7 140556273.994 7     -1481.891 7        45.836               
G15  22332637.357 7 117358796.535 7     -1667.745 7        45.713               
G18  23116963.061 7 121480498.588 7     -1758.825 7        42.023               
G23  22116912.827 6 116225169.916 6      1799.109 6        40.709               
G24  21385671.005 7 112382440.639 7       246.358 7        45.044               
> 2025 08 06 06 39 34.0000000  0  8                                             
G05  25387233.133 8 133410815.264 8     -3227.700 8        48.442               
G12  26270144.863 7 138050537.507 7      3235.727 7        42.354               
G13  25070821.393 7 131748050.726 7     -2877.260 7        43.154               
G14  26747246.936 7 140557756.129 7     -1482.439 7        45.889               
G15  22332956.212 7 117360464.501 7     -1668.082 7        45.740               
G18  23117300.286 7 121482257.957 7     -1759.734 7        42.223               
G23  22116567.258 6 116223371.143 6      1798.695 6        40.679               
G24  21385624.670 7 112382194.521 7       245.796 7        45.154               
> 2025 08 06 06 39 35.0000000  0  8                                             
G05  25387847.541 8 133414042.946 8     -3227.809 8        48.171               
G12  26269527.756 7 138047301.549 7      3235.864 7        42.341               
G13  25071367.328 7 131750927.912 7     -2877.085 7        43.060               
G14  26747529.892 7 140559238.684 7     -1482.778 7        45.827               
G15  22333274.620 7 117362132.660 7     -1668.173 7        45.762               
G18  23117634.990 7 121484017.836 7     -1759.962 7        42.270               
G23  22116227.139 6 116221572.683 6      1798.382 6        40.515               
G24  21385579.569 7 112381949.008 7       245.281 7        45.256               
> 2025 08 06 06 39 36.0000000  0  9                                             
G05  25388461.860 7 133417270.888 7     -3228.093 7        47.895               
G12  26268912.383 7 138044065.573 7      3235.886 7        42.238               
G13  25071915.549 7 131753805.115 7     -2877.334 7        43.220               
G14  26747812.062 7 140560721.762 7     -1483.356 7        45.675               
G15  22333591.920 7 117363801.093 7     -1668.596 7        45.935               
G18  23117971.339 7 121485778.326 7     -1760.865 7        42.372               
G22  26334091.610 6 138386590.060 6      -898.545 6        40.067               
G23  22115886.806 6 116219774.636 6      1797.942 6        40.389               
G24  21385533.110 7 112381704.183 7       244.330 7        45.222               
> 2025 08 06 06 39 37.0000000  0  9                                             
G05  25389074.428 7 133420499.059 7     -3228.253 7        47.733               
G12  26268296.170 7 138040829.529 7      3236.051 7        42.228               
G13  25072466.398 7 131756682.327 7     -2877.292 7        43.403               
G14  26748093.267 7 140562205.336 7     -1483.810 7        45.492               
G15  22333907.863 7 117365469.783 7     -1668.750 7        45.971               
G18  23118305.954 7 121487539.407 7     -1761.462 7        42.367               
G22  26334263.689 6 138387489.003 6      -899.115 6        39.962               
G23  22115545.757 6 116217976.985 6      1797.547 6        40.471               
G24  21385484.702 7 112381460.041 7       243.811 7        45.253               
> 2025 08 06 06 39 38.0000000  0  9                                             
G05  25389689.355 7 133423727.467 7     -3228.506 7        47.558               
G12  26267680.707 7 138037593.442 7      3235.952 7        42.014               
G13  25073012.868 7 131759559.576 7     -2877.096 7        43.329               
G14  26748375.633 7 140563689.428 7     -1484.294 7        45.253               
G15  22334224.359 7 117367138.746 7     -1669.109 7        46.024               
G18  23118642.303 7 121489301.082 7     -1761.836 7        42.339               
G22  26334435.624 6 138388388.494 6      -899.928 6        39.998               
G23  22115204.120 6 116216179.741 6      1797.009 6        40.535               
G24  21385435.991 7 112381216.590 7       243.146 7        45.159               
> 2025 08 06 06 39 39.0000000  0  9                                             
G05  25390303.871 7 133426956.100 7     -3228.825 7        47.400               
G12  26267064.208 6 138034357.300 6      3236.201 6        41.543               
G13  25073560.875 7 131762436.819 7     -2877.287 7        43.346               
G14  26748662.038 7 140565174.009 7     -1484.846 7        45.273               
G15  22334540.926 7 117368807.980 7     -1669.447 7        46.003               
G18  23118978.080 7 121491063.341 7     -1762.526 7        42.308               
G22  26334609.490 6 138389288.560 6      -900.170 6        40.050               
G23  22114863.304 6 116214382.884 6      1796.648 6        40.765               
G24  21385390.408 7 112380973.820 7       242.361 7        45.028               
> 2025 08 06 06 39 40.0000000  0  9                                             
G05  25390918.672 7 133430184.937 7     -3228.964 7        47.401               
G12  26266448.549 6 138031121.095 6      3236.201 6        41.430               
G13  25074108.061 7 131765314.061 7     -2877.361 7        43.268               
G14  26748947.674 7 140566659.081 7     -1485.390 7        45.238               
G15  22334859.013 7 117370477.447 7     -1669.719 7        45.990               
G18  23119314.732 7 121492826.162 7     -1763.452 7        42.300               
G22  26334780.622 6 138390189.132 6      -900.776 6        40.014               
G23  22114520.129 6 116212586.398 6      1795.893 6        40.919               
G24  21385345.378 7 112380731.688 7       241.745 7        44.966               
> 2025 08 06 06 39 41.0000000  0  9                                             
G05  25391533.474 7 133433414.008 7     -3229.206 7        47.221               
G12  26265832.300 6 138027884.841 6      3236.316 6        41.440               
G13  25074656.264 7 131768191.322 7     -2877.409 7        43.216               
G14  26749234.115 7 140568144.651 7     -1485.895 7        45.160               
G15  22335175.670 7 117372147.176 7     -1670.049 7        46.014               
G18  23119649.919 7 121494589.577 7     -1763.757 7        42.184               
G22  26334953.361 6 138391090.244 6      -901.418 6        39.960               
G23  22114175.954 6 116210790.322 6      1795.767 6        40.840               
G24  21385297.828 7 112380490.253 7       241.043 7        44.959               
> 2025 08 06 06 39 42.0000000  0  9                                             
G05  25392148.526 7 133436643.301 7     -3229.479 7        47.027               
G12  26265218.088 6 138024648.513 6      3236.224 6        41.492               
G13  25075202.467 7 131771068.588 7     -2877.552 7        43.294               
G14  26749518.518 7 140569630.720 7     -1486.493 7        45.031               
G15  22335493.077 7 117373817.178 7     -1670.297 7        45.815               
G18  23119982.819 7 121496353.576 7     -1764.538 7        42.157               
G22  26335127.352 6 138391991.900 6      -902.000 6        39.951               
G23  22113834.370 6 116208994.632 6      1795.364 6        40.910               
G24  21385251.208 7 112380249.487 7       240.336 7        45.037               
> 2025 08 06 06 39 43.0000000  0  9                                             
G05  25392764.006 7 133439872.790 7     -3229.670 7        46.918               
G12  26264600.409 6 138021412.104 6      3236.398 6        41.559               
G13  25075749.187 7 131773945.828 7     -2877.354 7        43.338               
G14  26749801.957 7 140571117.243 7     -1486.863 7        44.969               
G15  22335811.557 7 117375487.410 7     -1670.341 7        45.820               
G18  23120318.524 7 121498118.127 7     -1764.890 7        42.198               
G22  26335296.625 6 138392894.065 6      -902.599 6        40.041               
G23  22113491.749 6 116207199.297 6      1795.002 6        40.845               
G24  21385204.784 7 112380009.372 7       239.659 7        45.078               
> 2025 08 06 06 39 44.0000000  0  9                                             
G05  25393378.736 7 133443102.503 7     -3229.877 7        46.903               
G12  26263984.106 6 138018175.637 6      3236.391 6        41.696               
G13  25076295.479 7 131776823.097 7     -2877.391 7        43.335               
G14  26750084.752 7 140572604.274 7     -1487.284 7        44.845               
G15  22336129.161 7 117377157.889 7     -1670.667 7        46.032               
G18  23120652.514 7 121499883.284 7     -1765.501 7        42.020               
G22  26335466.274 6 138393796.766 6      -902.994 6        40.112               
G23  22113147.127 6 116205404.357 6      1794.678 6        40.819               
G24  21385157.252 7 112379769.922 7       239.051 7        45.168               
> 2025 08 06 06 39 45.0000000  0  9                                             
G05  25393994.128 7 133446332.452 7     -3230.187 7        46.867               
G12  26263368.072 6 138014939.146 6      3236.338 6        41.420               
G13  25076844.541 7 131779700.374 7     -2877.354 7        43.413               
G14  26750366.921 7 140574091.823 7     -1487.894 7        44.691               
G15  22336447.230 7 117378828.649 7     -1670.839 7        46.100               
G18  23120987.773 6 121501649.033 6     -1766.114 6        41.905               
G22  26335637.459 6 138394700.037 6      -903.482 6        40.250               
G23  22112804.185 6 116203609.826 6      1794.326 6        40.633               
G24  21385109.971 7 112379531.175 7       238.514 7        44.898               
> 2025 08 06 06 39 46.0000000  0  9                                             
G05  25394609.680 7 133449562.608 7     -3230.265 7        47.029               
G12  26262752.162 6 138011702.567 6      3236.715 6        41.430               
G13  25077389.850 7 131782577.643 7     -2877.207 7        43.336               
G14  26750647.948 7 140575579.847 7     -1488.364 7        44.638               
G15  22336764.012 7 117380499.646 7     -1671.235 7        46.010               
G18  23121325.873 7 121503415.333 7     -1766.358 7        42.041               
G22  26335809.252 6 138395603.805 6      -904.027 6        40.277               
G23  22112463.458 6 116201815.667 6      1794.101 6        40.497               
G24  21385065.441 7 112379293.076 7       237.768 7        44.905               
> 2025 08 06 06 39 47.0000000  0  9                                             
G05  25395223.445 7 133452792.972 7     -3230.573 7        47.085               
G12  26262135.217 6 138008465.914 6      3236.555 6        41.412               
G13  25077936.874 7 131785454.896 7     -2877.430 7        43.449               
G14  26750928.867 7 140577068.344 7     -1488.831 7        44.645               
G15  22337081.491 7 117382170.878 7     -1671.478 7        46.083               
G18  23121663.972 6 121505182.201 6     -1767.190 6        41.848               
G22  26335981.795 6 138396508.103 6      -904.768 6        40.377               
G23  22112120.659 6 116200021.875 6      1793.760 6        40.639               
G24  21385022.109 7 112379055.623 7       236.840 7        44.832               
> 2025 08 06 06 39 48.0000000  0  9                                             
G05  25395838.443 7 133456023.660 7     -3230.740 7        47.115               
G12  26261520.647 6 138005229.321 6      3236.814 6        41.564               
G13  25078483.541 7 131788332.284 7     -2877.295 7        43.416               
G14  26751207.159 7 140578557.429 7     -1489.311 7        44.560               
G15  22337398.594 7 117383842.489 7     -1671.650 7        46.196               
G18  23122001.751 6 121506949.751 6     -1767.755 6        41.685               
G22  26336151.479 6 138397413.037 6      -905.137 6        40.508               
G23  22111781.451 6 116198228.585 6      1793.381 6        40.592               
G24  21384978.151 7 112378818.979 7       236.445 7        44.850               
> 2025 08 06 06 39 49.0000000  0  9                                             
G05  25396453.406 7 133459254.482 7     -3230.866 7        47.277               
G12  26260901.914 6 138001992.563 6      3236.826 6        41.688               
G13  25079031.798 7 131791209.556 7     -2877.145 7        43.415               
G14  26751486.845 7 140580046.924 7     -1489.643 7        44.545               
G15  22337717.360 7 117385514.248 7     -1671.848 7        46.103               
G18  23122337.849 6 121508717.794 6     -1768.169 6        41.776               
G22  26336324.309 6 138398318.419 6      -905.464 6        40.654               
G23  22111439.420 6 116196435.583 6      1792.678 6        40.399               
G24  21384935.409 7 112378582.898 7       235.755 7        45.001               
> 2025 08 06 06 39 50.0000000  0  9                                             
G05  25397068.386 7 133462485.509 7     -3231.150 7        47.399               
G12  26260288.399 6 137998755.720 6      3236.793 6        41.790               
G13  25079580.127 7 131794086.824 7     -2877.340 7        43.360               
G14  26751768.818 7 140581536.868 7     -1490.170 7        44.397               
G15  22338036.125 7 117387186.246 7     -1672.270 7        46.162               
G18  23122674.287 6 121510486.386 6     -1769.013 6        41.834               
G22  26336499.264 6 138399224.309 6      -906.364 6        40.743               
G23  22111098.175 6 116194642.946 6      1792.411 6        40.456               
G24  21384888.699 7 112378347.466 7       235.013 7        45.061               
> 2025 08 06 06 39 51.0000000  0  9                                             
G05  25397682.223 7 133465716.733 7     -3231.272 7        47.572               
G12  26259673.062 6 137995518.806 6      3237.140 6        41.736               
G13  25080127.509 7 131796964.076 7     -2877.264 7        43.410               
G14  26752053.650 7 140583027.294 7     -1490.754 7        44.330               
G15  22338357.464 7 117388858.473 7     -1672.307 7        46.014               
G18  23123008.205 6 121512255.549 6     -1769.237 6        41.744               
G22  26336673.416 6 138400130.724 6      -906.613 6        40.821               
G23  22110759.147 6 116192850.671 6      1791.997 6        40.422               
G24  21384843.598 7 112378112.684 7       234.453 7        45.067               
> 2025 08 06 06 39 52.0000000  0  9                                             
G05  25398297.346 7 133468948.121 7     -3231.548 7        47.534               
G12  26259057.760 6 137992281.765 6      3236.861 6        41.677               
G13  25080676.499 7 131799841.275 7     -2877.307 7        43.513               
G14  26752339.054 7 140584518.159 7     -1491.207 7        44.169               
G15  22338677.480 7 117390530.898 7     -1672.674 7        45.998               
G18  23123344.518 6 121514025.234 6     -1770.092 6        41.813               
G22  26336849.068 6 138401037.620 6      -907.375 6        40.779               
G23  22110418.795 6 116191058.739 6      1791.490 6        40.512               
G24  21384797.317 7 112377878.514 7       233.818 7        44.953               
> 2025 08 06 06 39 53.0000000  0  9                                             
G05  25398913.362 7 133472179.775 7     -3231.797 7        47.636               
G12  26258441.832 6 137989044.718 6      3236.893 6        41.694               
G13  25081223.881 7 131802718.517 7     -2877.234 7        43.384               
G14  26752627.603 7 140586009.565 7     -1491.840 7        44.064               
G15  22338996.353 7 117392203.621 7     -1672.837 7        45.833               
G18  23123679.902 6 121515795.535 6     -1770.659 6        41.814               
G22  26337020.504 6 138401945.093 6      -907.753 6        40.950               
G23  22110079.552 6 116189267.240 6      1791.445 6        40.481               
G24  21384753.145 7 112377645.062 7       233.055 7        44.958               
> 2025 08 06 06 39 54.0000000  0  9                                             
G05  25399527.771 7 133475411.673 7     -3231.907 7        47.768               
G12  26257827.156 6 137985807.650 6      3237.066 6        41.665               
G13  25081773.496 7 131805595.795 7     -2876.971 7        43.452               
G14  26752913.561 7 140587501.485 7     -1492.088 7        43.983               
G15  22339313.528 7 117393876.618 7     -1673.029 7        45.759               
G18  23124017.341 6 121517566.440 6     -1771.210 6        41.745               
G22  26337191.188 6 138402853.119 6      -908.131 6        41.116               
G23  22109737.628 6 116187476.132 6      1790.915 6        40.459               
G24  21384710.545 7 112377412.309 7       232.521 7        44.923               
> 2025 08 06 06 39 55.0000000  0  9                                             
G05  25400141.822 7 133478643.769 7     -3232.308 7        47.857               
G12  26257211.103 6 137982570.479 6      3237.326 6        41.828               
G13  25082322.701 7 131808473.041 7     -2877.188 7        43.409               
G14  26753198.804 7 140588993.880 7     -1492.676 7        44.000               
G15  22339630.846 7 117395549.856 7     -1673.417 7        45.686               
G18  23124358.996 6 121519337.909 6     -1771.937 6        41.729               
G22  26337362.874 6 138403761.647 6      -908.810 6        41.139               
G23  22109396.616 6 116185685.417 6      1790.582 6        40.427               
G24  21384668.106 7 112377180.201 7       231.757 7        45.018               
> 2025 08 06 06 39 56.0000000  0  9                                             
G05  25400755.945 8 133481876.056 8     -3232.533 8        48.074               
G12  26256595.087 7 137979333.244 7      3237.147 7        42.031               
G13  25082870.190 7 131811350.280 7     -2877.340 7        43.531               
G14  26753483.922 7 140590486.728 7     -1493.298 7        43.934               
G15  22339947.360 7 117397223.321 7     -1673.656 7        45.553               
G18  23124695.899 6 121521109.925 6     -1772.406 6        41.693               
G22  26337535.900 6 138404670.696 6      -909.434 6        41.190               
G23  22109054.066 6 116183895.036 6      1790.018 6        40.465               
G24  21384626.024 7 112376948.753 7       231.084 7        44.983               
> 2025 08 06 06 39 57.0000000  0  9                                             
G05  25401370.925 8 133485108.610 8     -3232.696 8        48.053               
G12  26255978.748 7 137976095.986 7      3237.380 7        42.035               
G13  25083417.446 7 131814227.562 7     -2877.294 7        43.500               
G14  26753770.381 7 140591980.121 7     -1493.800 7        43.780               
G15  22340266.197 7 117398897.082 7     -1673.957 7        45.470               
G18  23125031.551 6 121522882.567 6     -1772.989 6        41.788               
G22  26337708.264 6 138405580.324 6      -909.995 6        41.121               
G23  22108714.233 6 116182105.117 6      1789.831 6        40.504               
G24  21384582.084 7 112376718.018 7       230.267 7        44.995               
> 2025 08 06 06 39 58.0000000  0  9                                             
G05  25401985.959 8 133488341.323 8     -3232.951 8        48.114               
G12  26255361.177 7 137972858.603 7      3237.324 7        42.273               
G13  25083965.739 7 131817104.783 7     -2877.511 7        43.621               
G14  26754052.390 7 140593473.938 7     -1494.178 7        43.744               
G15  22340586.875 7 117400571.038 7     -1674.137 7        45.466               
G18  23125370.812 6 121524655.721 6     -1773.714 6        41.877               
G22  26337885.364 6 138406490.416 6      -910.508 6        41.121               
G23  22108370.362 6 116180315.501 6      1789.105 6        40.626               
G24  21384535.929 7 112376487.887 7       229.651 7        45.078               
> 2025 08 06 06 39 59.0000000  0  9                                             
G05  25402601.993 8 133491574.289 8     -3233.071 8        48.138               
G12  26254745.982 7 137969621.200 7      3237.438 7        42.245               
G13  25084512.728 7 131819982.059 7     -2877.199 7        43.647               
G14  26754332.040 7 140594968.280 7     -1494.607 7        43.710               
G15  22340906.534 7 117402245.293 7     -1674.326 7        45.446               
G18  23125707.804 6 121526429.500 6     -1773.990 6        41.840               
G22  26338060.266 6 138407401.095 6      -910.921 6        41.163               
G23  22108029.010 6 116178526.321 6      1789.017 6        40.559               
G24  21384492.328 7 112376258.456 7       229.092 7        45.075               
> 2025 08 06 06 40 00.0000000  0  9                                             
G05  25403216.402 8 133494807.472 8     -3233.453 8        48.062               
G12  26254133.289 7 137966383.732 7      3237.472 7        42.251               
G13  25085058.519 7 131822859.324 7     -2877.498 7        43.606               
G14  26754614.603 7 140596463.114 7     -1495.171 7        43.686               
G15  22341226.711 7 117403919.780 7     -1674.713 7        45.409               
G18  23126048.959 6 121528203.849 6     -1774.901 6        41.863               
G22  26338231.827 6 138408312.296 6      -911.583 6        41.407               
G23  22107688.820 6 116176737.524 6      1788.525 6        40.548               
G24  21384449.907 7 112376029.693 7       228.318 7        45.138               
> 2025 08 06 06 40 01.0000000  0  9                                             
G05  25403831.436 8 133498040.876 8     -3233.403 8        48.035               
G12  26253515.718 7 137963146.202 7      3237.679 7        42.430               
G13  25085605.615 7 131825736.586 7     -2877.161 7        43.685               
G14  26754896.183 7 140597958.418 7     -1495.434 7        43.727               
G15  22341543.260 7 117405594.534 7     -1674.797 7        45.263               
G18  23126386.612 6 121529978.766 6     -1775.295 6        41.886               
G22  26338405.460 6 138409224.032 6      -911.857 6        41.473               
G23  22107352.060 6 116174949.118 6      1788.213 6        40.574               
G24  21384409.505 7 112375801.609 7       227.910 7        45.301               
> 2025 08 06 06 40 02.0000000  0  9                                             
G05  25404447.184 8 133501274.513 8     -3233.818 8        48.054               
G12  26252898.433 7 137959908.632 7      3237.515 7        42.503               
G13  25086152.443 7 131828613.875 7     -2877.277 7        43.773               
G14  26755180.979 7 140599454.237 7     -1496.067 7        43.697               
G15  22341858.970 7 117407269.550 7     -1675.035 7        45.235               
G18  23126722.836 6 121531754.288 6     -1775.972 6        41.867               
G22  26338579.433 6 138410136.311 6      -912.412 6        41.407               
G23  22107012.423 6 116173161.103 6      1787.741 6        40.465               
G24  21384366.906 7 112375574.200 7       227.098 7        45.261               
> 2025 08 06 06 40 03.0000000  0  9                                             
G05  25405062.165 8 133504508.417 8     -3234.139 8        48.076               
G12  26252282.309 7 137956671.052 7      3237.490 7        42.637               
G13  25086698.181 7 131831491.218 7     -2877.625 7        43.864               
G14  26755466.419 7 140600950.593 7     -1496.783 7        43.736               
G15  22342175.663 7 117408944.870 7     -1675.595 7        45.315               
G18  23127059.077 6 121533530.432 6     -1776.663 6        41.794               
G22  26338748.831 6 138411049.181 6      -913.222 6        41.489               
G23  22106673.662 6 116171373.535 6      1787.252 6        40.618               
G24  21384324.467 7 112375347.516 7       226.229 7        45.189               
> 2025 08 06 06 40 04.0000000  0  9                                             
G05  25405678.539 7 133507742.533 7     -3234.429 7        47.992               
G12  26251666.935 7 137953433.412 7      3237.637 7        42.675               
G13  25087246.849 7 131834368.556 7     -2877.537 7        43.790               
G14  26755754.486 7 140602447.442 7     -1497.233 7        43.715               
G15  22342492.677 7 117410620.449 7     -1675.849 7        45.349               
G18  23127398.249 6 121535307.143 6     -1777.340 6        41.953               
G22  26338921.035 6 138411962.579 6      -913.810 6        41.490               
G23  22106333.865 6 116169586.350 6      1786.965 6        40.733               
G24  21384280.294 7 112375121.495 7       225.583 7        45.151               
> 2025 08 06 06 40 05.0000000  0  9                                             
G05  25406295.092 7 133510976.840 7     -3234.432 7        47.866               
G12  26251050.919 7 137950195.674 7      3237.581 7        42.735               
G13  25087797.412 7 131837245.850 7     -2877.433 7        43.815               
G14  26756041.605 7 140603944.752 7     -1497.632 7        43.792               
G15  22342809.209 7 117412296.241 7     -1676.004 7        45.310               
G18  23127736.510 6 121537084.409 6     -1777.576 6        41.964               
G22  26339096.920 6 138412876.485 6      -914.315 6        41.617               
G23  22105996.730 6 116167799.514 6      1786.609 6        40.792               
G24  21384235.872 7 112374896.117 7       225.041 7        45.231               
> 2025 08 06 06 40 06.0000000  0  9                                             
G05  25406910.233 7 133514211.364 7     -3234.647 7        47.799               
G12  26250434.330 7 137946957.884 7      3237.781 7        42.646               
G13  25088344.043 7 131840123.151 7     -2877.370 7        43.761               
G14  26756330.636 7 140605442.541 7     -1498.095 7        44.045               
G15  22343130.870 7 117413972.286 7     -1676.180 7        45.357               
G18  23128073.895 6 121538862.244 6     -1778.255 6        41.996               
G22  26339271.911 6 138413790.921 6      -914.816 6        41.636               
G23  22105654.002 6 116166013.069 6      1786.191 6        40.979               
G24  21384191.682 7 112374671.397 7       224.364 7        45.204               
> 2025 08 06 06 40 07.0000000  0  9                                             
G05  25407524.177 7 133517446.135 7     -3234.879 7        47.732               
G12  26249817.938 7 137943720.058 7      3238.003 7        42.758               
G13  25088890.549 7 131843000.478 7     -2877.188 7        43.825               
G14  26756618.435 7 140606940.845 7     -1498.504 7        44.065               
G15  22343453.102 7 117415648.618 7     -1676.220 7        45.219               
G18  23128410.583 6 121540640.680 6     -1778.834 6        41.726               
G22  26339447.439 6 138414705.912 6      -915.177 6        41.543               
G23  22105315.599 6 116164227.020 6      1785.947 6        40.955               
G24  21384145.312 7 112374447.382 7       223.790 7        45.198               
> 2025 08 06 06 40 08.0000000  0  9                                             
G05  25408140.265 7 133520681.047 7     -3235.078 7        47.751               
G12  26249202.511 7 137940482.089 7      3238.133 7        42.842               
G13  25089437.627 7 131845877.735 7     -2877.125 7        43.728               
G14  26756905.179 7 140608439.566 7     -1498.927 7        44.062               
G15  22343772.385 7 117417325.110 7     -1676.692 7        44.996               
G18  23128746.378 6 121542419.613 6     -1779.135 6        41.671               
G22  26339623.627 6 138415621.353 6      -915.809 6        41.629               
G23  22104973.121 6 116162441.305 6      1785.489 6        40.957               
G24  21384102.140 7 112374223.951 7       222.990 7        45.348               
> 2025 08 06 06 40 09.0000000  0  9                                             
G05  25408756.353 7 133523916.295 7     -3235.295 7        47.768               
G12  26248585.941 7 137937244.175 7      3237.935 7        42.909               
G13  25089985.599 7 131848755.097 7     -2877.344 7        43.705               
G14  26757189.993 7 140609938.872 7     -1499.572 7        43.970               
G15  22344092.384 7 117419001.974 7     -1676.791 7        44.917               
G18  23129086.264 6 121544199.244 6     -1779.818 6        41.787               
G22  26339798.565 6 138416537.454 6      -916.307 6        41.702               
G23  22104629.964 6 116160656.078 6      1785.209 6        41.119               
G24  21384060.416 7 112374001.288 7       222.405 7        45.333               
> 2025 08 06 06 40 10.0000000  0  9                                             
G05  25409371.977 7 133527151.755 7     -3235.460 7        47.664               
G12  26247969.066 7 137934006.198 7      3237.994 7        42.792               
G13  25090532.784 7 131851632.462 7     -2877.398 7        43.703               
G14  26757472.664 7 140611438.668 7     -1500.066 7        43.809               
G15  22344410.595 7 117420679.074 7     -1677.142 7        44.854               
G18  23129424.900 6 121545979.431 6     -1780.551 6        41.937               
G22  26339973.092 6 138417454.074 6      -916.767 6        41.523               
G23  22104288.273 6 116158871.220 6      1784.689 6        41.086               
G24  21384018.781 7 112373779.307 7       221.751 7        45.203               
> 2025 08 06 06 40 11.0000000  0  9                                             
G05  25409988.226 7 133530387.465 7     -3235.813 7        47.429               
G12  26247352.031 7 137930768.212 7      3238.035 7        42.869               
G13  25091078.736 7 131854509.856 7     -2877.451 7        43.914               
G14  26757756.888 7 140612938.994 7     -1500.554 7        43.799               
G15  22344731.184 7 117422356.468 7     -1677.542 7        44.600               
G18  23129763.929 6 121547760.238 6     -1781.164 6        41.783               
G22  26340148.601 6 138418371.268 6      -917.329 6        41.632               
G23  22103951.513 6 116157086.796 6      1784.230 6        40.919               
G24  21383977.772 7 112373558.032 7       220.952 7        45.350               
> 2025 08 06 06 40 12.0000000  0  9                                             
G05  25410605.439 7 133533623.450 7     -3236.218 7        47.530               
G12  26246736.961 7 137927530.210 7      3237.980 7        42.901               
G13  25091625.546 7 131857387.310 7     -2877.518 7        43.850               
G14  26758039.201 7 140614439.867 7     -1501.177 7        43.801               
G15  22345050.396 7 117424034.171 7     -1677.842 7        44.640               
G18  23130103.977 6 121549541.678 6     -1781.844 6        41.993               
G22  26340320.358 6 138419289.047 6      -918.266 6        41.775               
G23  22103612.056 6 116155302.824 6      1783.836 6        40.688               
G24  21383936.459 7 112373337.476 7       220.204 7        45.325               
> 2025 08 06 06 40 13.0000000  0  9                                             
G05  25411220.009 7 133536859.619 7     -3236.358 7        47.529               
G12  26246120.659 7 137924292.118 7      3238.133 7        43.132               
G13  25092170.373 7 131860264.731 7     -2877.476 7        43.817               
G14  26758320.674 7 140615941.182 7     -1501.653 7        43.695               
G15  22345371.145 7 117425712.088 7     -1678.096 7        44.670               
G18  23130445.614 7 121551323.658 7     -1782.284 7        42.170               
G22  26340494.831 6 138420207.317 6      -918.521 6        41.815               
G23  22103274.903 6 116153519.185 6      1783.396 6        40.558               
G24  21383895.807 7 112373117.552 7       219.609 7        45.374               
> 2025 08 06 06 40 14.0000000  0  9                                             
G05  25411833.953 7 133540096.082 7     -3236.642 7        47.447               
G12  26245505.035 7 137921054.045 7      3237.881 7        43.134               
G13  25092716.111 7 131863142.243 7     -2877.512 7        43.825               
G14  26758603.469 7 140617443.068 7     -1502.233 7        43.502               
G15  22345691.375 7 117427390.346 7     -1678.467 7        44.741               
G18  23130785.751 7 121553106.288 7     -1782.985 7        42.037               
G22  26340668.071 6 138421126.210 6      -919.062 6        41.811               
G23  22102935.802 6 116151736.033 6      1782.804 6        40.496               
G24  21383852.331 7 112372898.387 7       218.800 7        45.399               
> 2025 08 06 06 40 15.0000000  0  9                                             
G05  25412450.720 7 133543332.738 7     -3236.817 7        47.575               
G12  26244887.821 7 137917815.888 7      3238.186 7        43.108               
G13  25093266.512 7 131866019.722 7     -2877.399 7        43.658               
G14  26758890.160 7 140618945.427 7     -1502.539 7        43.493               
G15  22346012.267 7 117429068.820 7     -1678.690 7        44.841               
G18  23131126.692 6 121554889.473 6     -1783.068 6        41.794               
G22  26340839.578 6 138422045.591 6      -919.610 6        41.808               
G23  22102594.450 6 116149953.232 6      1782.617 6        40.333               
G24  21383810.804 7 112372679.848 7       218.159 7        45.319               
> 2025 08 06 06 40 16.0000000  0  9                                             
G05  25413068.523 7 133546569.613 7     -3237.117 7        47.676               
G12  26244272.483 7 137914577.684 7      3238.224 7        43.124               
G13  25093812.840 7 131868897.223 7     -2877.667 7        43.661               
G14  26759179.280 7 140620448.270 7     -1503.214 7        43.391               
G15  22346332.623 7 117430747.554 7     -1679.048 7        45.002               
G18  23131465.560 6 121556673.238 6     -1784.042 6        41.661               
G22  26341016.714 6 138422965.525 6      -920.345 6        41.760               
G23  22102255.618 6 116148170.833 6      1782.095 6        40.143               
G24  21383767.007 7 112372461.999 7       217.269 7        45.351               
> 2025 08 06 06 40 17.0000000  0  9                                             
G05  25413684.361 7 133549806.747 7     -3237.366 7        47.678               
G12  26243656.485 7 137911339.456 7      3238.142 7        43.023               
G13  25094360.543 7 131871774.750 7     -2877.507 7        43.609               
G14  26759468.901 7 140621951.639 7     -1503.614 7        43.424               
G15  22346647.547 7 117432426.580 7     -1679.291 7        44.973               
G18  23131802.999 6 121558457.606 6     -1784.845 6        41.582               
G22  26341194.511 6 138423886.029 6      -921.002 6        41.753               
G23  22101918.019 6 116146388.842 6      1781.662 6        40.122               
G24  21383730.214 7 112372244.858 7       216.783 7        45.467               
> 2025 08 06 06 40 18.0000000  0  9                                             
G05  25414300.593 7 133553044.041 7     -3237.390 7        47.657               
G12  26243040.164 7 137908101.101 7      3238.312 7        42.993               
G13  25094909.998 7 131874652.226 7     -2877.477 7        43.544               
G14  26759759.720 7 140623455.437 7     -1504.145 7        43.629               
G15  22346965.044 7 117434105.799 7     -1679.394 7        45.059               
G18  23132141.706 6 121560242.503 6     -1785.091 6        41.861               
G22  26341373.612 6 138424807.006 6      -921.267 6        41.784               
G23  22101577.596 6 116144607.191 6      1781.453 6        40.049               
G24  21383689.473 7 112372028.323 7       216.211 7        45.497               
> 2025 08 06 06 40 19.0000000  0  9                                             
G05  25414916.341 7 133556281.565 7     -3237.661 7        47.788               
G12  26242423.576 7 137904862.709 7      3238.353 7        42.811               
G13  25095458.648 7 131877529.695 7     -2877.431 7        43.588               
G14  26760047.625 7 140624959.735 7     -1504.486 7        43.677               
G15  22347281.039 7 117435785.282 7     -1679.540 7        44.955               
G18  23132482.129 6 121562027.972 6     -1785.861 6        41.855               
G22  26341547.638 6 138425728.521 6      -921.853 6        41.820               
G23  22101236.440 6 116142825.940 6      1781.091 6        40.001               
G24  21383647.052 7 112371812.463 7       215.505 7        45.566               
> 2025 08 06 06 40 20.0000000  0  9                                             
G05  25415531.447 7 133559519.277 7     -3238.002 7        47.636               
G12  26241805.254 7 137901624.236 7      3238.347 7        42.759               
G13  25096008.782 7 131880407.152 7     -2877.684 7        43.693               
G14  26760333.691 7 140626464.498 7     -1505.214 7        43.695               
G15  22347598.501 7 117437464.995 7     -1680.015 7        44.893               
G18  23132820.390 6 121563814.012 6     -1786.479 6        41.975               
G22  26341727.097 7 138426650.557 7      -922.372 7        42.023               
G23  22100897.983 6 116141045.059 6      1780.539 6        39.831               
G24  21383604.470 7 112371597.255 7       214.661 7        45.708               
> 2025 08 06 06 40 21.0000000  0  9                                             
G05  25416147.642 7 133562757.222 7     -3238.126 7        47.626               
G12  26241187.665 7 137898385.723 7      3238.363 7        42.683               
G13  25096557.057 7 131883284.619 7     -2877.533 7        43.751               
G14  26760620.238 7 140627969.763 7     -1505.622 7        43.506               
G15  22347918.142 7 117439144.985 7     -1680.158 7        44.710               
G18  23133158.078 6 121565600.629 6     -1786.672 6        41.946               
G22  26341903.339 7 138427573.145 7      -922.979 7        42.026               
G23  22100558.025 6 116139264.575 6      1780.259 6        39.767               
G24  21383563.586 7 112371382.725 7       214.211 7        45.742               
> 2025 08 06 06 40 22.0000000  0  9                                             
G05  25416764.338 7 133565995.374 7     -3238.307 7        47.644               
G12  26240571.523 7 137895147.154 7      3238.782 7        42.879               
G13  25097107.298 7 131886162.089 7     -2877.493 7        43.718               
G14  26760906.518 7 140629475.512 7     -1505.987 7        43.410               
G15  22348237.890 7 117440825.208 7     -1680.300 7        44.742               
G18  23133498.430 6 121567387.821 6     -1787.355 6        41.886               
G22  26342076.419 6 138428496.265 6      -923.300 6        41.900               
G23  22100222.159 6 116137484.468 6      1779.734 6        39.679               
G24  21383523.720 7 112371168.852 7       213.497 7        45.641               
> 2025 08 06 06 40 23.0000000  0  9                                             
G05  25417380.640 7 133569233.795 7     -3238.370 7        47.640               
G12  26239954.273 7 137891908.564 7      3238.554 7        42.895               
G13  25097656.484 7 131889039.613 7     -2877.400 7        43.794               
G14  26761190.528 7 140630981.793 7     -1506.393 7        43.371               
G15  22348559.425 7 117442505.741 7     -1680.625 7        44.597               
G18  23133836.226 6 121569175.640 6     -1788.105 6        41.791               
G22  26342249.051 7 138429419.954 7      -923.854 7        42.084               
G23  22099887.722 6 116135704.803 6      1779.409 6        39.804               
G24  21383483.979 7 112370955.716 7       212.914 7        45.716               
> 2025 08 06 06 40 24.0000000  0  9                                             
G05  25417997.836 7 133572472.446 7     -3238.584 7        47.804               
G12  26239339.132 7 137888669.951 7      3238.730 7        42.800               
G13  25098206.493 7 131891917.160 7     -2877.371 7        43.883               
G14  26761470.983 7 140632488.584 7     -1507.063 7        43.294               
G15  22348879.709 7 117444186.547 7     -1680.757 7        44.401               
G18  23134174.772 6 121570964.058 6     -1788.504 6        41.717               
G22  26342422.470 7 138430344.198 7      -924.487 7        42.163               
G23  22099552.124 6 116133925.542 6      1779.141 6        39.770               
G24  21383444.846 7 112370743.251 7       212.172 7        45.845               
> 2025 08 06 06 40 25.0000000  0  9                                             
G05  25418615.211 7 133575711.255 7     -3238.936 7        47.907               
G12  26238722.883 7 137885431.205 7      3238.596 7        42.657               
G13  25098753.446 7 131894794.641 7     -2877.519 7        44.116               
G14  26761748.828 7 140633995.800 7     -1507.462 7        42.986               
G15  22349203.085 7 117445867.538 7     -1681.141 7        44.429               
G18  23134514.159 6 121572752.988 6     -1789.248 6        41.501               
G22  26342595.263 7 138431268.916 7      -925.062 7        42.253               
G23  22099213.685 6 116132146.624 6      1778.728 6        39.950               
G24  21383405.266 7 112370531.403 7       211.401 7        46.014               
> 2025 08 06 06 40 26.0000000  0  9                                             
G05  25419231.049 8 133578950.341 8     -3239.215 8        48.044               
G12  26238104.776 7 137882192.473 7      3238.822 7        42.650               
G13  25099298.219 7 131897672.188 7     -2877.438 7        44.116               
G14  26762035.036 7 140635503.560 7     -1508.057 7        42.772               
G15  22349525.585 7 117447548.842 7     -1681.478 7        44.448               
G18  23134858.798 6 121574542.543 6     -1789.868 6        41.433               
G22  26342770.952 7 138432194.218 7      -925.477 7        42.246               
G23  22098875.299 6 116130368.142 6      1778.150 6        39.914               
G24  21383366.169 7 112370320.287 7       210.828 7        45.962               
> 2025 08 06 06 40 27.0000000  0  9                                             
G05  25419846.262 8 133582189.625 8     -3239.401 8        48.157               
G12  26237490.617 7 137878953.651 7      3238.840 7        42.540               
G13  25099843.939 7 131900549.705 7     -2877.545 7        44.074               
G14  26762323.031 7 140637011.794 7     -1508.415 7        42.704               
G15  22349846.817 7 117449230.371 7     -1681.484 7        44.419               
G18  23135200.526 6 121576332.641 6     -1790.364 6        41.343               
G22  26342948.427 7 138433120.042 7      -926.116 7        42.128               
G23  22098534.412 6 116128590.019 6      1777.994 6        39.875               
G24  21383323.944 7 112370109.803 7       210.129 7        46.036               
> 2025 08 06 06 40 28.0000000  0  9                                             
G05  25420463.243 8 133585429.187 8     -3239.793 8        48.102               
G12  26236874.047 7 137875714.823 7      3238.648 7        42.638               
G13  25100390.749 7 131903427.287 7     -2877.644 7        44.122               
G14  26762615.958 7 140638520.564 7     -1509.264 7        42.701               
G15  22350167.208 7 117450912.202 7     -1681.961 7        44.438               
G18  23135539.430 6 121578123.376 6     -1791.200 6        41.517               
G22  26343126.921 7 138434046.425 7      -926.780 7        42.037               
G23  22098196.044 6 116126812.337 6      1777.395 6        39.651               
G24  21383284.775 7 112369900.045 7       209.337 7        45.936               
> 2025 08 06 06 40 29.0000000  0  9                                             
G05  25421079.707 8 133588668.962 8     -3239.887 8        48.088               
G12  26236257.369 7 137872475.933 7      3238.902 7        42.600               
G13  25100938.452 7 131906304.864 7     -2877.639 7        44.157               
G14  26762906.294 7 140640029.829 7     -1509.602 7        42.634               
G15  22350487.278 7 117452594.278 7     -1682.246 7        44.466               
G18  23135881.854 6 121579914.684 6     -1791.484 6        41.300               
G22  26343304.789 7 138434973.366 7      -927.190 7        42.035               
G23  22097857.158 6 116125035.046 6      1776.811 6        39.730               
G24  21383244.159 7 112369690.953 7       208.717 7        45.839               
> 2025 08 06 06 40 30.0000000  0  9                                             
G05  25421696.260 8 133591908.990 8     -3240.069 8        48.230               
G12  26235641.066 7 137869237.018 7      3238.855 7        42.593               
G13  25101486.459 7 131909182.476 7     -2877.632 7        44.139               
G14  26763199.149 7 140641539.611 7     -1510.032 7        42.519               
G15  22350806.616 7 117454276.647 7     -1682.329 7        44.675               
G18  23136224.796 6 121581706.602 6     -1792.150 6        41.245               
G22  26343484.515 6 138435900.869 6      -927.738 6        41.953               
G23  22097516.467 6 116123258.178 6      1776.843 6        39.812               
G24  21383205.205 7 112369482.566 7       208.074 7        45.874               
> 2025 08 06 06 40 31.0000000  0  9                                             
G05  25422312.115 8 133595149.252 8     -3240.250 8        48.213               
G12  26235024.907 7 137865998.056 7      3239.052 7        42.515               
G13  25102033.805 7 131912060.102 7     -2877.498 7        44.163               
G14  26763488.681 7 140643049.902 7     -1510.419 7        42.582               
G15  22351126.811 7 117455959.275 7     -1682.689 7        44.615               
G18  23136562.574 6 121583499.095 6     -1792.771 6        41.310               
G22  26343659.936 6 138436828.916 6      -928.085 6        41.793               
G23  22097174.526 6 116121481.715 6      1776.352 6        39.890               
G24  21383166.465 7 112369274.852 7       207.486 7        46.072               
> 2025 08 06 06 40 32.0000000  0  9                                             
G05  25422928.650 8 133598389.668 8     -3240.570 8        48.134               
G12  26234408.979 7 137862758.976 7      3238.948 7        42.498               
G13  25102580.437 7 131914937.676 7     -2877.802 7        44.144               
G14  26763779.839 7 140644560.612 7     -1511.156 7        42.500               
G15  22351447.006 7 117457642.095 7     -1683.138 7        44.409               
G18  23136901.960 6 121585292.126 6     -1793.443 6        41.200               
G22  26343836.678 6 138437757.440 6      -928.795 6        41.813               
G23  22096834.746 6 116119705.573 6      1775.640 6        39.873               
G24  21383128.386 7 112369067.760 7       206.641 7        46.069               
