     3.02           OBSERVATION DATA    G                   RINEX VERSION / TYPE
G = GPS  R = GLONASS  E = GALILEO  S = GEO  M = MIXED       COMMENT             
GNSS-SDR            suhjw               20250806 055300 UTC PGM / RUN BY / DATE 
GPS OBSERVATION DATA FILE GENERATED BY GNSS-SDR             COMMENT             
GNSS-SDR VERSION 0.0.20                                     COMMENT             
See https://gnss-sdr.org                                    COMMENT             
DEFAULT MARKER NAME                                         MARKER NAME         
suhjw               CTTC                                    OBSERVER / AGENCY   
GNSS-SDR            Software Receiver   0.0.20              REC # / TYPE / VERS 
Antenna number      Antenna type                            ANT # / TYPE        
        0.0000        0.0000        0.0000                  APPROX POSITION XYZ 
        0.0000        0.0000        0.0000                  ANTENNA: DELTA H/E/N
G    4 C1C L1C D1C S1C                                      SYS / # / OBS TYPES 
DBHZ                                                        SIGNAL STRENGTH UNIT
  2025    08    06    05    53   18.1000000     GPS         TIME OF FIRST OBS   
                                                            END OF HEADER       
> 2025 08 06 05 53 19.0000000  0  4                                             
G05  22707214.250 6 119331702.629 6     -7447.568 6        39.876               
G13  22410592.864 6 117772955.776 6     -7715.766 6        36.704               
G15  20488621.518 6 107672907.841 6     -5852.704 6        36.079               
G23  22126757.908 6 116281373.873 6     -2431.723 6        39.286               
> 2025 08 06 05 53 20.0000000  0  4                                             
G05  22707684.455 6 119339150.186 6     -7447.146 6        40.119               
G13  22411117.159 6 117780671.432 6     -7715.997 6        36.949               
G15  20488784.876 5 107678761.114 5     -5853.090 5        35.775               
G23  22126272.854 6 116283805.872 6     -2431.752 6        39.072               
> 2025 08 06 05 53 21.0000000  0  4                                             
G05  22708157.251 6 119346598.067 6     -7448.418 6        40.107               
G13  22411638.416 6 117788387.232 6     -7715.401 6        37.136               
G15  20488949.736 6 107684614.729 6     -5853.574 6        36.076               
G23  22125787.191 6 116286238.047 6     -2432.190 6        39.061               
> 2025 08 06 05 53 22.0000000  0  4                                             
G05  22708626.153 6 119354046.281 6     -7448.334 6        40.461               
G13  22412158.530 6 117796103.145 6     -7716.024 6        37.393               
G15  20489118.241 5 107690468.675 5     -5853.884 5        35.870               
G23  22125299.975 6 116288670.394 6     -2432.921 6        39.447               
> 2025 08 06 05 53 23.0000000  0  4                                             
G05  22709094.732 6 119361494.788 6     -7448.797 6        40.650               
G13  22412679.626 6 117803819.157 6     -7716.274 6        37.417               
G15  20489286.531 6 107696322.942 6     -5855.328 6        36.303               
G23  22124814.205 6 116291102.894 6     -2433.217 6        39.237               
> 2025 08 06 05 53 24.0000000  0  4                                             
G05  22709563.829 6 119368943.663 6     -7448.859 6        40.698               
G13  22413197.900 6 117811535.341 6     -7716.513 6        37.433               
G15  20489453.750 6 107702177.574 6     -5855.122 6        36.077               
G23  22124329.687 6 116293535.601 6     -2433.330 6        39.010               
> 2025 08 06 05 53 25.0000000  0  4                                             
G05  22710032.194 6 119376392.835 6     -7449.596 6        40.591               
G13  22413716.905 6 117819251.609 6     -7717.712 6        37.103               
G15  20489616.626 6 107708032.499 6     -5855.444 6        36.311               
G23  22123844.167 6 116295968.461 6     -2433.051 6        39.300               
> 2025 08 06 05 53 26.0000000  0  4                                             
G05  22710502.364 6 119383842.326 6     -7449.270 6        40.847               
G13  22414233.999 6 117826967.998 6     -7716.135 6        36.673               
G15  20489784.827 6 107713887.788 6     -5855.732 6        36.766               
G23  22123361.650 6 116298401.486 6     -2433.187 6        39.363               
> 2025 08 06 05 53 27.0000000  0  4                                             
G05  22710971.891 6 119391292.134 6     -7449.883 6        40.763               
G13  22414750.628 6 117834684.515 6     -7715.849 6        36.695               
G15  20489950.401 6 107719743.395 6     -5856.041 6        36.521               
G23  22122875.791 6 116300834.695 6     -2434.057 6        39.373               
> 2025 08 06 05 53 28.0000000  0  4                                             
G05  22711441.542 6 119398742.300 6     -7450.378 6        40.744               
G13  22415274.191 6 117842401.201 6     -7717.171 6        36.338               
G15  20490115.529 6 107725599.375 6     -5855.794 6        36.922               
G23  22122390.094 6 116303268.099 6     -2433.338 6        39.667               
> 2025 08 06 05 53 29.0000000  0  4                                             
G05  22711911.176 6 119406192.778 6     -7450.381 6        40.595               
G13  22415792.857 6 117850117.974 6     -7717.114 6        36.271               
G15  20490282.819 6 107731455.658 6     -5856.777 6        36.429               
G23  22121901.054 6 116305701.657 6     -2433.839 6        39.109               
> 2025 08 06 05 53 30.0000000  0  4                                             
G05  22712381.328 6 119413643.576 6     -7451.439 6        40.735               
G13  22416313.489 5 117857834.878 5     -7716.868 5        35.989               
G15  20490447.589 6 107737312.301 6     -5856.985 6        36.631               
G23  22121416.303 6 116308135.393 6     -2433.529 6        38.839               
> 2025 08 06 05 53 31.0000000  0  4                                             
G05  22712852.927 6 119421094.679 6     -7450.671 6        40.574               
G13  22416832.209 5 117865551.870 5     -7717.057 5        35.707               
G15  20490610.233 6 107743169.241 6     -5857.456 6        36.558               
G23  22120933.572 6 116310569.289 6     -2433.937 6        39.292               
> 2025 08 06 05 53 32.0000000  0  4                                             
G05  22713322.829 6 119428546.115 6     -7451.483 6        40.510               
G13  22417355.843 5 117873269.015 5     -7717.408 5        35.825               
G15  20490774.574 6 107749026.521 6     -5857.571 6        36.321               
G23  22120451.376 6 116313003.363 6     -2434.159 6        38.872               
> 2025 08 06 05 53 33.0000000  0  4                                             
G05  22713793.374 6 119435997.942 6     -7451.966 6        40.462               
G13  22417876.957 6 117880986.346 6     -7717.454 6        36.415               
G15  20490945.152 6 107754884.198 6     -5858.241 6        36.295               
G23  22119966.768 6 116315437.667 6     -2435.002 6        38.792               
> 2025 08 06 05 53 34.0000000  0  4                                             
G05  22714263.722 6 119443450.031 6     -7452.666 6        40.686               
G13  22418400.215 6 117888703.728 6     -7717.951 6        36.046               
G15  20491113.550 6 107760742.145 6     -5857.647 6        36.048               
G23  22119481.714 6 116317872.091 6     -2434.560 6        39.044               
> 2025 08 06 05 53 35.0000000  0  4                                             
G05  22714734.696 6 119450902.433 6     -7452.179 6        40.691               
G13  22418918.131 5 117896421.214 5     -7717.890 5        35.914               
G15  20491279.892 5 107766600.415 5     -5858.775 5        35.880               
G23  22118996.337 6 116320306.667 6     -2435.428 6        39.319               
> 2025 08 06 05 53 36.0000000  0  4                                             
G05  22715203.615 6 119458355.212 6     -7452.079 6        40.772               
G13  22419440.050 6 117904138.890 6     -7718.488 6        36.793               
G15  20491446.181 6 107772459.088 6     -5859.174 6        36.375               
G23  22118512.641 6 116322741.483 6     -2435.263 6        39.492               
> 2025 08 06 05 53 37.0000000  0  4                                             
G05  22715674.964 6 119465808.251 6     -7452.847 6        40.722               
G13  22419957.662 5 117911856.612 5     -7717.590 5        35.832               
G15  20491612.310 6 107778318.021 6     -5859.163 6        36.225               
G23  22118029.087 6 116325176.409 6     -2435.066 6        39.148               
> 2025 08 06 05 53 38.0000000  0  4                                             
G05  22716147.314 6 119473261.632 6     -7453.177 6        40.791               
G13  22420476.006 5 117919574.492 5     -7717.487 5        35.698               
G15  20491780.690 6 107784177.293 6     -5859.925 6        36.235               
G23  22117543.014 6 116327611.519 6     -2434.891 6        39.304               
> 2025 08 06 05 53 39.0000000  0  4                                             
G05  22716617.055 6 119480715.311 6     -7453.773 6        40.469               
G13  22420999.587 5 117927292.464 5     -7718.692 5        35.890               
G15  20491949.248 6 107790036.901 6     -5859.484 6        36.285               
G23  22117059.425 6 116330046.778 6     -2435.712 6        39.235               
> 2025 08 06 05 53 40.0000000  0  4                                             
G05  22717085.509 6 119488169.378 6     -7454.323 6        40.097               
G13  22421518.503 6 117935010.633 6     -7718.133 6        36.190               
G15  20492120.219 6 107795896.891 6     -5860.263 6        36.103               
G23  22116573.709 6 116332482.276 6     -2435.961 6        38.970               
> 2025 08 06 05 53 41.0000000  0  4                                             
G05  22717554.946 6 119495623.741 6     -7454.006 6        40.844               
G13  22422041.136 5 117942728.876 5     -7718.975 5        35.912               
G15  20492286.722 6 107801757.178 6     -5860.527 6        36.266               
G23  22116090.137 6 116334917.931 6     -2435.842 6        39.307               
> 2025 08 06 05 53 42.0000000  0  4                                             
G05  22718025.026 6 119503078.415 6     -7454.456 6        40.222               
G13  22422563.108 6 117950447.236 6     -7717.665 6        36.061               
G15  20492451.850 6 107807617.775 6     -5860.241 6        36.382               
G23  22115608.692 6 116337353.725 6     -2435.744 6        39.088               
> 2025 08 06 05 53 43.0000000  0  4                                             
G05  22718495.839 6 119510533.461 6     -7455.107 6        40.295               
G13  22423084.276 6 117958165.754 6     -7717.818 6        36.648               
G15  20492618.729 6 107813478.770 6     -5859.403 6        36.419               
G23  22115122.780 6 116339789.751 6     -2435.233 6        39.086               
> 2025 08 06 05 53 44.0000000  0  4                                             
G05  22718966.652 6 119517988.865 6     -7455.993 6        39.926               
G13  22423605.158 5 117965884.435 5     -7719.899 5        35.564               
G15  20492784.929 6 107819340.109 6     -5861.426 6        36.150               
G23  22114636.349 6 116342225.974 6     -2436.523 6        38.914               
> 2025 08 06 05 53 45.0000000  0  4                                             
G05  22719437.984 6 119525444.545 6     -7455.854 6        40.362               
G13  22424127.148 5 117973603.200 5     -7718.540 5        35.470               
G15  20492950.825 6 107825201.767 6     -5861.045 6        36.395               
G23  22114148.990 6 116344662.335 6     -2436.925 6        39.368               
> 2025 08 06 05 53 46.0000000  0  4                                             
G05  22719909.654 6 119532900.511 6     -7456.160 6        40.871               
G13  22424646.618 6 117981322.041 6     -7718.860 6        36.337               
G15  20493115.756 6 107831063.694 6     -5862.046 6        36.557               
G23  22113664.489 6 116347098.828 6     -2436.623 6        39.454               
> 2025 08 06 05 53 47.0000000  0  4                                             
G05  22720381.915 6 119540356.789 6     -7456.246 6        40.867               
G13  22425168.573 6 117989041.013 6     -7719.874 6        36.699               
G15  20493283.117 6 107836925.963 6     -5862.566 6        36.419               
G23  22113181.686 6 116349535.478 6     -2436.733 6        39.618               
> 2025 08 06 05 53 48.0000000  0  4                                             
G05  22720853.031 6 119547813.415 6     -7456.706 6        40.402               
G13  22425689.526 6 117996760.094 6     -7719.362 6        36.491               
G15  20493449.263 6 107842788.591 6     -5862.415 6        36.060               
G23  22112699.186 6 116351972.334 6     -2437.249 6        38.996               
> 2025 08 06 05 53 49.0000000  0  4                                             
G05  22721322.808 6 119555270.367 6     -7457.004 6        40.120               
G13  22426209.515 5 118004479.313 5     -7718.975 5        35.848               
G15  20493617.875 5 107848651.541 5     -5862.914 5        35.693               
G23  22112215.668 6 116354409.366 6     -2436.959 6        38.973               
> 2025 08 06 05 53 50.0000000  0  4                                             
G05  22721795.069 6 119562727.671 6     -7457.639 6        40.470               
G13  22426730.504 5 118012198.698 5     -7719.274 5        35.986               
G15  20493787.381 5 107854514.868 5     -5862.913 5        35.483               
G23  22111730.614 6 116356846.617 6     -2437.436 6        38.434               
> 2025 08 06 05 53 51.0000000  0  4                                             
G05  22722265.917 6 119570185.240 6     -7457.804 6        39.934               
G13  22427250.707 5 118019918.143 5     -7718.405 5        35.811               
G15  20493956.279 5 107860378.460 5     -5863.089 5        35.437               
G23  22111245.649 6 116359283.962 6     -2437.308 6        38.470               
> 2025 08 06 05 53 52.0000000  0  4                                             
G05  22722737.016 6 119577643.215 6     -7458.172 6        39.896               
G13  22427771.821 6 118027637.773 6     -7720.039 6        36.019               
G15  20494121.263 5 107866242.457 5     -5865.273 5        35.223               
G23  22110761.076 6 116361721.563 6     -2437.849 6        38.615               
> 2025 08 06 05 53 53.0000000  0  4                                             
G05  22723206.060 6 119585101.477 6     -7458.213 6        40.199               
G13  22428291.845 5 118035357.503 5     -7719.637 5        35.953               
G15  20494287.320 5 107872106.751 5     -5864.974 5        35.824               
G23  22110278.791 6 116364159.307 6     -2437.533 6        39.202               
> 2025 08 06 05 53 54.0000000  0  4                                             
G05  22723676.141 6 119592560.024 6     -7458.444 6        40.318               
G13  22428815.318 5 118043077.295 5     -7719.179 5        35.991               
G15  20494456.844 5 107877971.342 5     -5864.214 5        35.925               
G23  22109793.469 6 116366597.186 6     -2438.175 6        39.370               
> 2025 08 06 05 53 55.0000000  0  4                                             
G05  22724148.455 6 119600018.923 6     -7458.819 6        39.976               
G13  22429334.128 6 118050797.242 6     -7719.311 6        36.673               
G15  20494625.956 5 107883836.293 5     -5864.908 5        35.689               
G23  22109308.414 6 116369035.265 6     -2437.794 6        39.426               
> 2025 08 06 05 53 56.0000000  0  4                                             
G05  22724618.642 6 119607478.090 6     -7459.289 6        40.233               
G13  22429854.992 5 118058517.273 5     -7720.807 5        35.945               
G15  20494793.460 5 107889701.527 5     -5865.221 5        35.701               
G23  22108826.362 6 116371473.466 6     -2438.797 6        39.717               
> 2025 08 06 05 53 57.0000000  0  4                                             
G05  22725089.777 6 119614937.610 6     -7459.482 6        40.296               
G13  22430377.321 5 118066237.452 5     -7720.644 5        35.881               
G15  20494962.198 5 107895567.109 5     -5866.418 5        35.680               
G23  22108342.343 6 116373911.869 6     -2438.542 6        39.680               
> 2025 08 06 05 53 58.0000000  0  4                                             
G05  22725562.359 6 119622397.468 6     -7460.373 6        39.674               
G13  22430899.079 5 118073957.757 5     -7720.703 5        35.520               
G15  20495133.669 5 107901433.065 5     -5866.140 5        35.608               
G23  22107859.183 6 116376350.471 6     -2438.732 6        39.348               
> 2025 08 06 05 53 59.0000000  0  4                                             
G05  22726035.334 6 119629857.627 6     -7460.333 6        39.976               
G13  22431422.266 5 118081678.165 5     -7720.416 5        35.765               
G15  20495302.710 5 107907299.290 5     -5866.213 5        35.860               
G23  22107375.844 6 116378789.203 6     -2438.766 6        39.233               
> 2025 08 06 05 54 00.0000000  0  4                                             
G05  22726508.220 6 119637318.133 6     -7460.960 6        39.849               
G13  22431941.951 5 118089398.730 5     -7720.540 5        35.803               
G15  20495471.626 5 107913165.902 5     -5867.708 5        35.839               
G23  22106889.538 6 116381228.147 6     -2439.347 6        39.146               
> 2025 08 06 05 54 01.0000000  0  4                                             
G05  22726978.658 6 119644778.982 6     -7460.738 6        39.735               
G13  22432461.207 5 118097119.391 5     -7720.213 5        35.939               
G15  20495637.968 5 107919032.847 5     -5867.354 5        35.918               
G23  22106406.038 6 116383667.292 6     -2439.178 6        39.145               
> 2025 08 06 05 54 02.0000000  0  4                                             
G05  22727450.614 6 119652240.127 6     -7460.948 6        39.830               
G13  22432982.893 5 118104840.126 5     -7721.493 5        35.789               
G15  20495806.134 5 107924900.089 5     -5867.720 5        35.858               
G23  22105921.377 6 116386106.577 6     -2439.256 6        39.726               
> 2025 08 06 05 54 03.0000000  0  4                                             
G05  22727920.159 6 119659701.525 6     -7461.495 6        39.736               
G13  22433505.901 5 118112560.918 5     -7721.433 5        35.556               
G15  20495976.890 5 107930767.607 5     -5867.356 5        35.426               
G23  22105439.056 6 116388545.958 6     -2439.419 6        39.496               
> 2025 08 06 05 54 04.0000000  0  4                                             
G05  22728392.937 6 119667163.280 6     -7461.936 6        40.005               
G13  22434026.408 5 118120281.865 5     -7720.602 5        35.423               
G15  20496147.611 5 107936635.491 5     -5868.121 5        35.614               
G23  22104954.984 6 116390985.558 6     -2439.739 6        39.337               
> 2025 08 06 05 54 05.0000000  0  4                                             
G05  22728865.912 6 119674625.328 6     -7462.656 6        40.081               
G13  22434546.986 5 118128002.896 5     -7720.838 5        35.599               
G15  20496320.726 6 107942503.647 6     -5868.397 6        36.346               
G23  22104472.681 6 116393425.294 6     -2439.735 6        38.585               
> 2025 08 06 05 54 06.0000000  0  4                                             
G05  22729337.244 6 119682087.657 6     -7462.697 6        40.616               
G13  22435070.852 5 118135724.024 5     -7721.844 5        35.623               
G15  20496487.194 6 107948372.123 6     -5868.529 6        36.409               
G23  22103989.735 6 116395865.174 6     -2440.144 6        38.918               
> 2025 08 06 05 54 07.0000000  0  4                                             
G05  22729810.951 6 119689550.377 6     -7462.830 6        40.307               
G13  22435594.451 5 118143445.276 5     -7720.233 5        35.654               
G15  20496652.768 6 107954240.976 6     -5868.765 6        36.413               
G23  22103506.539 6 116398305.254 6     -2439.972 6        39.268               
> 2025 08 06 05 54 08.0000000  0  4                                             
G05  22730283.122 6 119697013.409 6     -7463.855 6        39.745               
G13  22436114.671 5 118151166.661 5     -7723.125 5        35.203               
G15  20496820.898 6 107960110.127 6     -5870.266 6        36.148               
G23  22103023.182 6 116400745.521 6     -2440.459 6        39.261               
> 2025 08 06 05 54 09.0000000  0  4                                             
G05  22730754.204 6 119704476.748 6     -7463.806 6        40.109               
G13  22436636.250 5 118158888.166 5     -7722.032 5        35.818               
G15  20496988.277 5 107965979.640 5     -5870.374 5        35.815               
G23  22102539.968 6 116403185.941 6     -2441.186 6        39.076               
> 2025 08 06 05 54 10.0000000  0  4                                             
G05  22731228.054 6 119711940.487 6     -7464.194 6        40.403               
G13  22437156.793 6 118166609.878 6     -7722.537 6        36.083               
G15  20497158.247 5 107971849.514 5     -5869.969 5        35.952               
G23  22102055.324 6 116405626.623 6     -2440.702 6        38.990               
> 2025 08 06 05 54 11.0000000  0  4                                             
G05  22731700.815 6 119719404.499 6     -7464.515 6        40.222               
G13  22437678.908 6 118174331.632 6     -7722.731 6        36.535               
G15  20497327.163 6 107977719.692 6     -5870.402 6        36.003               
G23  22101570.466 6 116408067.417 6     -2440.817 6        39.444               
> 2025 08 06 05 54 12.0000000  0  4                                             
G05  22732174.022 6 119726868.862 6     -7465.252 6        40.128               
G13  22438203.310 6 118182053.516 6     -7722.367 6        36.401               
G15  20497497.848 5 107983590.237 5     -5871.018 5        35.707               
G23  22101087.145 6 116410508.418 6     -2440.849 6        39.208               
> 2025 08 06 05 54 13.0000000  0  4                                             
G05  22732645.961 5 119734333.524 5     -7461.742 5        34.739               
G13  22438726.747 5 118189775.626 5     -7720.901 5        32.631               
G15  20497678.825 5 107989461.058 5     -5871.187 5        32.691               
G23  22100597.194 5 116412949.726 5     -2442.705 5        35.000               
> 2025 08 06 05 54 14.0000000  0  4                                             
G05  22733124.619 4 119741798.929 4     -7468.479 4        29.893               
G13  22439249.345 4 118197497.727 4     -7723.291 4        28.020               
G15  20497845.543 4 107995332.290 4     -5871.435 4        28.369               
G23  22100125.988 5 116415391.056 5     -2439.357 5        30.886               
> 2025 08 06 05 54 15.0000000  0  4                                             
G05  22733581.816 4 119749265.397 4     -7468.768 4        27.685               
G13  22439782.199 4 118205220.116 4     -7725.802 4        26.074               
G15  20498023.376 4 108001203.742 4     -5870.485 4        26.650               
G23  22099650.082 4 116417832.429 4     -2440.037 4        27.642               
> 2025 08 06 05 54 16.0000000  0  4                                             
G05  22734055.363 4 119756733.532 4     -7467.729 4        26.580               
G13  22440326.078 4 118212943.274 4     -7722.489 4        25.781               
G15  20498206.194 4 108007075.037 4     -5870.914 4        25.624               
G23  22099173.819 4 116420273.608 4     -2441.062 4        26.414               
> 2025 08 06 05 56 01.0000000  0  4                                             
G05  22784038.415 8 118869010.864 8     -2516.210 8        49.830               
G13  22495172.346 7 118212932.611 7     -2751.104 7        46.229               
G15  20516314.215 7 107813960.213 7      -922.850 7        45.931               
G23  22048591.743 7 115866129.055 7      2522.992 7        45.296               
> 2025 08 06 05 56 02.0000000  0  4                                             
G05  22784516.787 8 118871527.048 8     -2516.265 8        49.746               
G13  22495695.069 7 118215683.840 7     -2751.212 7        45.979               
G15  20516488.134 7 107814883.453 7      -923.377 7        45.717               
G23  22048112.872 7 115863606.232 7      2522.747 7        45.273               
> 2025 08 06 05 56 03.0000000  0  4                                             
G05  22784994.551 8 118874043.512 8     -2516.594 8        49.387               
G13  22496221.097 7 118218435.146 7     -2751.222 7        45.519               
G15  20516662.536 7 107815806.997 7      -924.029 7        45.206               
G23  22047633.678 7 115861083.554 7      2522.610 7        45.390               
> 2025 08 06 05 56 04.0000000  0  4                                             
G05  22785472.904 8 118876560.308 8     -2516.871 8        49.208               
G13  22496743.569 7 118221186.585 7     -2751.489 7        45.256               
G15  20516837.706 7 107816730.883 7      -923.913 7        45.367               
G23  22047152.358 7 115858561.079 7      2522.539 7        45.736               
> 2025 08 06 05 56 05.0000000  0  4                                             
G05  22785951.973 8 118879077.422 8     -2517.289 8        48.689               
G13  22497265.952 7 118223938.129 7     -2751.803 7        44.745               
G15  20517013.465 7 107817655.089 7      -924.587 7        44.631               
G23  22046671.324 7 115856038.784 7      2522.205 7        44.827               
> 2025 08 06 05 56 06.0000000  0  4                                             
G05  22786430.470 8 118881594.907 8     -2517.320 8        48.779               
G13  22497790.873 7 118226689.847 7     -2751.588 7        44.844               
G15  20517188.707 7 107818579.682 7      -924.398 7        44.691               
G23  22046193.149 7 115853516.724 7      2522.128 7        45.262               
> 2025 08 06 05 56 07.0000000  0  4                                             
G05  22786909.270 8 118884112.767 8     -2517.846 8        48.272               
G13  22498316.240 7 118229441.690 7     -2752.033 7        45.054               
G15  20517364.234 7 107819504.624 7      -925.134 7        44.343               
G23  22045714.330 7 115850994.869 7      2521.719 7        45.538               
> 2025 08 06 05 56 08.0000000  0  4                                             
G05  22787387.570 8 118886630.929 8     -2518.364 8        48.232               
G13  22498841.446 7 118232193.636 7     -2752.225 7        45.423               
G15  20517541.191 7 107820429.865 7      -925.581 7        45.030               
G23  22045234.279 7 115848473.174 7      2521.639 7        45.582               
> 2025 08 06 05 56 09.0000000  0  4                                             
G05  22787867.210 8 118889149.404 8     -2518.911 8        48.776               
G13  22499365.920 7 118234945.690 7     -2752.713 7        45.253               
G15  20517715.468 7 107821355.438 7      -925.696 7        44.735               
G23  22044752.316 7 115845951.658 7      2521.382 7        44.960               
> 2025 08 06 05 56 10.0000000  0  4                                             
G05  22788346.851 8 118891668.269 8     -2518.889 8        48.970               
G13  22499889.429 7 118237697.935 7     -2752.149 7        45.396               
G15  20517891.388 7 107822281.406 7      -926.117 7        44.802               
G23  22044271.800 7 115843430.405 7      2521.430 7        45.169               
> 2025 08 06 05 56 11.0000000  0  4                                             
G05  22788826.509 8 118894187.429 8     -2519.401 8        48.584               
G13  22500412.759 7 118240450.273 7     -2752.844 7        45.417               
G15  20518067.362 7 107823207.682 7      -926.431 7        44.760               
G23  22043791.820 7 115840909.308 7      2521.074 7        44.671               
> 2025 08 06 05 56 12.0000000  0  4                                             
G05  22789307.114 8 118896706.864 8     -2519.500 8        49.027               
G13  22500936.232 7 118243202.689 7     -2752.541 7        45.264               
G15  20518242.979 7 107824134.245 7      -926.610 7        44.807               
G23  22043312.448 7 115838388.355 7      2520.885 7        44.772               
> 2025 08 06 05 56 13.0000000  0  4                                             
G05  22789787.130 8 118899226.642 8     -2520.174 8        49.327               
G13  22501460.438 7 118245955.233 7     -2752.680 7        45.600               
G15  20518419.757 7 107825061.165 7      -926.841 7        44.980               
G23  22042833.201 7 115835867.616 7      2520.688 7        44.784               
> 2025 08 06 05 56 14.0000000  0  4                                             
G05  22790267.806 8 118901746.722 8     -2520.395 8        49.142               
G13  22501982.767 7 118248707.869 7     -2752.726 7        45.734               
G15  20518596.768 7 107825988.383 7      -927.442 7        45.524               
G23  22042353.096 7 115833347.037 7      2520.496 7        44.635               
> 2025 08 06 05 56 15.0000000  0  4                                             
G05  22790747.625 8 118904267.097 8     -2520.779 8        49.461               
G13  22502505.615 7 118251460.612 7     -2752.520 7        45.900               
G15  20518772.849 7 107826915.908 7      -927.668 7        45.647               
G23  22041872.562 7 115830826.611 7      2520.299 7        44.303               
> 2025 08 06 05 56 16.0000000  0  4                                             
G05  22791226.533 8 118906787.776 8     -2520.935 8        48.959               
G13  22503030.660 7 118254213.446 7     -2752.700 7        45.450               
G15  20518949.395 7 107827843.755 7      -927.707 7        44.598               
G23  22041392.118 7 115828306.370 7      2520.414 7        44.308               
> 2025 08 06 05 56 17.0000000  0  4                                             
G05  22791705.530 8 118909308.761 8     -2521.206 8        49.315               
G13  22503554.866 7 118256966.395 7     -2753.060 7        45.136               
G15  20519126.888 7 107828771.923 7      -928.362 7        44.476               
G23  22040913.585 7 115825786.303 7      2519.974 7        44.333               
> 2025 08 06 05 56 18.0000000  0  9                                             
G05  22792185.224 8 118911830.021 8     -2521.581 8        49.055               
G13  22504077.338 7 118259719.403 7     -2753.124 7        45.581               
G14  25180145.023 6 132322552.909 6      -130.143 6        40.713               
G15  20519303.345 7 107829700.370 7      -928.623 7        44.945               
G18  21490804.795 7 112934942.914 7       -56.811 7        43.479               
G21  25711437.428 6 135114513.949 6     -3032.849 6        37.559               
G22  25067143.448 6 131728728.223 6       467.021 6        41.855               
G23  22040434.320 7 115823266.372 7      2519.610 7        44.233               
G24  20770680.525 7 109150658.566 7      1957.391 7        44.819               
> 2025 08 06 05 56 19.0000000  0  9                                             
G05  22792664.382 8 118914351.680 8     -2521.876 8        49.343               
G13  22504601.419 7 118262472.598 7     -2753.282 7        45.506               
G14  25180169.771 6 132322683.517 6      -131.129 6        40.219               
G15  20519480.892 7 107830629.225 7      -928.994 7        44.481               
G18  21490814.587 7 112935000.175 7       -57.758 7        43.375               
G21  25712014.204 6 135117546.813 6     -3032.204 6        37.273               
G22  25067055.247 7 131728261.896 7       465.982 7        42.039               
G23  22039955.680 7 115820746.705 7      2519.398 7        44.466               
G24  20770309.582 7 109148701.465 7      1956.956 7        44.766               
> 2025 08 06 05 56 20.0000000  0  9                                             
G05  22793143.808 8 118916873.622 8     -2522.128 8        49.143               
G13  22505126.071 7 118265225.872 7     -2753.215 7        45.593               
G14  25180194.967 6 132322814.621 6      -131.198 6        40.500               
G15  20519658.259 7 107831558.371 7      -929.298 7        44.411               
G18  21490826.274 7 112935058.107 7       -58.381 7        43.637               
G21  25712593.768 6 135120579.771 6     -3033.858 6        36.834               
G22  25066968.743 6 131727796.050 6       465.256 6        41.661               
G23  22039477.452 7 115818227.184 7      2519.291 7        44.409               
G24  20769939.479 7 109146744.960 7      1955.722 7        45.297               
> 2025 08 06 05 56 21.0000000  0  9                                             
G05  22793623.055 8 118919395.973 8     -2522.402 8        49.008               
G13  22505649.508 7 118267979.349 7     -2753.404 7        45.132               
G14  25180218.393 6 132322946.338 6      -132.112 6        40.440               
G15  20519836.860 7 107832487.933 7      -929.747 7        44.440               
G18  21490838.657 7 112935116.831 7       -59.038 7        43.315               
G21  25713173.814 6 135123612.975 6     -3032.685 6        36.162               
G22  25066882.882 7 131727330.799 7       464.624 7        42.030               
G23  22038997.722 7 115815707.941 7      2519.201 7        44.641               
G24  20769566.820 7 109144789.163 7      1955.572 7        44.886               
> 2025 08 06 05 56 22.0000000  0  9                                             
G05  22794103.785 8 118921918.599 8     -2522.420 8        48.932               
G13  22506173.643 7 118270732.891 7     -2753.283 7        45.485               
G14  25180242.963 6 132323078.536 6      -132.589 6        40.729               
G15  20520014.979 7 107833417.770 7      -930.065 7        44.662               
G18  21490852.827 7 112935176.209 7       -59.445 7        43.080               
G21  25713749.000 6 135126646.244 6     -3032.930 6        36.160               
G22  25066791.482 6 131726865.975 6       464.739 6        41.969               
G23  22038518.975 7 115813188.820 7      2519.260 7        44.224               
G24  20769192.125 7 109142833.936 7      1954.874 7        44.685               
> 2025 08 06 05 56 23.0000000  0  9                                             
G05  22794584.337 8 118924441.519 8     -2522.943 8        48.813               
G13  22506698.974 7 118273486.519 7     -2753.628 7        45.547               
G14  25180272.072 6 132323211.262 6      -132.927 6        40.377               
G15  20520190.667 7 107834347.913 7      -930.131 7        45.475               
G18  21490865.157 7 112935236.268 7       -60.463 7        43.390               
G21  25714323.972 5 135129679.656 5     -3033.197 5        35.619               
G22  25066700.529 6 131726401.652 6       464.471 6        41.708               
G23  22038039.531 7 115810669.870 7      2519.080 7        43.951               
G24  20768818.090 7 109140879.316 7      1954.480 7        44.144               
> 2025 08 06 05 56 24.0000000  0  9                                             
G05  22795062.959 8 118926964.779 8     -2523.805 8        48.096               
G13  22507223.698 7 118276240.266 7     -2753.443 7        45.506               
G14  25180299.268 6 132323344.521 6      -133.514 6        40.477               
G15  20520367.016 7 107835278.398 7      -930.938 7        45.582               
G18  21490877.147 7 112935297.044 7       -61.309 7        43.626               
G21  25714903.947 6 135132713.180 6     -3032.422 6        36.578               
G22  25066612.434 6 131725937.821 6       463.719 6        41.719               
G23  22037561.231 7 115808151.113 7      2518.372 7        43.640               
G24  20768444.932 7 109138925.320 7      1953.747 7        44.815               
> 2025 08 06 05 56 25.0000000  0  9                                             
G05  22795543.242 8 118929488.374 8     -2523.753 8        48.165               
G13  22507747.689 7 118278994.141 7     -2754.067 7        45.066               
G14  25180326.286 6 132323478.326 6      -133.966 6        40.917               
G15  20520544.349 7 107836209.221 7      -931.008 7        45.803               
G18  21490889.155 7 112935358.529 7       -62.109 7        43.504               
G21  25715478.990 6 135135746.857 6     -3033.627 6        37.515               
G22  25066524.840 7 131725474.499 7       463.335 7        42.139               
G23  22037081.913 7 115805632.558 7      2518.488 7        43.602               
G24  20768073.524 7 109136971.970 7      1953.005 7        44.439               
> 2025 08 06 05 56 26.0000000  0  9                                             
G05  22796024.616 8 118932012.287 8     -2524.198 8        48.118               
G13  22508268.482 7 118281748.125 7     -2753.739 7        44.871               
G14  25180349.873 6 132323612.652 6      -135.010 6        40.631               
G15  20520722.985 7 107837140.370 7      -931.384 7        45.273               
G18  21490902.807 7 112935420.723 7       -62.567 7        43.894               
G21  25716058.143 6 135138780.662 6     -3034.244 6        37.648               
G22  25066435.442 7 131725011.668 7       462.575 7        42.054               
G23  22036600.843 7 115803114.179 7      2518.255 7        43.566               
G24  20767703.725 7 109135019.225 7      1952.329 7        44.824               
> 2025 08 06 05 56 27.0000000  0  9                                             
G05  22796505.847 8 118934536.546 8     -2524.469 8        48.476               
G13  22508792.848 7 118284502.248 7     -2754.145 7        44.826               
G14  25180371.602 6 132323747.550 6      -134.809 6        39.716               
G15  20520900.818 7 107838071.877 7      -931.662 7        45.263               
G18  21490914.761 7 112935483.641 7       -63.256 7        44.146               
G21  25716632.739 6 135141814.601 6     -3034.772 6        38.227               
G22  25066346.936 7 131724549.362 7       462.093 7        42.490               
G23  22036120.917 7 115800596.022 7      2518.400 7        43.642               
G24  20767335.658 7 109133067.145 7      1951.591 7        44.968               
> 2025 08 06 05 56 28.0000000  0  9                                             
G05  22796987.006 8 118937061.167 8     -2525.089 8        48.154               
G13  22509318.305 7 118287256.527 7     -2754.556 7        45.215               
G14  25180395.136 6 132323883.012 6      -136.296 6        39.367               
G15  20521079.151 7 107839003.748 7      -932.037 7        45.489               
G18  21490925.590 7 112935547.302 7       -63.999 7        43.701               
G21  25717210.445 6 135144848.724 6     -3034.323 6        38.413               
G22  25066261.844 7 131724087.586 7       461.006 7        42.068               
G23  22035641.812 7 115798078.086 7      2517.663 7        43.747               
G24  20766964.626 7 109131115.723 7      1951.006 7        44.552               
> 2025 08 06 05 56 29.0000000  0  9                                             
G05  22797467.164 8 118939586.100 8     -2525.025 8        48.692               
G13  22509843.243 7 118290010.916 7     -2754.658 7        45.600               
G14  25180421.314 6 132324018.997 6      -136.473 6        39.237               
G15  20521257.251 7 107839935.938 7      -932.546 7        45.586               
G18  21490936.972 7 112935611.662 7       -64.780 7        43.881               
G21  25717788.347 6 135147882.969 6     -3034.229 6        39.520               
G22  25066174.196 7 131723626.291 7       460.963 7        42.124               
G23  22035162.726 7 115795560.324 7      2517.813 7        43.504               
G24  20766593.844 7 109129164.915 7      1950.087 7        44.470               
> 2025 08 06 05 56 30.0000000  0  9                                             
G05  22797947.502 8 118942111.306 8     -2525.581 8        48.731               
G13  22510367.145 7 118292765.377 7     -2754.632 7        45.712               
G14  25180446.277 6 132324155.477 6      -136.352 6        39.200               
G15  20521434.816 7 107840868.418 7      -932.907 7        45.565               
G18  21490947.729 7 112935676.696 7       -65.817 7        44.005               
G21  25718368.339 6 135150917.303 6     -3034.956 6        40.432               
G22  25066085.084 6 131723165.478 6       459.881 6        41.072               
G23  22034683.586 7 115793042.714 7      2517.138 7        43.967               
G24  20766220.220 7 109127214.702 7      1949.689 7        44.690               
> 2025 08 06 05 56 31.0000000  0  9                                             
G05  22798428.536 8 118944636.895 8     -2525.675 8        49.042               
G13  22510891.887 7 118295520.007 7     -2755.003 7        45.690               
G14  25180476.207 6 132324292.548 6      -137.411 6        39.850               
G15  20521612.487 7 107841801.298 7      -933.018 7        45.746               
G18  21490962.400 7 112935742.487 7       -66.370 7        43.825               
G21  25718949.654 6 135153951.829 6     -3034.079 6        40.419               
G22  25065996.757 6 131722705.204 6       460.317 6        41.207               
G23  22034207.359 7 115790525.352 7      2517.523 7        43.559               
G24  20765846.311 7 109125265.157 7      1949.599 7        44.129               
> 2025 08 06 05 56 32.0000000  0  9                                             
G05  22798909.570 8 118947162.800 8     -2526.220 8        49.106               
G13  22511417.004 7 118298274.747 7     -2754.810 7        45.765               
G14  25180504.798 6 132324430.154 6      -138.552 6        40.303               
G15  20521789.283 7 107842734.481 7      -933.288 7        45.696               
G18  21490973.407 7 112935808.988 7       -66.868 7        43.530               
G21  25719523.947 6 135156986.487 6     -3034.440 6        40.669               
G22  25065909.610 6 131722245.421 6       459.253 6        41.253               
G23  22033726.646 7 115788008.173 7      2516.830 7        42.854               
G24  20765474.725 7 109123316.237 7      1948.831 7        44.219               
> 2025 08 06 05 56 33.0000000  0  9                                             
G05  22799390.872 8 118949689.062 8     -2526.320 8        48.999               
G13  22511940.316 7 118301029.643 7     -2755.194 7        45.282               
G14  25180533.478 6 132324568.329 6      -138.313 6        40.217               
G15  20521965.615 7 107843668.040 7      -933.596 7        45.490               
G18  21490986.344 7 112935876.224 7       -67.566 7        43.157               
G21  25720099.401 6 135160021.318 6     -3034.884 6        41.234               
G22  25065823.499 6 131721786.179 6       458.947 6        41.138               
G23  22033247.238 7 115785491.215 7      2516.905 7        43.386               
G24  20765105.247 7 109121367.980 7      1947.931 7        44.127               
> 2025 08 06 05 56 34.0000000  0  9                                             
G05  22799871.656 8 118952215.615 8     -2526.717 8        49.420               
G13  22512463.574 7 118303784.628 7     -2754.991 7        45.634               
G14  25180563.033 6 132324707.010 6      -138.832 6        39.863               
G15  20522144.394 7 107844601.893 7      -933.774 7        45.502               
G18  21490999.174 7 112935944.138 7       -68.248 7        43.329               
G21  25720676.427 6 135163056.242 6     -3034.710 6        41.419               
G22  25065735.083 6 131721327.400 6       458.379 6        40.640               
G23  22032769.313 7 115782974.415 7      2516.901 7        43.198               
G24  20764736.323 7 109119420.314 7      1947.261 7        44.620               
> 2025 08 06 05 56 35.0000000  0  9                                             
G05  22800352.172 8 118954742.476 8     -2527.004 8        49.480               
G13  22512987.566 7 118306539.715 7     -2755.055 7        46.064               
G14  25180588.496 6 132324846.223 6      -139.333 6        39.901               
G15  20522322.406 7 107845536.076 7      -934.794 7        45.307               
G18  21491010.736 7 112936012.753 7       -69.172 7        43.234               
G21  25721258.368 6 135166091.302 6     -3035.349 6        41.631               
G22  25065647.007 6 131720869.110 6       457.844 6        41.227               
G23  22032290.656 7 115780457.794 7      2516.648 7        42.726               
G24  20764368.239 7 109117473.274 7      1946.664 7        45.025               
> 2025 08 06 05 56 36.0000000  0  9                                             
G05  22800832.741 8 118957269.681 8     -2527.433 8        49.317               
G13  22513512.021 7 118309294.940 7     -2755.068 7        45.908               
G14  25180613.692 6 132324985.979 6      -140.023 6        40.153               
G15  20522499.988 7 107846470.606 7      -934.666 7        45.478               
G18  21491022.708 7 112936082.100 7       -69.520 7        42.886               
G21  25721835.948 6 135169126.521 6     -3035.115 6        41.056               
G22  25065560.092 6 131720411.354 6       457.057 6        40.741               
G23  22031812.159 7 115777941.386 7      2516.898 7        42.674               
G24  20763999.011 7 109115526.872 7      1945.899 7        45.064               
> 2025 08 06 05 56 37.0000000  0  9                                             
G05  22801314.919 8 118959797.199 8     -2527.770 8        49.603               
G13  22514034.958 7 118312050.270 7     -2755.341 7        46.055               
G14  25180640.156 6 132325126.272 6      -140.052 6        39.998               
G15  20522677.892 7 107847405.463 7      -934.780 7        45.427               
G18  21491035.323 7 112936152.145 7       -70.808 7        42.488               
G21  25722415.959 6 135172161.873 6     -3035.433 6        40.538               
G22  25065473.373 6 131719954.083 6       457.156 6        40.653               
G23  22031334.985 7 115775425.162 7      2516.392 7        43.116               
G24  20763628.587 7 109113581.098 7      1945.523 7        45.233               
> 2025 08 06 05 56 38.0000000  0  9                                             
G05  22801795.917 8 118962325.006 8     -2528.060 8        49.416               
G13  22514557.556 7 118314805.683 7     -2755.300 7        46.174               
G14  25180666.209 6 132325267.049 6      -141.975 6        39.772               
G15  20522854.492 7 107848340.604 7      -935.609 7        46.334               
G18  21491047.188 7 112936222.866 7       -71.163 7        42.369               
G21  25722991.056 6 135175197.311 6     -3035.651 6        40.081               
G22  25065388.513 6 131719497.293 6       457.278 6        40.977               
G23  22030854.201 7 115772909.080 7      2515.510 7        43.271               
G24  20763258.483 7 109111635.908 7      1944.741 7        45.365               
> 2025 08 06 05 56 39.0000000  0  9                                             
G05  22802274.771 8 118964853.115 8     -2528.272 8        49.328               
G13  22515081.065 7 118317561.180 7     -2755.305 7        45.927               
G14  25180693.566 6 132325408.339 6      -141.609 6        39.766               
G15  20523032.860 7 107849276.053 7      -935.829 7        46.388               
G18  21491060.876 7 112936294.257 7       -71.642 7        42.408               
G21  25723567.064 6 135178232.866 6     -3035.869 6        39.798               
G22  25065300.723 6 131719040.973 6       455.642 6        41.292               
G23  22030373.828 7 115770393.169 7      2515.980 7        42.840               
G24  20762887.951 7 109109691.324 7      1944.354 7        45.305               
> 2025 08 06 05 56 40.0000000  0  9                                             
G05  22802756.431 8 118967381.541 8     -2528.882 8        49.522               
G13  22515605.842 7 118320316.795 7     -2755.777 7        45.955               
G14  25180718.136 6 132325550.166 6      -142.093 6        39.519               
G15  20523209.871 7 107850211.827 7      -936.350 7        46.552               
G18  21491076.833 7 112936366.357 7       -72.406 7        43.185               
G21  25724142.893 6 135181268.561 6     -3035.883 6        39.263               
G22  25065214.469 6 131718585.146 6       455.327 6        40.934               
G23  22029893.366 7 115767877.434 7      2515.345 7        42.207               
G24  20762517.080 7 109107747.349 7      1943.809 7        45.157               
> 2025 08 06 05 56 41.0000000  0  9                                             
G05  22803238.055 8 118969910.297 8     -2528.803 8        49.319               
G13  22516131.495 7 118323072.515 7     -2755.905 7        45.278               
G14  25180745.279 6 132325692.530 6      -142.730 6        38.908               
G15  20523388.400 7 107851147.933 7      -936.378 7        46.124               
G18  21491092.719 7 112936439.164 7       -72.906 7        42.883               
G21  25724719.741 6 135184304.378 6     -3036.088 6        39.567               
G22  25065128.287 6 131718129.816 6       454.933 6        41.014               
G23  22029412.439 7 115765361.894 7      2515.406 7        42.376               
G24  20762147.709 7 109105804.015 7      1943.016 7        45.727               
> 2025 08 06 05 56 42.0000000  0  9                                             
G05  22803720.143 8 118972439.401 8     -2529.279 8        49.433               
G13  22516656.219 7 118325828.380 7     -2755.844 7        45.257               
G14  25180771.028 6 132325835.453 6      -143.257 6        38.701               
G15  20523566.233 7 107852084.394 7      -936.725 7        45.671               
G18  21491108.104 7 112936512.705 7       -73.964 7        43.314               
G21  25725300.091 6 135187340.362 6     -3036.907 6        39.060               
G22  25065041.300 6 131717675.015 6       454.205 6        41.417               
G23  22028932.405 6 115762846.567 6      2515.016 6        41.894               
G24  20761780.000 7 109103861.332 7      1942.555 7        45.399               
> 2025 08 06 05 56 43.0000000  0  9                                             
G05  22804199.551 8 118974968.821 8     -2529.890 8        49.001               
G13  22517181.282 7 118328584.357 7     -2756.199 7        45.151               
G14  25180799.190 6 132325978.905 6      -143.669 6        38.062               
G15  20523746.638 7 107853021.185 7      -937.012 7        45.322               
G18  21491122.900 7 112936586.944 7       -74.564 7        42.986               
G21  25725884.658 6 135190376.469 6     -3036.620 6        38.952               
G22  25064956.494 6 131717220.697 6       454.391 6        41.525               
G23  22028453.444 6 115760331.423 6      2514.898 6        41.573               
G24  20761411.041 7 109101919.262 7      1941.787 7        45.818               
> 2025 08 06 05 56 44.0000000  0  9                                             
G05  22804681.211 8 118977498.559 8     -2529.917 8        49.262               
G13  22517706.364 7 118331340.450 7     -2756.174 7        45.630               
G14  25180825.422 6 132326122.890 6      -144.836 6        37.881               
G15  20523923.434 7 107853958.311 7      -937.329 7        45.432               
G18  21491137.981 7 112936661.897 7       -75.424 7        42.844               
G21  25726458.986 6 135193412.720 6     -3036.017 6        38.415               
G22  25064869.686 6 131716766.879 6       453.646 6        41.297               
G23  22027975.037 6 115757816.485 6      2514.902 6        41.844               
G24  20761041.098 7 109099977.842 7      1940.885 7        46.194               
> 2025 08 06 05 56 45.0000000  0  9                                             
G05  22805163.227 8 118980028.593 8     -2530.131 8        49.392               
G13  22518232.964 7 118334096.629 7     -2755.990 7        45.896               
G14  25180853.119 6 132326267.387 6      -143.888 6        37.757               
G15  20524102.589 7 107854895.741 7      -937.715 7        45.577               
G18  21491149.935 7 112936737.528 7       -75.937 7        43.242               
G21  25727036.102 6 135196449.075 6     -3036.215 6        37.326               
G22  25064780.895 6 131716313.529 6       453.315 6        40.369               
G23  22027499.810 6 115755301.691 6      2514.979 6        41.574               
G24  20760670.406 7 109098037.006 7      1940.822 7        45.821               
> 2025 08 06 05 56 46.0000000  0  9                                             
G05  22805645.548 8 118982559.010 8     -2530.495 8        49.291               
G13  22518758.778 7 118336852.980 7     -2756.229 7        45.757               
G14  25180879.154 6 132326412.484 6      -145.107 6        37.102               
G15  20524281.154 7 107855833.561 7      -937.832 7        45.964               
G18  21491163.802 7 112936813.920 7       -76.396 7        43.144               
G21  25727609.591 6 135199485.592 6     -3036.197 6        36.976               
G22  25064694.445 6 131715860.736 6       453.042 6        40.427               
G23  22027021.206 6 115752787.156 6      2514.698 6        41.572               
G24  20760300.427 7 109096096.852 7      1939.595 7        45.552               
> 2025 08 06 05 56 47.0000000  0  9                                             
G05  22806127.476 8 118985089.795 8     -2530.623 8        49.658               
G13  22519281.965 7 118339609.491 7     -2756.550 7        45.738               
G14  25180904.010 6 132326558.146 6      -145.787 6        36.252               
G15  20524458.433 7 107856771.744 7      -938.162 7        45.556               
G18  21491177.918 7 112936891.072 7       -77.281 7        43.072               
G21  25728187.832 5 135202522.316 5     -3035.961 5        35.778               
G22  25064609.406 6 131715408.488 6       452.582 6        40.738               
G23  22026542.566 6 115750272.844 6      2514.651 6        41.654               
G24  20759930.753 7 109094157.371 7      1939.517 7        45.219               
> 2025 08 06 05 56 48.0000000  0  9                                             
G05  22806609.046 8 118987620.885 8     -2531.384 8        49.702               
G13  22519806.581 7 118342366.106 7     -2756.969 7        45.907               
G14  25180936.960 6 132326704.339 6      -145.991 6        36.096               
G15  20524635.676 7 107857710.255 7      -938.945 7        45.860               
G18  21491194.268 7 112936968.911 7       -78.096 7        43.355               
G21  25728766.234 5 135205559.159 5     -3036.969 5        34.990               
G22  25064524.421 6 131714956.742 6       451.427 6        40.832               
G23  22026064.677 6 115747758.715 6      2514.034 6        41.591               
G24  20759560.453 7 109092218.497 7      1938.275 7        45.362               
> 2025 08 06 05 56 49.0000000  0  9                                             
G05  22807090.294 8 118990152.292 8     -2531.576 8        49.537               
G13  22520332.163 7 118345122.824 7     -2756.808 7        45.718               
G14  25180964.318 5 132326851.049 5      -147.173 5        35.775               
G15  20524815.313 7 107858649.083 7      -938.977 7        45.603               
G18  21491208.975 7 112937047.449 7       -78.877 7        43.693               
G21  25729350.230 5 135208596.140 5     -3036.133 5        35.150               
G22  25064439.740 6 131714505.468 6       451.321 6        41.006               
G23  22025588.146 6 115745244.764 6      2513.897 6        41.576               
G24  20759193.888 7 109090280.252 7      1937.917 7        45.415               
> 2025 08 06 05 56 50.0000000  0  9                                             
G05  22807572.544 8 118992683.986 8     -2531.666 8        49.400               
G13  22520855.136 7 118347879.630 7     -2756.861 7        45.723               
G14  25180992.622 5 132326998.266 5      -147.744 5        35.586               
G15  20524993.682 7 107859588.205 7      -939.342 7        45.812               
G18  21491224.753 7 112937126.660 7       -79.761 7        43.287               
G21  25729931.134 5 135211633.217 5     -3037.727 5        35.369               
G22  25064353.361 6 131714054.675 6       451.057 6        40.658               
G23  22025110.632 6 115742730.970 6      2513.640 6        41.448               
G24  20758828.324 7 109088342.601 7      1937.376 7        45.873               
> 2025 08 06 05 56 51.0000000  0  9                                             
G05  22808052.970 8 118995215.987 8     -2532.140 8        49.664               
G13  22521377.697 7 118350636.533 7     -2757.182 7        45.855               
G14  25181018.157 5 132327146.005 5      -147.818 5        35.448               
G15  20525175.660 7 107860527.654 7      -939.795 7        45.739               
G18  21491241.693 7 112937206.569 7       -80.006 7        43.470               
G21  25730505.123 5 135214670.411 5     -3037.911 5        34.881               
G22  25064267.983 6 131713604.385 6       450.042 6        40.980               
G23  22024631.296 6 115740217.360 6      2513.867 6        41.945               
G24  20758461.794 7 109086405.563 7      1936.643 7        46.157               
> 2025 08 06 05 56 52.0000000  0  9                                             
G05  22808533.915 8 118997748.386 8     -2532.597 8        49.547               
G13  22521901.849 7 118353393.636 7     -2757.370 7        45.636               
G14  25181048.177 5 132327294.384 5      -148.038 5        35.372               
G15  20525354.422 7 107861467.509 7      -939.789 7        45.558               
G18  21491256.685 7 112937287.262 7       -80.671 7        43.564               
G21  25731079.808 5 135217707.791 5     -3037.508 5        34.768               
G22  25064183.516 6 131713154.662 6       449.318 6        40.949               
G23  22024151.101 6 115737704.007 6      2513.790 6        41.416               
