     3.02           OBSERVATION DATA    G                   RINEX VERSION / TYPE
G = GPS  R = GLONASS  E = GALILEO  S = GEO  M = MIXED       COMMENT             
GNSS-SDR            suhjw               20250806 060348 UTC PGM / RUN BY / DATE 
GPS OBSERVATION DATA FILE GENERATED BY GNSS-SDR             COMMENT             
GNSS-SDR VERSION 0.0.20                                     COMMENT             
See https://gnss-sdr.org                                    COMMENT             
DEFAULT MARKER NAME                                         MARKER NAME         
suhjw               CTTC                                    OBSERVER / AGENCY   
GNSS-SDR            Software Receiver   0.0.20              REC # / TYPE / VERS 
Antenna number      Antenna type                            ANT # / TYPE        
        0.0000        0.0000        0.0000                  APPROX POSITION XYZ 
        0.0000        0.0000        0.0000                  ANTENNA: DELTA H/E/N
G    4 C1C L1C D1C S1C                                      SYS / # / OBS TYPES 
DBHZ                                                        SIGNAL STRENGTH UNIT
  2025    08    06    06    04    6.3600000     GPS         TIME OF FIRST OBS   
    18    18   137     7                                    LEAP SECONDS        
                                                            END OF HEADER       
> 2025 08 06 06 04 07.0000000  0  6                                             
G05  24898450.150 8 130842236.398 8     -2666.196 8        49.516               
G13  24626580.811 7 129413562.219 7     -2797.462 7        44.301               
G14  27077564.957 6 142293556.860 6      -378.714 6        40.343               
G15  22483555.123 7 118151881.226 7     -1076.157 7        44.363               
G18  23385215.389 7 122890139.353 7      -383.519 7        45.125               
G24  22483800.661 7 118153168.042 7      1662.344 7        45.474               
> 2025 08 06 06 04 08.0000000  0  6                                             
G05  24898957.684 8 130844902.715 8     -2666.424 8        49.336               
G13  24627113.290 7 129416359.703 7     -2797.399 7        44.085               
G14  27077640.489 6 142293935.571 6      -378.917 6        40.541               
G15  22483758.329 7 118152957.617 7     -1076.510 7        44.413               
G18  23385287.491 7 122890523.207 7      -384.369 7        45.197               
G24  22483484.326 7 118151505.946 7      1661.846 7        45.557               
> 2025 08 06 06 04 09.0000000  0  6                                             
G05  24899464.897 8 130847569.303 8     -2666.624 8        49.262               
G13  24627645.751 7 129419157.236 7     -2797.683 7        43.786               
G14  27077712.412 6 142294314.800 6      -379.551 6        40.599               
G15  22483961.768 7 118154034.284 7     -1076.912 7        44.351               
G18  23385359.449 7 122890907.725 7      -384.862 7        45.266               
G24  22483167.490 7 118149844.466 7      1661.205 7        45.787               
> 2025 08 06 06 04 10.0000000  0  6                                             
G05  24899972.270 8 130850236.207 8     -2666.963 8        49.223               
G13  24628178.909 7 129421954.884 7     -2797.609 7        43.662               
G14  27077784.407 6 142294694.566 6      -379.947 6        40.731               
G15  22484165.582 7 118155111.283 7     -1076.998 7        44.159               
G18  23385432.123 7 122891292.964 7      -385.455 7        45.510               
G24  22482852.977 7 118148183.638 7      1660.564 7        45.898               
> 2025 08 06 06 04 11.0000000  0  6                                             
G05  24900481.215 8 130852903.314 8     -2667.259 8        49.079               
G13  24628712.103 7 129424752.493 7     -2797.652 7        43.539               
G14  27077851.737 6 142295074.770 6      -380.608 6        40.803               
G15  22484368.199 7 118156188.494 7     -1077.388 7        44.104               
G18  23385505.743 7 122891678.786 7      -386.200 7        45.579               
G24  22482539.144 7 118146523.357 7      1659.913 7        45.834               
> 2025 08 06 06 04 12.0000000  0  6                                             
G05  24900989.678 8 130855570.746 8     -2667.615 8        49.125               
G13  24629244.582 7 129427550.233 7     -2797.797 7        43.328               
G14  27077922.820 6 142295455.525 6      -380.909 6        40.819               
G15  22484571.370 7 118157266.041 7     -1077.725 7        44.107               
G18  23385580.043 7 122892065.342 7      -386.855 7        45.613               
G24  22482224.756 7 118144863.756 7      1659.232 7        46.090               
> 2025 08 06 06 04 13.0000000  0  6                                             
G05  24901497.051 8 130858238.499 8     -2668.048 8        49.140               
G13  24629778.705 7 129430348.066 7     -2797.953 7        43.465               
G14  27077993.385 6 142295836.829 6      -381.751 6        40.653               
G15  22484775.648 7 118158343.919 7     -1078.157 7        43.939               
G18  23385654.717 7 122892452.601 7      -387.748 7        45.622               
G24  22481910.118 7 118143204.812 7      1658.528 7        46.110               
> 2025 08 06 06 04 14.0000000  0  6                                             
G05  24902004.782 8 130860906.520 8     -2668.229 8        49.021               
G13  24630311.380 7 129433145.946 7     -2797.912 7        43.345               
G14  27078066.648 6 142296218.627 6      -382.198 6        40.835               
G15  22484980.338 7 118159422.075 7     -1078.273 7        43.890               
G18  23385727.390 7 122892840.525 7      -388.160 7        45.764               
G24  22481594.122 7 118141546.476 7      1658.101 7        46.524               
> 2025 08 06 06 04 15.0000000  0  6                                             
G05  24902513.531 8 130863574.900 8     -2668.484 8        49.327               
G13  24630842.787 7 129435943.958 7     -2798.059 7        43.656               
G14  27078140.840 6 142296601.007 6      -382.581 6        40.597               
G15  22485186.100 7 118160500.566 7     -1078.600 7        43.779               
G18  23385801.958 7 122893229.181 7      -388.824 7        45.842               
G24  22481277.180 7 118139888.825 7      1657.349 7        46.733               
> 2025 08 06 06 04 16.0000000  0  6                                             
G05  24903021.404 8 130866243.548 8     -2668.795 8        49.252               
G13  24631372.478 7 129438742.021 7     -2797.969 7        43.699               
G14  27078214.121 6 142296983.892 6      -383.001 6        40.480               
G15  22485394.989 7 118161579.355 7     -1078.866 7        43.973               
G18  23385877.151 7 122893618.503 7      -389.610 7        45.719               
G24  22480960.719 7 118138231.789 7      1656.705 7        47.045               
> 2025 08 06 06 04 17.0000000  0  6                                             
G05  24903528.402 8 130868912.537 8     -2669.121 8        49.282               
G13  24631906.637 7 129441540.199 7     -2798.191 7        43.861               
G14  27078289.492 6 142297367.348 6      -383.716 6        40.222               
G15  22485604.825 7 118162658.478 7     -1079.194 7        44.149               
G18  23385950.753 7 122894008.555 7      -390.230 7        45.536               
G24  22480644.348 7 118136575.432 7      1656.138 7        47.058               
> 2025 08 06 06 04 18.0000000  0  6                                             
G05  24904036.275 8 130871581.806 8     -2669.206 8        49.243               
G13  24632438.937 7 129444338.433 7     -2798.392 7        43.762               
G14  27078364.131 6 142297751.299 6      -384.138 6        40.224               
G15  22485812.963 7 118163737.887 7     -1079.376 7        44.081               
G18  23386024.070 7 122894399.275 7      -390.900 7        45.625               
G24  22480330.175 7 118134919.682 7      1655.435 7        47.285               
> 2025 08 06 06 04 19.0000000  0  6                                             
G05  24904542.183 8 130874251.359 8     -2669.796 8        49.207               
G13  24632970.648 7 129447136.736 7     -2798.406 7        43.749               
G14  27078442.683 6 142298135.780 6      -384.794 6        40.163               
G15  22486018.117 7 118164817.576 7     -1079.985 7        43.970               
G18  23386098.262 7 122894790.676 7      -391.895 7        45.656               
G24  22480016.520 7 118133264.570 7      1654.683 7        47.232               
> 2025 08 06 06 04 20.0000000  0  6                                             
G05  24905050.753 8 130876921.264 8     -2670.064 8        49.129               
G13  24633504.682 7 129449935.163 7     -2798.381 7        43.675               
G14  27078516.000 6 142298520.838 6      -385.380 6        40.064               
G15  22486222.682 7 118165897.618 7     -1080.253 7        43.718               
G18  23386174.581 7 122895182.807 7      -392.383 7        45.578               
G24  22479702.990 7 118131610.137 7      1654.083 7        47.006               
> 2025 08 06 06 04 21.0000000  0  6                                             
G05  24905558.519 8 130879591.433 8     -2670.367 8        49.265               
G13  24634037.339 7 129452733.635 7     -2798.480 7        43.722               
G14  27078590.085 6 142298906.379 6      -385.790 6        40.032               
G15  22486427.389 7 118166977.931 7     -1080.412 7        43.810               
G18  23386248.898 7 122895575.590 7      -393.215 7        45.211               
G24  22479389.639 7 118129956.312 7      1653.473 7        47.237               
> 2025 08 06 06 04 22.0000000  0  6                                             
G05  24906067.697 8 130882261.906 8     -2670.596 8        49.115               
G13  24634569.104 7 129455532.194 7     -2798.631 7        43.593               
G14  27078659.435 6 142299292.460 6      -386.407 6        39.782               
G15  22486633.258 7 118168058.556 7     -1080.945 7        43.757               
G18  23386323.984 7 122895969.081 7      -393.859 7        44.983               
G24  22479073.232 7 118128303.128 7      1652.973 7        47.191               
> 2025 08 06 06 04 23.0000000  0  6                                             
G05  24906575.553 8 130884932.650 8     -2671.069 8        49.347               
G13  24635100.511 7 129458330.801 7     -2798.953 7        43.297               
G14  27078725.711 6 142299679.041 6      -386.931 6        39.725               
G15  22486840.146 7 118169139.462 7     -1081.247 7        43.725               
G18  23386398.337 7 122896363.224 7      -394.738 7        44.909               
G24  22478757.897 7 118126650.559 7      1652.112 7        47.057               
> 2025 08 06 06 04 24.0000000  0  6                                             
G05  24907085.284 8 130887603.732 8     -2671.115 8        49.506               
G13  24635633.043 7 129461129.534 7     -2798.487 7        43.220               
G14  27078799.099 6 142300066.191 6      -387.183 6        39.766               
G15  22487045.800 7 118170220.713 7     -1081.256 7        43.704               
G18  23386474.083 7 122896758.106 7      -395.083 7        44.901               
G24  22478442.777 7 118124998.670 7      1651.601 7        46.951               
> 2025 08 06 06 04 25.0000000  0  6                                             
G05  24907595.070 8 130890275.103 8     -2671.590 8        49.630               
G13  24636167.649 7 129463928.322 7     -2798.733 7        43.015               
G14  27078873.095 6 142300453.842 6      -387.754 6        39.715               
G15  22487252.777 7 118171302.250 7     -1081.675 7        43.889               
G18  23386550.741 7 122897153.661 7      -396.021 7        45.063               
G24  22478128.265 7 118123347.403 7      1650.949 7        47.219               
> 2025 08 06 06 04 26.0000000  0  6                                             
G05  24908103.801 8 130892946.755 8     -2671.724 8        49.583               
G13  24636699.073 7 129466727.172 7     -2798.777 7        43.181               
G14  27078949.985 6 142300842.016 6      -388.431 6        39.540               
G15  22487458.646 7 118172384.064 7     -1081.815 7        44.095               
G18  23386628.329 7 122897549.879 7      -396.496 7        45.254               
G24  22477814.967 7 118121696.740 7      1650.502 7        47.158               
> 2025 08 06 06 04 27.0000000  0  6                                             
G05  24908612.836 8 130895618.741 8     -2672.221 8        49.476               
G13  24637233.464 7 129469526.145 7     -2799.018 7        43.188               
G14  27079025.839 6 142301230.756 6      -388.688 6        39.661               
G15  22487663.890 7 118173466.226 7     -1082.256 7        44.424               
G18  23386704.612 7 122897946.826 7      -397.372 7        45.290               
G24  22477500.025 7 118120046.756 7      1649.669 7        47.315               
> 2025 08 06 06 04 28.0000000  0  6                                             
G05  24909120.584 8 130898290.988 8     -2672.397 8        49.562               
G13  24637766.086 7 129472325.152 7     -2798.985 7        42.974               
G14  27079099.459 6 142301619.985 6      -389.523 6        39.876               
G15  22487869.884 7 118174548.662 7     -1082.650 7        44.592               
G18  23386779.769 7 122898344.433 7      -397.925 7        45.379               
G24  22477185.084 7 118118397.383 7      1649.005 7        47.379               
> 2025 08 06 06 04 29.0000000  0  6                                             
G05  24909629.190 8 130900963.523 8     -2672.770 8        49.586               
G13  24638298.279 7 129475124.232 7     -2799.107 7        43.058               
G14  27079175.242 6 142302009.755 6      -390.190 6        40.072               
G15  22488076.396 7 118175631.400 7     -1082.929 7        44.431               
G18  23386854.086 7 122898742.721 7      -398.720 7        45.470               
G24  22476870.428 7 118116748.640 7      1648.283 7        47.337               
> 2025 08 06 06 04 30.0000000  0  6                                             
G05  24910137.135 8 130903636.380 8     -2672.998 8        49.389               
G13  24638830.562 7 129477923.417 7     -2799.221 7        43.229               
G14  27079247.844 6 142302400.069 6      -390.769 6        40.067               
G15  22488281.497 7 118176714.484 7     -1083.258 7        44.674               
G18  23386928.743 7 122899141.734 7      -399.403 7        45.428               
G24  22476556.523 7 118115100.584 7      1647.641 7        46.996               
> 2025 08 06 06 04 31.0000000  0  6                                             
G05  24910644.651 8 130906309.557 8     -2673.353 8        49.460               
G13  24639364.935 7 129480722.689 7     -2799.231 7        43.254               
G14  27079320.428 6 142302790.940 6      -390.929 6        40.237               
G15  22488489.778 7 118177797.884 7     -1083.469 7        44.723               
G18  23387002.452 7 122899541.455 7      -399.924 7        45.476               
G24  22476241.010 7 118113453.165 7      1647.137 7        47.052               
> 2025 08 06 06 04 32.0000000  0  6                                             
G05  24911152.310 8 130908983.038 8     -2673.560 8        49.359               
G13  24639899.576 7 129483522.048 7     -2799.363 7        43.037               
G14  27079394.531 6 142303182.329 6      -391.560 6        40.159               
G15  22488697.273 7 118178881.587 7     -1083.587 7        44.830               
G18  23387077.181 7 122899941.862 7      -400.503 7        45.837               
G24  22475926.712 7 118111806.391 7      1646.513 7        47.052               
> 2025 08 06 06 04 33.0000000  0  6                                             
G05  24911660.129 8 130911656.726 8     -2673.734 8        49.290               
G13  24640433.395 7 129486321.399 7     -2799.168 7        43.131               
G14  27079466.364 6 142303574.156 6      -391.856 6        39.898               
G15  22488902.589 7 118179965.507 7     -1084.083 7        44.860               
G18  23387154.732 7 122900342.874 7      -401.429 7        45.606               
G24  22475615.040 7 118110160.163 7      1645.995 7        46.931               
> 2025 08 06 06 04 34.0000000  0  6                                             
G05  24912169.397 8 130914330.787 8     -2674.206 8        49.151               
G13  24640966.267 7 129489120.883 7     -2799.479 7        43.207               
G14  27079541.057 6 142303966.573 6      -392.629 6        39.667               
G15  22489108.940 7 118181049.799 7     -1084.397 7        44.846               
G18  23387233.928 7 122900744.639 7      -402.105 7        45.789               
G24  22475304.566 7 118108514.642 7      1645.145 7        46.859               
> 2025 08 06 06 04 35.0000000  0  6                                             
G05  24912677.860 8 130917005.144 8     -2674.563 8        49.081               
G13  24641497.246 7 129491920.456 7     -2799.324 7        43.359               
G14  27079617.143 6 142304359.513 6      -393.331 6        39.562               
G15  22489317.007 7 118182134.385 7     -1084.831 7        44.853               
G18  23387311.801 7 122901147.088 7      -402.797 7        45.746               
G24  22474993.484 7 118106869.761 7      1644.599 7        46.668               
> 2025 08 06 06 04 36.0000000  0  6                                             
G05  24913187.163 8 130919679.836 8     -2674.833 8        49.108               
G13  24642028.563 7 129494720.141 7     -2799.815 7        43.354               
G14  27079698.018 6 142304753.031 6      -393.627 6        39.680               
G15  22489522.108 7 118183219.317 7     -1084.998 7        45.029               
G18  23387389.031 7 122901550.268 7      -403.519 7        45.815               
G24  22474681.866 7 118105225.553 7      1643.897 7        46.860               
> 2025 08 06 06 04 37.0000000  0  6                                             
G05  24913697.841 8 130922354.792 8     -2675.123 8        49.152               
G13  24642560.077 7 129497519.871 7     -2799.987 7        43.268               
G14  27079775.927 6 142305147.056 6      -394.363 6        39.817               
G15  22489727.762 7 118184304.522 7     -1085.355 7        45.415               
G18  23387466.118 7 122901954.108 7      -404.175 7        45.630               
G24  22474368.658 7 118103581.965 7      1643.241 7        46.728               
> 2025 08 06 06 04 38.0000000  0  6                                             
G05  24914208.216 8 130925030.084 8     -2675.504 8        49.208               
G13  24643090.716 7 129500319.730 7     -2799.833 7        43.209               
G14  27079850.048 6 142305541.650 6      -394.838 6        39.916               
G15  22489934.274 7 118185390.061 7     -1085.816 7        45.379               
G18  23387544.116 7 122902358.673 7      -404.964 7        45.711               
G24  22474053.430 7 118101939.045 7      1642.681 7        46.916               
> 2025 08 06 06 04 39.0000000  0  6                                             
G05  24914718.949 8 130927705.585 8     -2675.678 8        49.132               
G13  24643624.463 7 129503119.575 7     -2799.972 7        43.162               
G14  27079923.829 6 142305936.672 6      -395.535 6        39.723               
G15  22490140.376 7 118186475.824 7     -1085.975 7        45.131               
G18  23387621.400 7 122902763.844 7      -405.616 7        45.686               
G24  22473739.329 7 118100296.675 7      1641.914 7        46.867               
> 2025 08 06 06 04 40.0000000  0  6                                             
G05  24915228.091 8 130930381.367 8     -2676.037 8        49.191               
G13  24644157.353 7 129505919.481 7     -2799.955 7        43.225               
G14  27079994.662 6 142306332.206 6      -395.961 6        39.392               
G15  22490347.299 7 118187561.871 7     -1086.336 7        45.143               
G18  23387698.183 7 122903169.691 7      -406.256 7        45.357               
G24  22473427.014 7 118098654.933 7      1641.350 7        46.991               
> 2025 08 06 06 04 41.0000000  0  6                                             
G05  24915737.322 8 130933057.441 8     -2676.225 8        49.318               
G13  24644690.440 7 129508719.465 7     -2800.089 7        43.453               
G14  27080070.140 6 142306728.279 6      -396.119 6        39.265               
G15  22490554.848 7 118188648.222 7     -1086.617 7        45.181               
G18  23387775.163 7 122903576.224 7      -406.865 7        45.354               
G24  22473117.326 7 118097013.828 7      1640.597 7        46.940               
> 2025 08 06 06 04 42.0000000  0  6                                             
G05  24916247.036 8 130935733.759 8     -2676.583 8        49.216               
G13  24645223.705 7 129511519.483 7     -2800.040 7        43.625               
G14  27080144.065 6 142307124.808 6      -396.884 6        38.981               
G15  22490761.235 7 118189734.827 7     -1086.774 7        45.102               
G18  23387852.267 7 122903983.396 7      -407.659 7        45.189               
G24  22472806.691 7 118095373.321 7      1640.113 7        46.599               
> 2025 08 06 06 04 43.0000000  0  6                                             
G05  24916756.750 8 130938410.378 8     -2676.722 8        49.369               
G13  24645758.829 7 129514319.579 7     -2800.024 7        43.521               
G14  27080217.631 6 142307521.890 6      -397.177 6        38.770               
G15  22490966.639 7 118190821.745 7     -1087.022 7        45.254               
G18  23387930.766 7 122904391.262 7      -408.348 7        45.369               
G24  22472495.859 7 118093733.468 7      1639.535 7        46.770               
> 2025 08 06 06 04 44.0000000  0  6                                             
G05  24917265.249 8 130941087.276 8     -2676.891 8        49.417               
G13  24646294.078 7 129517119.732 7     -2800.164 7        43.475               
G14  27080292.538 6 142307919.476 6      -397.594 6        38.510               
G15  22491173.027 7 118191908.942 7     -1087.093 7        44.947               
G18  23388006.781 7 122904799.801 7      -408.788 7        45.547               
G24  22472184.724 7 118092094.239 7      1638.915 7        46.923               
> 2025 08 06 06 04 45.0000000  0  6                                             
G05  24917773.444 8 130943764.468 8     -2677.327 8        49.496               
G13  24646825.467 7 129519919.945 7     -2800.267 7        43.562               
G14  27080372.860 6 142308317.572 6      -398.639 6        38.325               
G15  22491378.199 7 118192996.422 7     -1087.607 7        44.962               
G18  23388082.742 7 122905209.013 7      -409.693 7        45.634               
G24  22471870.997 7 118090455.600 7      1638.422 7        46.853               
> 2025 08 06 06 04 46.0000000  0  6                                             
G05  24918281.460 8 130946441.948 8     -2677.681 8        49.452               
G13  24647357.642 7 129522720.233 7     -2800.356 7        43.615               
G14  27080450.572 6 142308716.199 6      -398.874 6        38.017               
G15  22491583.907 7 118194084.190 7     -1087.900 7        44.839               
G18  23388159.597 7 122905618.905 7      -410.210 7        45.612               
G24  22471558.111 7 118088817.603 7      1637.595 7        47.108               
> 2025 08 06 06 04 47.0000000  0  6                                             
G05  24918789.745 8 130949119.734 8     -2677.993 8        49.133               
G13  24647890.639 7 129525520.603 7     -2800.388 7        43.561               
G14  27080533.127 6 142309115.364 6      -399.661 6        37.958               
G15  22491789.043 7 118195172.269 7     -1088.371 7        44.609               
G18  23388237.631 7 122906029.493 7      -411.146 7        45.865               
G24  22471244.617 7 118087180.247 7      1637.143 7        47.186               
> 2025 08 06 06 04 48.0000000  0  6                                             
G05  24919298.869 8 130951797.825 8     -2678.291 8        49.044               
G13  24648421.438 7 129528321.054 7     -2800.370 7        43.388               
G14  27080612.036 6 142309515.061 6      -399.940 6        38.152               
G15  22491996.181 7 118196260.672 7     -1088.568 7        44.732               
G18  23388314.700 7 122906440.783 7      -411.627 7        45.722               
G24  22470932.963 7 118085543.539 7      1636.257 7        47.125               
> 2025 08 06 06 04 49.0000000  0  6                                             
G05  24919807.439 8 130954476.247 8     -2678.588 8        49.016               
G13  24648950.522 7 129531121.588 7     -2800.631 7        43.640               
G14  27080685.442 6 142309915.312 6      -400.536 6        38.089               
G15  22492202.622 7 118197349.387 7     -1088.990 7        44.881               
G18  23388394.003 7 122906852.769 7      -412.340 7        45.655               
G24  22470620.952 7 118083907.484 7      1635.791 7        47.159               
> 2025 08 06 06 04 50.0000000  0  6                                             
G05  24920315.920 8 130957154.952 8     -2678.950 8        48.861               
G13  24649482.018 7 129533922.200 7     -2800.574 7        43.532               
G14  27080760.457 6 142310316.081 6      -400.906 6        38.179               
G15  22492410.957 7 118198438.390 7     -1089.150 7        44.556               
G18  23388471.822 7 122907265.442 7      -413.134 7        45.505               
G24  22470309.477 7 118082272.056 7      1635.131 7        47.248               
> 2025 08 06 06 04 51.0000000  0  6                                             
G05  24920826.295 8 130959834.035 8     -2679.102 8        48.725               
G13  24650015.391 7 129536722.946 7     -2800.717 7        43.643               
G14  27080838.544 6 142310717.413 6      -401.485 6        38.204               
G15  22492617.809 7 118199527.761 7     -1089.374 7        44.537               
G18  23388550.374 7 122907678.854 7      -413.615 7        45.517               
G24  22469999.628 7 118080637.332 7      1634.516 7        47.303               
> 2025 08 06 06 04 52.0000000  0  6                                             
G05  24921337.188 8 130962513.412 8     -2679.760 8        48.599               
G13  24650548.209 7 129539523.774 7     -2800.988 7        43.600               
G14  27080911.736 6 142311119.292 6      -402.313 6        38.048               
G15  22492824.964 7 118200617.441 7     -1090.033 7        44.648               
G18  23388627.658 7 122908092.972 7      -414.516 7        45.431               
G24  22469688.278 7 118079003.248 7      1633.767 7        47.193               
> 2025 08 06 06 04 53.0000000  0  6                                             
G05  24921848.296 8 130965193.037 8     -2679.701 8        48.602               
G13  24651081.564 7 129542324.636 7     -2800.930 7        43.632               
G14  27080986.535 6 142311521.659 6      -402.459 6        38.033               
G15  22493033.728 7 118201707.381 7     -1090.067 7        44.579               
G18  23388706.961 7 122908507.727 7      -414.979 7        45.292               
G24  22469377.500 7 118077369.764 7      1633.093 7        47.175               
> 2025 08 06 06 04 54.0000000  0  6                                             
G05  24922358.742 8 130967873.017 8     -2680.110 8        48.867               
G13  24651611.988 7 129545125.630 7     -2801.033 7        43.115               
G14  27081059.513 6 142311924.606 6      -403.429 6        37.631               
G15  22493241.920 7 118202797.676 7     -1090.492 7        44.525               
G18  23388786.782 7 122908923.217 7      -415.835 7        45.491               
G24  22469067.794 7 118075736.973 7      1632.482 7        47.157               
> 2025 08 06 06 04 55.0000000  0  6                                             
G05  24922870.350 8 130970553.267 8     -2680.223 8        49.008               
G13  24652146.290 7 129547926.674 7     -2801.083 7        43.085               
G14  27081136.957 6 142312328.048 6      -403.726 6        37.431               
G15  22493450.040 7 118203888.249 7     -1090.712 7        44.345               
G18  23388867.550 7 122909339.377 7      -416.562 7        45.675               
G24  22468757.785 7 118074104.790 7      1631.910 7        47.302               
> 2025 08 06 06 04 56.0000000  0  6                                             
G05  24923381.387 8 130973233.771 8     -2680.708 8        49.091               
G13  24652680.574 7 129550727.746 7     -2801.246 7        43.255               
G14  27081211.632 6 142312731.985 6      -404.315 6        37.282               
G15  22493657.804 7 118204979.076 7     -1091.021 7        44.158               
G18  23388948.067 7 122909756.183 7      -417.243 7        45.252               
G24  22468448.990 7 118072473.213 7      1631.181 7        46.744               
> 2025 08 06 06 04 57.0000000  0  6                                             
G05  24923892.262 8 130975914.620 8     -2680.898 8        49.491               
G13  24653213.178 7 129553528.959 7     -2801.200 7        43.164               
G14  27081290.791 6 142313136.487 6      -404.979 6        37.145               
G15  22493866.746 7 118206070.256 7     -1091.508 7        44.147               
G18  23389026.673 7 122910173.723 7      -417.991 7        45.339               
G24  22468138.927 7 118070842.321 7      1630.580 7        46.932               
> 2025 08 06 06 04 58.0000000  0  6                                             
G05  24924402.405 8 130978595.813 8     -2681.316 8        49.747               
G13  24653745.925 7 129556330.293 7     -2801.267 7        43.136               
G14  27081366.592 6 142313541.571 6      -405.379 6        36.850               
G15  22494074.992 7 118207161.791 7     -1091.591 7        44.164               
G18  23389106.673 7 122910592.009 7      -418.467 7        45.534               
G24  22467827.988 7 118069212.111 7      1629.880 7        47.163               
> 2025 08 06 06 04 59.0000000  0  6                                             
G05  24924911.886 8 130981277.298 8     -2681.830 8        49.673               
G13  24654281.030 7 129559131.686 7     -2801.577 7        43.296               
G14  27081447.949 6 142313947.184 6      -406.075 6        36.907               
G15  22494283.755 7 118208253.627 7     -1091.965 7        44.127               
G18  23389186.297 7 122911010.977 7      -419.481 7        45.525               
G24  22467516.442 7 118067582.542 7      1629.088 7        47.473               
> 2025 08 06 06 05 00.0000000  0  6                                             
G05  24925420.975 8 130983959.073 8     -2681.974 8        49.609               
G13  24654814.081 7 129561933.164 7     -2801.741 7        43.152               
G14  27081525.090 6 142314353.325 6      -406.360 6        36.967               
G15  22494491.519 7 118209345.755 7     -1092.288 7        44.280               
G18  23389266.297 7 122911430.627 7      -420.239 7        45.456               
G24  22467205.806 7 118065953.607 7      1628.673 7        47.431               
> 2025 08 06 06 05 01.0000000  0  6                                             
G05  24925931.260 8 130986641.205 8     -2682.361 8        49.534               
G13  24655346.399 7 129564734.765 7     -2801.726 7        43.173               
G14  27081605.518 6 142314760.050 6      -406.765 6        36.791               
G15  22494700.425 7 118210438.256 7     -1092.628 7        44.386               
G18  23389347.029 7 122911851.022 7      -420.687 7        45.245               
G24  22466895.832 7 118064325.368 7      1627.793 7        47.332               
> 2025 08 06 06 05 02.0000000  0  6                                             
G05  24926440.134 8 130989323.610 8     -2682.568 8        49.489               
G13  24655879.522 7 129567536.412 7     -2801.505 7        43.382               
G14  27081679.961 6 142315167.270 6      -407.446 6        36.481               
G15  22494908.832 7 118211531.010 7     -1092.901 7        44.152               
G18  23389427.958 7 122912272.075 7      -421.336 7        45.201               
G24  22466586.716 7 118062697.735 7      1627.356 7        47.478               
> 2025 08 06 06 05 03.0000000  0  6                                             
G05  24926948.955 8 130992006.264 8     -2682.755 8        49.440               
G13  24656413.091 7 129570338.094 7     -2801.670 7        43.491               
G14  27081754.778 6 142315574.963 6      -407.788 6        36.357               
G15  22495118.221 7 118212624.033 7     -1093.072 7        44.324               
G18  23389507.386 7 122912693.766 7      -421.829 7        45.264               
G24  22466279.887 7 118061070.698 7      1626.921 7        47.629               
> 2025 08 06 06 05 04.0000000  0  6                                             
G05  24927459.062 8 130994689.230 8     -2683.150 8        49.280               
G13  24656948.750 7 129573139.851 7     -2801.627 7        43.291               
G14  27081829.810 6 142315983.201 6      -408.665 6        36.184               
G15  22495328.629 7 118213717.366 7     -1093.584 7        44.390               
G18  23389585.777 7 122913116.156 7      -422.793 7        45.086               
G24  22465973.094 7 118059444.313 7      1625.971 7        47.637               
> 2025 08 06 06 05 05.0000000  0  6                                             
G05  24927969.222 8 130997372.511 8     -2683.622 8        49.289               
G13  24657483.517 7 129575941.709 7     -2802.110 7        43.299               
G14  27081902.269 5 142316391.993 5      -409.422 5        35.861               
G15  22495537.464 7 118214811.024 7     -1094.106 7        44.635               
G18  23389664.687 7 122913539.253 7      -423.636 7        45.014               
G24  22465663.906 7 118057818.589 7      1625.228 7        47.620               
> 2025 08 06 06 05 06.0000000  0  7                                             
G05  24928482.296 8 131000056.122 8     -2683.912 8        49.122               
G13  24658016.478 7 129578743.676 7     -2802.090 7        43.329               
G14  27081977.962 5 142316801.349 5      -410.196 5        35.260               
G15  22495745.102 7 118215905.024 7     -1094.327 7        45.040               
G18  23389744.883 7 122913963.079 7      -424.278 7        44.958               
G23  23667064.632 6 124371261.095 6      2415.425 6        41.557               
G24  22465354.290 7 118056193.536 7      1624.570 7        47.834               
> 2025 08 06 06 05 07.0000000  0  7                                             
G05  24928993.421 8 131002740.048 8     -2684.090 8        49.105               
G13  24658550.172 7 129581545.738 7     -2802.163 7        43.396               
G14  27082060.642 5 142317211.250 5      -410.592 5        35.039               
G15  22495952.544 7 118216999.347 7     -1094.403 7        45.170               
G18  23389827.134 7 122914387.617 7      -425.015 7        45.274               
G23  23666605.881 6 124368845.525 6      2415.179 6        41.919               
G24  22465043.851 7 118054569.157 7      1624.117 7        47.862               
> 2025 08 06 06 05 08.0000000  0  7                                             
G05  24929505.172 8 131005424.229 8     -2684.293 8        49.206               
G13  24659085.618 7 129584347.839 7     -2802.134 7        43.527               
G14  27082145.931 5 142317621.642 5      -410.382 5        34.975               
G15  22496158.859 7 118218093.923 7     -1094.793 7        45.454               
G18  23389907.705 7 122914812.803 7      -425.520 7        45.190               
G23  23666142.698 7 124366430.117 7      2415.069 7        42.111               
G24  22464733.556 7 118052945.370 7      1623.479 7        47.907               
> 2025 08 06 06 05 09.0000000  0  7                                             
G05  24930016.244 8 131008108.699 8     -2684.703 8        49.294               
G13  24659619.437 7 129587150.017 7     -2802.201 7        43.724               
G14  27082223.268 5 142318032.534 5      -411.391 5        35.036               
G15  22496364.424 7 118219188.820 7     -1095.250 7        45.263               
G18  23389989.706 7 122915238.680 7      -426.356 7        45.421               
G23  23665682.231 6 124364014.928 6      2414.736 6        41.932               
G24  22464423.832 7 118051322.218 7      1622.712 7        47.964               
> 2025 08 06 06 05 10.0000000  0  7                                             
G05  24930526.798 8 131010793.482 8     -2684.930 8        49.240               
G13  24660150.004 7 129589952.289 7     -2802.275 7        43.719               
G14  27082298.533 5 142318444.004 5      -411.798 5        34.932               
G15  22496570.651 7 118220284.023 7     -1095.330 7        45.397               
G18  23390073.387 7 122915665.248 7      -426.868 7        45.676               
G23  23665223.748 6 124361599.967 6      2414.925 6        41.876               
G24  22464113.786 8 118049699.723 8      1622.328 8        48.032               
> 2025 08 06 06 05 11.0000000  0  7                                             
G05  24931038.602 8 131013478.568 8     -2685.267 8        49.437               
G13  24660680.750 7 129592754.647 7     -2802.421 7        43.777               
G14  27082375.209 5 142318855.996 5      -412.599 5        34.741               
G15  22496777.020 7 118221379.535 7     -1095.725 7        45.138               
G18  23390155.066 7 122916092.521 7      -427.681 7        45.560               
G23  23664764.478 6 124359185.227 6      2414.604 6        41.956               
G24  22463805.313 7 118048077.875 7      1621.421 7        47.698               
> 2025 08 06 06 05 12.0000000  0  7                                             
G05  24931549.585 8 131016163.979 8     -2685.572 8        49.587               
G13  24661213.050 7 129595557.118 7     -2802.429 7        43.683               
G14  27082456.495 5 142319268.544 5      -411.970 5        34.127               
G15  22496984.480 7 118222475.386 7     -1096.015 7        45.203               
G18  23390235.280 7 122916520.516 7      -428.616 7        45.512               
G23  23664301.992 7 124356770.734 7      2414.545 7        42.009               
G24  22463496.858 7 118046456.706 7      1620.964 7        47.825               
> 2025 08 06 06 05 13.0000000  0  7                                             
G05  24932060.764 8 131018849.737 8     -2685.986 8        49.614               
G13  24661745.189 7 129598359.724 7     -2802.529 7        43.574               
G14  27082539.282 5 142319681.689 5      -413.061 5        33.771               
G15  22497194.458 7 118223571.600 7     -1096.328 7        45.186               
G18  23390314.958 7 122916949.258 7      -429.197 7        45.362               
G23  23663842.901 7 124354356.519 7      2414.142 7        42.199               
G24  22463189.207 7 118044836.230 7      1620.173 7        47.626               
> 2025 08 06 06 05 14.0000000  0  7                                             
G05  24932572.104 8 131021535.773 8     -2686.275 8        49.595               
G13  24662277.472 7 129601162.374 7     -2802.657 7        43.509               
G14  27082630.414 5 142320095.311 5      -414.086 5        33.602               
G15  22497403.991 7 118224668.088 7     -1096.686 7        45.256               
G18  23390395.905 7 122917378.667 7      -429.920 7        45.381               
G23  23663382.988 7 124351942.484 7      2413.950 7        42.398               
G24  22462880.252 7 118043216.375 7      1619.575 7        47.490               
> 2025 08 06 06 05 15.0000000  0  7                                             
G05  24933083.766 8 131024222.123 8     -2686.477 8        49.502               
G13  24662812.042 7 129603965.122 7     -2802.768 7        43.402               
G14  27082711.146 5 142320509.519 5      -414.607 5        33.695               
G15  22497613.523 7 118225764.891 7     -1096.980 7        45.251               
G18  23390477.709 7 122917808.789 7      -430.427 7        45.223               
G23  23662919.591 7 124349528.694 7      2413.518 7        42.454               
G24  22462571.029 7 118041597.161 7      1618.847 7        47.250               
> 2025 08 06 06 05 16.0000000  0  7                                             
G05  24933595.124 8 131026908.770 8     -2686.733 8        49.461               
G13  24663348.059 7 129606767.936 7     -2802.805 7        43.393               
G14  27082790.914 5 142320924.246 5      -414.520 5        33.575               
G15  22497822.501 7 118226861.997 7     -1097.249 7        45.211               
G18  23390559.961 7 122918239.586 7      -431.030 7        45.363               
G23  23662460.589 7 124347115.108 7      2413.733 7        42.602               
G24  22462262.806 7 118039978.597 7      1618.253 7        47.519               
> 2025 08 06 06 05 17.0000000  0  7                                             
G05  24934106.338 8 131029595.746 8     -2687.125 8        49.421               
G13  24663880.305 7 129609570.865 7     -2803.031 7        43.380               
G14  27082870.002 5 142321339.555 5      -415.958 5        33.230               
G15  22498032.569 7 118227959.443 7     -1097.666 7        45.128               
G18  23390643.713 7 122918671.107 7      -431.802 7        45.673               
G23  23662002.963 7 124344701.769 7      2412.978 7        42.681               
G24  22461955.369 7 118038360.706 7      1617.553 7        47.762               
> 2025 08 06 06 05 18.0000000  0  7                                             
G05  24934617.518 8 131032282.993 8     -2687.250 8        49.514               
G13  24664410.712 7 129612373.841 7     -2802.985 7        43.376               
G14  27082951.235 5 142321755.358 5      -415.323 5        33.142               
G15  22498242.369 7 118229057.165 7     -1097.744 7        45.458               
G18  23390727.590 7 122919103.290 7      -432.494 7        45.714               
G23  23661542.657 7 124342288.633 7      2413.118 7        42.729               
G24  22461649.398 7 118036743.434 7      1616.946 7        47.636               
> 2025 08 06 06 05 19.0000000  0  7                                             
G05  24935128.071 8 131034970.504 8     -2687.667 8        49.451               
G13  24664943.048 7 129615176.852 7     -2802.976 7        43.439               
G14  27083029.447 5 142322171.630 5      -416.499 5        32.629               
G15  22498451.008 7 118230155.155 7     -1097.995 7        45.549               
G18  23390811.217 7 122919536.122 7      -433.165 7        45.771               
G23  23661084.639 7 124339875.658 7      2413.022 7        42.791               
G24  22461342.766 7 118035126.777 7      1616.448 7        47.725               
> 2025 08 06 06 05 20.0000000  0  7                                             
G05  24935639.107 8 131037658.312 8     -2688.010 8        49.436               
G13  24665477.617 7 129617979.947 7     -2803.081 7        43.609               
G14  27083091.757 5 142322588.456 5      -416.770 5        32.476               
G15  22498658.861 7 118231253.439 7     -1098.412 7        45.623               
G18  23390892.682 7 122919969.645 7      -433.876 7        45.804               
G23  23660624.976 7 124337462.904 7      2412.548 7        42.401               
G24  22461037.366 7 118033510.751 7      1615.591 7        47.699               
> 2025 08 06 06 05 21.0000000  0  7                                             
G05  24936149.179 8 131040346.476 8     -2688.492 8        49.170               
G13  24666010.525 7 129620783.154 7     -2803.648 7        43.851               
G14  27083172.578 5 142323005.849 5      -418.200 5        32.419               
G15  22498869.197 7 118232352.082 7     -1099.002 7        45.823               
G18  23390975.237 7 122920403.911 7      -434.618 7        45.360               
G23  23660166.796 7 124335050.416 7      2412.371 7        42.286               
G24  22460730.180 7 118031895.415 7      1614.942 7        47.649               
> 2025 08 06 06 05 22.0000000  0  7                                             
G05  24936660.537 8 131043034.923 8     -2688.689 8        49.387               
G13  24666542.021 7 129623586.453 7     -2803.380 7        43.628               
G14  27083252.864 5 142323423.736 5      -418.543 5        31.905               
G15  22499078.318 7 118233451.023 7     -1099.161 7        45.716               
G18  23391056.701 7 122920838.860 7      -435.324 7        45.515               
G23  23659708.009 7 124332638.147 7      2412.123 7        42.562               
G24  22460421.760 7 118030280.720 7      1614.338 7        47.731               
> 2025 08 06 06 05 23.0000000  0  7                                             
G05  24937171.591 8 131045723.692 8     -2688.953 8        49.227               
G13  24667076.252 7 129626389.843 7     -2803.354 7        43.556               
G14  27083342.459 5 142323842.206 5      -418.333 5        31.497               
G15  22499288.029 7 118234550.285 7     -1099.470 7        45.678               
G18  23391138.935 7 122921274.520 7      -436.250 7        45.446               
G23  23659249.972 7 124330226.107 7      2411.706 7        42.775               
G24  22460112.519 7 118028666.680 7      1613.754 7        47.923               
> 2025 08 06 06 05 24.0000000  0  7                                             
G05  24937683.502 8 131048412.740 8     -2689.291 8        49.159               
G13  24667612.590 7 129629193.286 7     -2803.687 7        43.413               
G14  27083416.133 5 142324261.220 5      -419.365 5        30.968               
G15  22499496.721 7 118235649.842 7     -1099.727 7        45.602               
G18  23391221.365 7 122921710.854 7      -436.723 7        45.499               
G23  23658794.151 7 124327814.273 7      2411.759 7        42.848               
G24  22459804.779 7 118027053.270 7      1613.092 7        47.950               
> 2025 08 06 06 05 25.0000000  0  7                                             
G05  24938195.575 8 131051102.134 8     -2689.504 8        49.006               
G13  24668148.375 7 129631996.866 7     -2803.545 7        43.329               
G14  27083493.184 4 142324680.739 4      -420.421 4        29.828               
G15  22499707.022 7 118236749.758 7     -1099.984 7        45.489               
G18  23391303.223 7 122922147.939 7      -437.372 7        45.615               
G23  23658335.972 7 124325402.709 7      2411.381 7        42.904               
G24  22459497.306 8 118025440.562 8      1612.471 8        48.043               
> 2025 08 06 06 05 26.0000000  0  7                                             
G05  24938708.934 8 131053791.787 8     -2689.833 8        49.134               
G13  24668681.390 7 129634800.475 7     -2803.644 7        43.328               
G14  27083562.230 4 142325100.765 4      -419.814 4        29.132               
G15  22499916.929 7 118237849.920 7     -1100.254 7        45.510               
G18  23391385.402 7 122922585.666 7      -437.935 7        45.737               
G23  23657874.379 7 124322991.313 7      2411.481 7        42.865               
G24  22459189.941 8 118023828.445 8      1611.825 8        48.108               
> 2025 08 06 06 05 27.0000000  0  7                                             
G05  24939221.686 8 131056481.740 8     -2690.113 8        48.957               
G13  24669216.657 7 129637604.173 7     -2803.979 7        43.383               
G14  27083649.199 4 142325521.323 4      -423.853 4        27.550               
G15  22500127.802 7 118238950.403 7     -1100.593 7        45.412               
G18  23391469.404 7 122923024.091 7      -438.978 7        45.478               
G23  23657415.128 7 124320580.143 7      2411.162 7        42.927               
G24  22458883.130 7 118022216.977 7      1611.297 7        47.787               
> 2025 08 06 06 05 28.0000000  0  7                                             
G05  24939733.812 8 131059172.007 8     -2690.606 8        49.131               
G13  24669750.154 7 129640407.962 7     -2804.196 7        43.597               
G14  27083703.270 4 142325942.512 4      -421.796 4        26.102               
G15  22500337.620 7 118240051.200 7     -1101.208 7        45.583               
G18  23391553.585 7 122923463.209 7      -439.548 7        45.372               
G23  23656957.609 7 124318169.200 7      2410.601 7        43.048               
G24  22458575.283 7 118020606.164 7      1610.419 7        47.807               
> 2025 08 06 06 05 29.0000000  0  7                                             
G05  24940244.848 8 131061862.613 8     -2690.748 8        48.986               
G13  24670285.278 7 129643211.867 7     -2803.936 7        43.672               
G14  27083796.832 4 142326364.278 4      -421.989 4        24.823               
G15  22500547.098 7 118241152.329 7     -1101.409 7        45.449               
G18  23391638.374 7 122923903.065 7      -440.250 7        45.549               
G23  23656500.359 7 124315758.513 7      2410.507 7        42.953               
G24  22458267.703 7 118018996.030 7      1609.745 7        47.779               
> 2025 08 06 06 05 30.0000000  0  6                                             
G05  24940755.295 8 131064553.530 8     -2691.005 8        48.854               
G13  24670820.366 7 129646015.856 7     -2804.237 7        43.741               
G15  22500756.362 7 118242253.786 7     -1101.711 7        45.761               
G18  23391721.679 7 122924343.623 7      -440.984 7        45.666               
G23  23656042.947 7 124313348.065 7      2410.283 7        42.898               
G24  22457960.624 7 118017386.560 7      1609.094 7        47.761               
> 2025 08 06 06 05 31.0000000  0  6                                             
G05  24941266.956 8 131067244.761 8     -2691.356 8        48.778               
G13  24671353.828 7 129648819.923 7     -2803.864 7        43.503               
G15  22500966.288 7 118243355.553 7     -1101.881 7        45.953               
G18  23391806.414 7 122924784.887 7      -441.479 7        45.746               
G23  23655580.854 7 124310937.827 7      2410.439 7        42.853               
G24  22457654.027 7 118015777.727 7      1608.684 7        47.874               
> 2025 08 06 06 05 32.0000000  0  6                                             
G05  24941780.583 8 131069936.330 8     -2691.716 8        48.649               
G13  24671886.539 7 129651624.115 7     -2804.173 7        43.391               
G15  22501176.481 7 118244457.650 7     -1102.246 7        46.041               
G18  23391891.042 7 122925226.872 7      -442.459 7        45.945               
G23  23655121.835 7 124308527.852 7      2409.779 7        43.002               
G24  22457349.343 8 118014169.580 8      1607.926 8        48.017               
> 2025 08 06 06 05 33.0000000  0  6                                             
G05  24942292.674 8 131072628.151 8     -2691.856 8        48.819               
G13  24672417.142 7 129654428.331 7     -2804.113 7        43.464               
G15  22501385.388 7 118245560.012 7     -1102.557 7        45.861               
G18  23391976.295 7 122925669.492 7      -442.935 7        45.991               
G23  23654663.691 7 124306118.045 7      2409.772 7        43.169               
G24  22457045.873 7 118012562.036 7      1607.280 7        47.992               
> 2025 08 06 06 05 34.0000000  0  6                                             
G05  24942804.729 8 131075320.355 8     -2692.361 8        48.733               
G13  24672948.227 7 129657232.702 7     -2804.246 7        43.411               
G15  22501593.812 7 118246662.752 7     -1103.051 7        45.528               
G18  23392060.815 7 122926112.882 7      -443.884 7        46.094               
G23  23654205.958 7 124303708.531 7      2409.452 7        42.914               
G24  22456741.135 8 118010955.206 8      1606.539 8        48.019               
> 2025 08 06 06 05 35.0000000  0  6                                             
G05  24943317.194 8 131078012.873 8     -2692.665 8        48.682               
G13  24673483.011 7 129660037.190 7     -2804.584 7        43.426               
G15  22501802.343 7 118247765.830 7     -1103.292 7        45.525               
G18  23392145.265 7 122926556.995 7      -444.412 7        45.982               
G23  23653746.689 7 124301299.264 7      2409.255 7        43.033               
G24  22456435.610 8 118009349.050 8      1605.813 8        48.035               
> 2025 08 06 06 05 36.0000000  0  6                                             
G05  24943830.017 8 131080705.720 8     -2693.028 8        48.603               
G13  24674017.223 7 129662841.770 7     -2804.766 7        43.389               
G15  22502013.680 7 118248869.237 7     -1103.648 7        45.861               
G18  23392230.142 7 122927001.830 7      -445.159 7        46.040               
G23  23653287.669 7 124298890.246 7      2408.867 7        43.197               
G24  22456129.282 7 118007743.580 7      1605.138 7        47.903               
> 2025 08 06 06 05 37.0000000  0  6                                             
G05  24944343.555 8 131083398.893 8     -2693.361 8        48.578               
G13  24674551.543 7 129665646.466 7     -2804.680 7        43.529               
G15  22502224.052 7 118249972.990 7     -1103.854 7        45.898               
G18  23392314.931 7 122927447.380 7      -446.088 7        46.015               
G23  23652830.222 7 124296481.478 7      2408.849 7        43.311               
G24  22455823.149 7 118006138.772 7      1604.567 7        47.844               
> 2025 08 06 06 05 38.0000000  0  6                                             
G05  24944857.629 8 131086092.378 8     -2693.599 8        48.645               
G13  24675086.059 7 129668451.245 7     -2804.677 7        43.580               
G15  22502433.299 7 118251077.035 7     -1104.319 7        45.818               
G18  23392398.451 7 122927893.634 7      -446.503 7        45.860               
G23  23652371.185 7 124294072.942 7      2408.539 7        43.447               
G24  22455516.928 7 118004534.627 7      1603.919 7        47.613               
> 2025 08 06 06 05 39.0000000  0  6                                             
G05  24945370.399 8 131088786.160 8     -2693.881 8        48.794               
G13  24675620.521 7 129671256.105 7     -2804.733 7        43.546               
G15  22502645.565 7 118252181.392 7     -1104.561 7        45.835               
G18  23392482.096 7 122928340.571 7      -447.281 7        45.922               
G23  23651914.024 7 124291664.621 7      2408.193 7        43.445               
G24  22455210.707 7 118002931.124 7      1603.178 7        47.290               
> 2025 08 06 06 05 40.0000000  0  6                                             
G05  24945882.221 8 131091480.277 8     -2694.227 8        48.730               
G13  24676153.447 7 129674061.072 7     -2805.005 7        43.580               
G15  22502855.526 7 118253286.098 7     -1104.774 7        45.936               
G18  23392564.508 7 122928788.253 7      -447.898 7        46.289               
G23  23651454.718 7 124289256.559 7      2407.841 7        43.555               
G24  22454906.254 7 118001328.303 7      1602.337 7        47.361               
> 2025 08 06 06 05 41.0000000  0  6                                             
G05  24946394.955 8 131094174.660 8     -2694.566 8        48.894               
G13  24676685.176 7 129676866.082 7     -2804.929 7        43.335               
G15  22503065.844 7 118254391.067 7     -1105.141 7        45.963               
G18  23392649.082 7 122929236.577 7      -448.742 7        46.178               
G23  23650995.610 7 124286848.674 7      2407.795 7        43.616               
G24  22454601.980 7 117999726.094 7      1601.832 7        47.525               
> 2025 08 06 06 05 42.0000000  0  6                                             
G05  24946908.689 8 131096869.300 8     -2694.856 8        49.067               
G13  24677218.030 7 129679671.121 7     -2805.480 7        43.456               
G15  22503274.447 7 118255496.286 7     -1105.535 7        45.943               
G18  23392735.389 7 122929685.538 7      -449.361 7        46.261               
G23  23650539.896 7 124284440.959 7      2407.452 7        43.696               
G24  22454297.564 7 117998124.468 7      1601.048 7        47.411               
> 2025 08 06 06 05 43.0000000  0  6                                             
G05  24947421.066 8 131099564.202 8     -2695.121 8        49.233               
G13  24677751.456 7 129682476.195 7     -2804.876 7        43.505               
G15  22503485.337 7 118256601.782 7     -1105.503 7        45.866               
G18  23392824.663 7 122930135.162 7      -449.861 7        46.348               
G23  23650081.448 7 124282033.427 7      2407.436 7        43.822               
G24  22453991.503 7 117996523.463 7      1600.796 7        47.319               
> 2025 08 06 06 05 44.0000000  0  6                                             
G05  24947933.603 8 131102259.420 8     -2695.252 8        49.366               
G13  24678286.079 7 129685281.361 7     -2805.060 7        43.303               
G15  22503695.781 7 118257707.584 7     -1105.755 7        45.786               
G18  23392911.238 7 122930585.488 7      -450.604 7        46.364               
G23  23649623.394 7 124279626.127 7      2407.191 7        43.881               
G24  22453687.551 7 117994923.102 7      1600.199 7        47.292               
> 2025 08 06 06 05 45.0000000  0  6                                             
G05  24948446.158 8 131104954.924 8     -2695.708 8        49.576               
G13  24678821.060 7 129688086.593 7     -2805.179 7        43.446               
G15  22503905.420 7 118258813.685 7     -1106.427 7        45.598               
G18  23392998.385 7 122931036.489 7      -451.330 7        46.595               
G23  23649168.180 7 124277219.034 7      2406.812 7        43.702               
G24  22453383.295 7 117993323.383 7      1599.390 7        47.572               
> 2025 08 06 06 05 46.0000000  0  6                                             
G05  24948960.178 8 131107650.717 8     -2696.025 8        49.643               
G13  24679353.896 7 129690891.895 7     -2805.595 7        43.435               
G15  22504115.453 7 118259920.086 7     -1106.552 7        45.410               
G18  23393086.104 7 122931488.172 7      -451.965 7        46.511               
G23  23648710.501 7 124274812.155 7      2406.711 7        43.810               
