     3.02           OBSERVATION DATA    G                   RINEX VERSION / TYPE
G = GPS  R = GLONASS  E = GALILEO  S = GEO  M = MIXED       COMMENT             
GNSS-SDR            suhjw               20250728 065830 UTC PGM / RUN BY / DATE 
GPS OBSERVATION DATA FILE GENERATED BY GNSS-SDR             COMMENT             
GNSS-SDR VERSION 0.0.20                                     COMMENT             
See https://gnss-sdr.org                                    COMMENT             
DEFAULT MARKER NAME                                         MARKER NAME         
suhjw               CTTC                                    OBSERVER / AGENCY   
GNSS-SDR            Software Receiver   0.0.20              REC # / TYPE / VERS 
Antenna number      Antenna type                            ANT # / TYPE        
        0.0000        0.0000        0.0000                  APPROX POSITION XYZ 
        0.0000        0.0000        0.0000                  ANTENNA: DELTA H/E/N
G    4 C1C L1C D1C S1C                                      SYS / # / OBS TYPES 
DBHZ                                                        SIGNAL STRENGTH UNIT
  2025    07    28    06    58   48.1200000     GPS         TIME OF FIRST OBS   
                                                            END OF HEADER       
> 2025 07 28 06 58 49.0000000  0  5                                             
G05  26616805.691 7 139872254.314 7     -2961.846 7        47.853               
G13  26379178.456 6 138623519.393 6     -2859.735 6        41.757               
G15  23895959.624 7 125574125.001 7     -1378.176 7        46.334               
G23  24396108.060 7 128202417.402 7      2154.778 7        44.594               
G24  23389612.165 7 122913224.730 7       957.666 7        46.246               
> 2025 07 28 06 58 50.0000000  0  5                                             
G05  26617369.673 8 139875217.353 8     -2964.241 8        48.193               
G13  26379722.412 6 138626378.414 6     -2864.823 6        41.791               
G15  23896221.874 7 125575501.277 7     -1376.598 7        47.079               
G23  24395703.157 7 128200261.196 7      2158.105 7        44.695               
G24  23389429.204 7 122912267.491 7       956.888 7        46.628               
> 2025 07 28 06 58 51.0000000  0  5                                             
G05  26617932.279 7 139878180.686 7     -2964.691 7        47.835               
G13  26380260.993 7 138629237.508 7     -2856.804 7        42.008               
G15  23896482.525 7 125576877.875 7     -1380.522 7        46.832               
G23  24395291.999 7 128198105.339 7      2156.136 7        44.095               
G24  23389244.765 7 122911310.942 7       959.230 7        46.877               
> 2025 07 28 06 58 52.0000000  0  5                                             
G05  26618494.841 8 139881144.223 8     -2964.081 8        48.237               
G13  26380804.032 7 138632096.564 7     -2861.063 7        42.028               
G15  23896742.216 7 125578254.674 7     -1372.963 7        46.271               
G23  24394881.423 7 128195949.668 7      2157.936 7        44.897               
G24  23389060.204 7 122910354.995 7       955.283 7        46.705               
> 2025 07 28 06 58 53.0000000  0  5                                             
G05  26619057.791 7 139884108.051 7     -2965.213 7        47.683               
G13  26381345.366 7 138634955.674 7     -2853.628 7        42.169               
G15  23897004.582 7 125579631.785 7     -1373.835 7        46.302               
G23  24394472.187 7 128193794.359 7      2150.781 7        44.654               
G24  23388877.266 7 122909399.739 7       957.951 7        46.226               
> 2025 07 28 06 58 54.0000000  0  5                                             
G05  26619622.506 7 139887072.081 7     -2965.338 7        47.461               
G13  26381883.080 6 138637814.790 6     -2859.268 6        41.648               
G15  23897265.506 7 125581009.123 7     -1380.872 7        46.131               
G23  24394061.029 7 128191639.266 7      2158.995 7        44.860               
G24  23388694.877 7 122908445.125 7       953.144 7        45.817               
> 2025 07 28 06 58 55.0000000  0  5                                             
G05  26620186.390 7 139890036.403 7     -2962.591 7        47.086               
G13  26382431.123 6 138640673.926 6     -2859.435 6        41.766               
G15  23897528.091 7 125582386.740 7     -1379.846 7        46.328               
G23  24393652.905 7 128189484.490 7      2155.299 7        44.289               
G24  23388516.785 7 122907491.170 7       951.621 7        46.161               
> 2025 07 28 06 58 56.0000000  0  5                                             
G05  26620749.742 7 139893000.969 7     -2963.698 7        47.011               
G13  26382972.608 6 138643533.105 6     -2864.721 6        41.515               
G15  23897794.112 7 125583764.618 7     -1378.032 7        46.347               
G23  24393239.085 7 128187329.996 7      2153.072 7        44.915               
G24  23388337.452 7 122906537.898 7       951.973 7        46.888               
> 2025 07 28 06 58 57.0000000  0  5                                             
G05  26621310.963 7 139895965.842 7     -2964.751 7        47.033               
G13  26383517.193 6 138646392.317 6     -2855.291 6        41.192               
G15  23898058.256 7 125585142.813 7     -1374.546 7        46.691               
G23  24392833.901 7 128185175.825 7      2156.591 7        44.913               
G24  23388150.412 7 122905585.310 7       951.925 7        46.372               
> 2025 07 28 06 58 58.0000000  0  5                                             
G05  26621876.008 7 139898930.954 7     -2965.762 7        47.517               
G13  26384066.760 6 138649251.579 6     -2857.284 6        41.919               
G15  23898321.476 7 125586521.280 7     -1381.191 7        46.446               
G23  24392420.045 7 128183021.959 7      2149.706 7        45.155               
G24  23387970.578 7 122904633.379 7       952.708 7        45.876               
> 2025 07 28 06 58 59.0000000  0  5                                             
G05  26622442.224 7 139901896.294 7     -2963.611 7        47.534               
G13  26384615.727 7 138652110.815 7     -2861.740 7        42.249               
G15  23898582.140 7 125587899.969 7     -1381.687 7        46.444               
G23  24392012.766 7 128180868.332 7      2154.927 7        45.521               
G24  23387787.935 7 122903682.082 7       948.157 7        45.835               
> 2025 07 28 06 59 00.0000000  0  5                                             
G05  26623010.571 7 139904861.923 7     -2966.004 7        47.181               
G13  26385156.596 7 138654970.091 7     -2860.731 7        42.297               
G15  23898846.231 7 125589278.953 7     -1381.223 7        46.443               
G23  24391606.473 7 128178715.011 7      2152.525 7        45.401               
G24  23387607.609 7 122902731.466 7       950.984 7        45.681               
> 2025 07 28 06 59 01.0000000  0  5                                             
G05  26623571.797 7 139907827.839 7     -2964.974 7        47.646               
G13  26385700.605 7 138657829.447 7     -2860.408 7        42.731               
G15  23899109.978 7 125590658.239 7     -1379.095 7        46.669               
G23  24391196.486 7 128176562.015 7      2155.309 7        45.374               
G24  23387427.020 7 122901781.562 7       951.769 7        45.805               
> 2025 07 28 06 59 02.0000000  0  5                                             
G05  26624134.756 7 139910794.012 7     -2967.491 7        47.481               
G13  26386247.066 7 138660688.813 7     -2859.324 7        42.189               
G15  23899367.970 7 125592037.776 7     -1378.049 7        46.082               
G23  24390785.284 7 128174409.306 7      2151.751 7        45.292               
G24  23387246.307 7 122900832.300 7       952.405 7        45.839               
> 2025 07 28 06 59 03.0000000  0  5                                             
G05  26624699.962 7 139913760.465 7     -2967.575 7        47.684               
G13  26386786.760 7 138663548.242 7     -2864.723 7        42.470               
G15  23899632.204 7 125593417.620 7     -1379.354 7        45.717               
G23  24390374.351 7 128172256.899 7      2152.715 7        44.812               
G24  23387067.683 7 122899883.732 7       944.640 7        46.376               
> 2025 07 28 06 59 04.0000000  0  5                                             
G05  26625262.121 7 139916727.184 7     -2967.145 7        47.320               
G13  26387331.207 7 138666407.708 7     -2857.362 7        42.078               
G15  23899893.699 7 125594797.751 7     -1379.618 7        46.496               
G23  24389959.981 7 128170104.807 7      2150.891 7        45.355               
G24  23386887.211 7 122898935.836 7       951.733 7        45.930               
> 2025 07 28 06 59 05.0000000  0  5                                             
G05  26625830.816 7 139919694.223 7     -2967.955 7        47.395               
G13  26387869.627 7 138669267.240 7     -2862.418 7        42.076               
G15  23900157.433 7 125596178.199 7     -1379.244 7        46.576               
G23  24389556.079 7 128167953.061 7      2148.665 7        44.776               
G24  23386706.296 7 122897988.672 7       953.033 7        46.200               
> 2025 07 28 06 59 06.0000000  0  5                                             
G05  26626395.335 7 139922661.453 7     -2966.659 7        47.489               
G13  26388414.409 6 138672126.751 6     -2863.086 6        41.869               
G15  23900416.829 7 125597558.854 7     -1381.718 7        46.268               
G23  24389146.789 7 128165801.538 7      2148.479 7        44.945               
G24  23386524.505 7 122897042.100 7       943.287 7        46.376               
> 2025 07 28 06 59 07.0000000  0  5                                             
G05  26626958.785 7 139925628.942 7     -2969.947 7        47.329               
G13  26388960.696 6 138674986.266 6     -2860.750 6        41.832               
G15  23900679.619 7 125598939.779 7     -1380.301 7        46.050               
G23  24388736.413 7 128163650.298 7      2151.957 7        45.068               
G24  23386345.752 7 122896096.182 7       947.471 7        45.809               
> 2025 07 28 06 59 08.0000000  0  5                                             
G05  26627523.862 7 139928596.646 7     -2967.181 7        47.426               
G13  26389507.395 7 138677845.780 7     -2857.134 7        42.335               
G15  23900941.744 7 125600320.932 7     -1382.540 7        46.482               
G23  24388327.816 7 128161499.298 7      2150.526 7        45.407               
G24  23386166.522 7 122895150.892 7       941.449 7        45.057               
> 2025 07 28 06 59 09.0000000  0  5                                             
G05  26628090.439 7 139931564.583 7     -2966.684 7        47.132               
G13  26390048.344 7 138680705.307 7     -2862.777 7        42.693               
G15  23901204.066 7 125601702.333 7     -1381.210 7        46.391               
G23  24387918.620 7 128159348.577 7      2149.543 7        45.862               
G24  23385986.983 7 122894206.237 7       943.043 7        45.646               
> 2025 07 28 06 59 10.0000000  0  5                                             
G05  26628653.447 7 139934532.788 7     -2968.274 7        47.286               
G13  26390597.682 7 138683564.871 7     -2860.675 7        42.597               
G15  23901467.456 7 125603084.016 7     -1386.929 7        46.234               
G23  24387508.749 7 128157198.172 7      2146.710 7        45.699               
G24  23385809.655 7 122893262.265 7       939.839 7        46.889               
> 2025 07 28 06 59 11.0000000  0  5                                             
G05  26629218.680 7 139937501.296 7     -2970.176 7        47.289               
G13  26391142.928 7 138686424.503 7     -2859.709 7        42.306               
G15  23901727.106 7 125604466.012 7     -1385.306 7        45.985               
G23  24387100.495 7 128155048.068 7      2153.642 7        45.498               
G24  23385628.825 7 122892319.015 7       942.807 7        46.435               
> 2025 07 28 06 59 12.0000000  0  6                                             
G05  26629782.716 7 139940470.070 7     -2970.872 7        47.586               
G13  26391693.683 7 138689284.151 7     -2861.061 7        42.777               
G14  28385354.446 7 149166038.317 7      -956.363 7        43.639               
G15  23901995.391 7 125605848.287 7     -1381.092 7        45.943               
G23  24386694.136 7 128152898.282 7      2148.193 7        45.390               
G24  23385449.902 7 122891376.426 7       942.093 7        46.101               
> 2025 07 28 06 59 13.0000000  0  6                                             
G05  26630350.165 7 139943439.090 7     -2970.813 7        47.136               
G13  26392236.053 7 138692143.803 7     -2860.004 7        42.592               
G14  28385531.171 7 149166993.877 7      -951.402 7        43.009               
G15  23902256.132 7 125607230.821 7     -1381.152 7        45.926               
G23  24386282.384 7 128150748.758 7      2151.221 7        45.232               
G24  23385267.536 7 122890434.475 7       940.103 7        45.517               
> 2025 07 28 06 59 14.0000000  0  6                                             
G05  26630912.141 7 139946408.316 7     -2971.038 7        47.657               
G13  26392779.923 7 138695003.462 7     -2859.996 7        42.700               
G14  28385706.345 6 149167949.911 6      -952.270 6        41.955               
G15  23902522.139 7 125608613.584 7     -1380.549 7        45.738               
G23  24385877.298 7 128148599.495 7      2149.766 7        45.422               
G24  23385087.335 7 122889493.164 7       938.259 7        45.536               
> 2025 07 28 06 59 15.0000000  0  6                                             
G05  26631478.343 7 139949377.864 7     -2968.295 7        47.868               
G13  26393323.320 7 138697863.189 7     -2858.099 7        43.561               
G14  28385887.604 7 149168906.518 7      -953.287 7        42.214               
G15  23902782.611 7 125609996.666 7     -1381.421 7        45.510               
G23  24385461.750 7 128146450.577 7      2142.016 7        45.137               
G24  23384907.551 7 122888552.556 7       942.634 7        44.905               
> 2025 07 28 06 59 16.0000000  0  6                                             
G05  26632044.957 7 139952347.635 7     -2971.095 7        47.878               
G13  26393868.254 7 138700722.907 7     -2857.546 7        42.859               
G14  28386071.896 7 149169863.602 7      -955.594 7        42.204               
G15  23903047.131 7 125611380.002 7     -1385.223 7        45.510               
G23  24385053.728 7 128144301.909 7      2143.838 7        44.770               
G24  23384734.757 7 122887612.587 7       939.171 7        45.517               
> 2025 07 28 06 59 17.0000000  0  6                                             
G05  26632607.326 7 139955317.679 7     -2970.954 7        47.377               
G13  26394408.550 7 138703582.731 7     -2862.563 7        42.960               
G14  28386256.130 7 149170821.232 7      -960.009 7        42.345               
G15  23903310.181 7 125612763.615 7     -1389.247 7        44.901               
G23  24384647.387 7 128142153.556 7      2148.226 7        45.264               
G24  23384555.187 7 122886673.320 7       939.681 7        46.156               
> 2025 07 28 06 59 18.0000000  0  6                                             
G05  26633172.640 7 139958287.973 7     -2968.863 7        47.686               
G13  26394952.948 7 138706442.542 7     -2858.336 7        42.963               
G14  28386443.304 7 149171779.355 7      -956.854 7        42.610               
G15  23903574.924 7 125614147.495 7     -1389.821 7        46.033               
G23  24384235.885 7 128140005.498 7      2149.308 7        45.570               
G24  23384378.449 7 122885734.688 7       938.526 7        45.893               
> 2025 07 28 06 59 19.0000000  0  6                                             
G05  26633739.820 7 139961258.535 7     -2970.856 7        47.952               
G13  26395495.501 7 138709302.378 7     -2861.662 7        42.943               
G14  28386626.033 7 149172738.006 7      -956.548 7        42.940               
G15  23903835.977 7 125615531.661 7     -1381.864 7        46.136               
G23  24383826.591 7 128137857.720 7      2149.658 7        45.832               
G24  23384197.941 7 122884796.759 7       930.128 7        46.729               
> 2025 07 28 06 59 20.0000000  0  6                                             
G05  26634308.408 8 139964229.374 8     -2969.356 8        48.231               
G13  26396036.182 7 138712162.266 7     -2857.995 7        42.942               
G14  28386815.127 7 149173697.228 7      -954.572 7        42.897               
G15  23904102.891 7 125616916.101 7     -1383.487 7        45.627               
G23  24383419.079 7 128135710.281 7      2143.658 7        45.169               
G24  23384018.495 7 122883859.491 7       937.213 7        46.136               
> 2025 07 28 06 59 21.0000000  0  6                                             
G05  26634873.525 8 139967200.459 8     -2968.473 8        48.563               
G13  26396581.200 7 138715022.171 7     -2861.011 7        43.110               
G14  28386999.178 7 149174656.916 7      -958.496 7        43.683               
G15  23904364.029 7 125618300.816 7     -1384.888 7        45.913               
G23  24383009.213 7 128133563.099 7      2146.072 7        45.718               
G24  23383839.131 7 122882922.874 7       937.001 7        45.783               
> 2025 07 28 06 59 22.0000000  0  6                                             
G05  26635436.569 8 139970171.798 8     -2974.765 8        48.473               
G13  26397128.278 7 138717882.104 7     -2860.369 7        43.268               
G14  28387181.339 7 149175617.148 7      -957.244 7        43.061               
G15  23904629.924 7 125619685.780 7     -1384.957 7        45.610               
G23  24382599.945 7 128131416.225 7      2147.820 7        44.842               
G24  23383661.477 7 122881986.913 7       938.550 7        46.233               
> 2025 07 28 06 59 23.0000000  0  6                                             
G05  26636001.150 8 139973143.376 8     -2968.998 8        48.621               
G13  26397673.015 7 138720742.042 7     -2856.374 7        42.995               
G14  28387360.400 7 149176577.862 7      -958.200 7        42.767               
G15  23904889.735 7 125621071.019 7     -1382.222 7        45.955               
G23  24382191.955 7 128129269.599 7      2146.010 7        44.825               
G24  23383484.707 7 122881051.617 7       933.924 7        46.055               
> 2025 07 28 06 59 24.0000000  0  6                                             
G05  26636567.428 8 139976115.244 8     -2972.924 8        48.002               
G13  26398219.544 7 138723602.026 7     -2861.252 7        43.133               
G14  28387541.119 7 149177539.112 7      -963.632 7        43.018               
G15  23905154.331 7 125622456.542 7     -1383.207 7        46.168               
G23  24381787.329 7 128127123.311 7      2151.137 7        45.323               
G24  23383312.003 7 122880117.013 7       929.310 7        46.505               
> 2025 07 28 06 59 25.0000000  0  6                                             
G05  26637133.652 8 139979087.401 8     -2974.986 8        48.327               
G13  26398762.177 7 138726462.046 7     -2862.045 7        42.888               
G14  28387723.597 7 149178500.901 7      -960.312 7        43.237               
G15  23905417.783 7 125623842.351 7     -1387.113 7        45.779               
G23  24381379.464 7 128124977.345 7      2143.783 7        45.923               
G24  23383127.635 7 122879183.093 7       935.238 7        46.458               
> 2025 07 28 06 59 26.0000000  0  6                                             
G05  26637697.067 8 139982059.814 8     -2970.479 8        48.305               
G13  26399309.693 7 138729322.099 7     -2855.715 7        42.744               
G14  28387905.218 7 149179463.200 7      -959.137 7        43.481               
G15  23905685.559 7 125625228.434 7     -1387.764 7        45.830               
G23  24380970.692 7 128122831.655 7      2143.338 7        45.323               
G24  23382953.645 7 122878249.829 7       933.744 7        45.992               
> 2025 07 28 06 59 27.0000000  0  6                                             
G05  26638263.270 7 139985032.464 7     -2973.984 7        47.516               
G13  26399850.615 7 138732182.143 7     -2860.696 7        42.740               
G14  28388089.430 7 149180425.985 7      -962.291 7        43.368               
G15  23905950.137 7 125626614.771 7     -1391.009 7        46.042               
G23  24380562.376 7 128120686.239 7      2145.242 7        45.752               
G24  23382772.694 7 122877317.219 7       934.493 7        46.291               
> 2025 07 28 06 59 28.0000000  0  6                                             
G05  26638828.873 7 139988005.393 7     -2970.742 7        47.621               
G13  26400396.304 7 138735042.226 7     -2858.716 7        42.402               
G14  28388274.383 7 149181389.325 7      -959.804 7        43.589               
G15  23906212.226 7 125628001.380 7     -1384.453 7        45.699               
G23  24380153.015 7 128118541.129 7      2146.204 7        45.214               
G24  23382596.242 7 122876385.283 7       929.562 7        46.306               
> 2025 07 28 06 59 29.0000000  0  6                                             
G05  26639394.419 8 139990978.606 8     -2972.412 8        48.005               
G13  26400943.400 7 138737902.382 7     -2863.123 7        43.399               
G14  28388459.216 7 149182353.198 7      -961.795 7        43.154               
G15  23906478.439 7 125629388.292 7     -1382.240 7        46.000               
G23  24379742.233 7 128116396.315 7      2144.093 7        45.702               
G24  23382421.536 7 122875454.036 7       929.992 7        46.222               
> 2025 07 28 06 59 30.0000000  0  6                                             
G05  26639959.857 7 139993952.035 7     -2973.748 7        47.625               
G13  26401482.803 7 138740762.508 7     -2860.591 7        42.880               
G14  28388644.491 7 149183317.543 7      -967.645 7        42.986               
G15  23906746.108 7 125630775.424 7     -1387.781 7        46.259               
G23  24379335.668 7 128114251.766 7      2147.012 7        45.790               
G24  23382243.637 7 122874523.409 7       934.373 7        45.886               
> 2025 07 28 06 59 31.0000000  0  6                                             
G05  26640527.981 7 139996925.724 7     -2975.114 7        47.988               
G13  26402031.949 7 138743622.637 7     -2864.679 7        43.287               
G14  28388832.844 7 149184282.408 7      -965.802 7        43.198               
G15  23907010.833 7 125632162.810 7     -1386.155 7        46.404               
G23  24378926.896 7 128112107.520 7      2143.969 7        45.148               
G24  23382069.061 7 122873593.441 7       931.660 7        46.134               
> 2025 07 28 06 59 32.0000000  0  6                                             
G05  26641091.744 7 139999899.686 7     -2973.648 7        47.133               
G13  26402573.331 7 138746482.835 7     -2861.528 7        43.439               
G14  28389016.166 7 149185247.787 7      -966.350 7        42.877               
G15  23907272.038 7 125633550.486 7     -1391.392 7        46.270               
G23  24378518.330 7 128109963.567 7      2148.082 7        45.861               
G24  23381892.113 7 122872664.166 7       925.214 7        46.268               
> 2025 07 28 06 59 33.0000000  0  6                                             
G05  26641656.409 7 140002873.844 7     -2974.309 7        46.845               
G13  26403115.442 7 138749343.003 7     -2860.285 7        42.526               
G14  28389196.420 7 149186213.659 7      -965.192 7        43.298               
G15  23907537.406 7 125634938.391 7     -1389.279 7        46.393               
G23  24378111.582 7 128107819.866 7      2140.469 7        45.778               
G24  23381713.257 7 122871735.514 7       928.355 7        46.141               
> 2025 07 28 06 59 34.0000000  0  6                                             
G05  26642222.482 7 140005848.306 7     -2975.510 7        47.183               
G13  26403653.898 7 138752203.237 7     -2853.658 7        42.514               
G14  28389378.961 7 149187180.048 7      -966.743 7        43.406               
G15  23907798.482 7 125636326.592 7     -1391.384 7        45.812               
G23  24377704.950 7 128105676.483 7      2143.796 7        46.353               
G24  23381537.708 7 122870807.544 7       926.939 7        46.620               
> 2025 07 28 06 59 35.0000000  0  6                                             
G05  26642786.504 7 140008823.018 7     -2976.369 7        46.709               
G13  26404200.981 7 138755063.468 7     -2855.211 7        42.711               
G14  28389559.501 7 149188146.973 7      -968.251 7        43.576               
G15  23908062.483 7 125637715.060 7     -1388.816 7        46.456               
G23  24377297.241 7 128103533.394 7      2139.765 7        45.635               
G24  23381362.100 7 122869880.243 7       926.567 7        45.366               
> 2025 07 28 06 59 36.0000000  0  6                                             
G05  26643355.280 7 140011797.913 7     -2975.571 7        47.254               
G13  26404744.096 7 138757923.692 7     -2853.439 7        42.371               
G14  28389742.301 7 149189114.326 7      -965.604 7        43.477               
G15  23908325.019 7 125639103.743 7     -1392.140 7        46.586               
G23  24376893.004 7 128101390.523 7      2145.905 7        46.275               
G24  23381180.993 7 122868953.551 7       928.794 7        45.661               
> 2025 07 28 06 59 37.0000000  0  6                                             
G05  26643921.558 7 140014773.135 7     -2977.414 7        46.798               
G13  26405291.040 7 138760783.979 7     -2859.808 7        42.679               
G14  28389925.731 7 149190082.237 7      -969.534 7        42.962               
G15  23908587.899 7 125640492.741 7     -1389.647 7        46.112               
G23  24376485.733 7 128099248.001 7      2140.670 7        46.102               
G24  23381008.642 7 122868027.548 7       927.025 7        45.755               
> 2025 07 28 06 59 38.0000000  0  6                                             
G05  26644488.815 7 140017748.574 7     -2977.632 7        46.773               
G13  26405828.254 6 138763644.271 6     -2861.589 6        41.981               
G14  28390114.106 7 149191050.671 7      -972.168 7        43.198               
G15  23908849.466 7 125641882.002 7     -1391.806 7        45.818               
G23  24376072.445 7 128097105.748 7      2142.779 7        46.195               
G24  23380831.198 7 122867102.222 7       925.637 7        45.965               
> 2025 07 28 06 59 39.0000000  0  6                                             
G05  26645051.774 7 140020724.300 7     -2973.573 7        47.074               
G13  26406374.519 6 138766504.613 6     -2860.201 6        41.655               
G14  28390295.914 7 149192019.638 7      -969.305 7        43.797               
G15  23909113.579 7 125643271.548 7     -1391.640 7        45.587               
G23  24375669.623 7 128094963.814 7      2141.207 7        45.509               
G24  23380655.961 7 122866177.554 7       924.333 7        46.160               
> 2025 07 28 06 59 40.0000000  0  6                                             
G05  26645619.969 7 140023700.258 7     -2976.852 7        47.228               
G13  26406920.195 6 138769364.957 6     -2860.861 6        41.894               
G14  28390483.008 7 149192989.099 7      -967.727 7        44.186               
G15  23909374.967 7 125644661.348 7     -1387.501 7        46.012               
G23  24375260.329 7 128092822.168 7      2140.422 7        46.121               
G24  23380483.525 7 122865253.543 7       925.943 7        46.494               
> 2025 07 28 06 59 41.0000000  0  6                                             
G05  26646186.944 7 140026676.470 7     -2976.575 7        46.903               
G13  26407461.327 6 138772225.306 6     -2857.622 6        41.881               
G14  28390666.795 7 149193959.055 7      -973.178 7        44.261               
G15  23909635.793 7 125646051.408 7     -1396.159 7        45.098               
G23  24374852.826 7 128090680.770 7      2139.230 7        45.781               
G24  23380306.103 7 122864330.176 7       925.408 7        46.651               
> 2025 07 28 06 59 42.0000000  0  6                                             
G05  26646753.128 7 140029652.971 7     -2978.769 7        47.050               
G13  26408014.574 7 138775085.713 7     -2861.497 7        42.283               
G14  28390852.794 7 149194929.542 7      -974.716 7        43.889               
G15  23909903.801 7 125647441.753 7     -1390.446 7        45.524               
G23  24374446.989 7 128088539.709 7      2142.406 7        45.933               
G24  23380124.255 7 122863407.497 7       921.473 7        46.682               
> 2025 07 28 06 59 43.0000000  0  6                                             
G05  26647318.835 7 140032629.729 7     -2977.895 7        47.518               
G13  26408562.697 7 138777946.146 7     -2860.723 7        42.585               
G14  28391031.234 7 149195900.576 7      -972.314 7        43.888               
G15  23910168.513 7 125648832.392 7     -1392.060 7        46.154               
G23  24374033.272 7 128086398.956 7      2140.795 7        46.563               
G24  23379951.528 7 122862485.505 7       922.959 7        46.009               
> 2025 07 28 06 59 44.0000000  0  6                                             
G05  26647885.533 7 140035606.760 7     -2975.752 7        47.493               
G13  26409104.455 7 138780806.621 7     -2858.121 7        42.574               
G14  28391214.686 7 149196872.129 7      -970.935 7        43.191               
G15  23910435.315 7 125650223.297 7     -1389.134 7        46.430               
G23  24373627.605 7 128084258.500 7      2141.640 7        46.073               
G24  23379779.481 7 122861564.184 7       922.456 7        46.024               
> 2025 07 28 06 59 45.0000000  0  6                                             
G05  26648454.116 7 140038584.099 7     -2977.225 7        47.063               
G13  26409644.318 7 138783667.151 7     -2859.403 7        42.045               
G14  28391405.893 7 149197844.232 7      -974.561 7        43.611               
G15  23910704.342 7 125651614.519 7     -1394.225 7        46.399               
G23  24373220.133 7 128082118.378 7      2137.130 7        46.488               
G24  23379599.584 7 122860643.581 7       917.364 7        46.710               
> 2025 07 28 06 59 46.0000000  0  6                                             
G05  26649021.998 7 140041563.077 7     -2977.728 7        47.604               
G13  26410183.619 7 138786529.099 7     -2868.484 7        42.184               
G14  28391589.417 7 149198818.230 7      -974.971 7        43.277               
G15  23910974.348 7 125653007.388 7     -1391.260 7        46.638               
G23  24372811.062 7 128079979.939 7      2137.065 7        45.732               
G24  23379429.203 7 122859725.002 7       917.991 7        46.540               
> 2025 07 28 06 59 47.0000000  0  6                                             
G05  26649591.171 7 140044542.418 7     -2980.191 7        47.380               
G13  26410731.166 7 138789391.212 7     -2861.483 7        42.222               
G14  28391770.171 7 149199792.866 7      -972.546 7        43.313               
G15  23911242.673 7 125654400.633 7     -1394.785 7        47.071               
G23  24372405.449 7 128077841.877 7      2136.970 7        45.694               
G24  23379252.974 7 122858807.222 7       916.014 7        47.185               
> 2025 07 28 06 59 48.0000000  0  7                                             
G05  26650155.346 7 140047521.943 7     -2979.752 7        47.316               
G12  28757392.244 6 151121144.826 6      3126.771 6        39.295               
G13  26411276.729 6 138792253.231 6     -2860.252 6        41.504               
G14  28391958.069 7 149200767.938 7      -975.917 7        43.913               
G15  23911511.727 7 125655794.070 7     -1394.270 7        46.926               
G23  24371999.174 7 128075704.073 7      2134.497 7        45.825               
G24  23379077.130 7 122857890.037 7       915.662 7        46.756               
> 2025 07 28 06 59 49.0000000  0  7                                             
G05  26650721.320 7 140050501.771 7     -2980.163 7        47.183               
G12  28756804.072 6 151118023.220 6      3116.034 6        39.172               
G13  26411816.021 6 138795115.309 6     -2864.176 6        41.985               
G14  28392149.799 7 149201743.584 7      -978.749 7        43.451               
G15  23911774.683 7 125657187.832 7     -1395.514 7        47.012               
G23  24371592.069 7 128073566.585 7      2139.081 7        46.021               
G24  23378906.954 7 122856973.544 7       917.429 7        47.012               
> 2025 07 28 06 59 50.0000000  0  7                                             
G05  26651287.446 7 140053481.845 7     -2979.456 7        46.997               
G12  28756209.583 6 151114901.413 6      3123.772 6        39.053               
G13  26412368.201 7 138797977.457 7     -2862.625 7        42.009               
G14  28392337.303 7 149202719.732 7      -978.309 7        43.859               
G15  23912039.668 7 125658581.863 7     -1397.661 7        46.552               
G23  24371183.498 7 128071429.412 7      2134.124 7        45.692               
G24  23378732.950 7 122856057.726 7       916.166 7        47.192               
> 2025 07 28 06 59 51.0000000  0  7                                             
G05  26651853.935 7 140056462.150 7     -2979.595 7        47.038               
G12  28755617.368 6 151111779.429 6      3118.186 6        39.747               
G13  26412909.721 7 138800839.566 7     -2866.378 7        42.252               
G14  28392516.775 7 149203696.361 7      -973.777 7        43.890               
G15  23912302.485 7 125659976.128 7     -1391.967 7        46.855               
G23  24370778.791 7 128069292.482 7      2136.198 7        46.277               
G24  23378557.887 7 122855142.537 7       916.802 7        46.237               
> 2025 07 28 06 59 52.0000000  0  7                                             
G05  26652422.911 7 140059442.745 7     -2979.519 7        46.531               
G12  28755025.479 6 151108657.277 6      3114.111 6        39.713               
G13  26413462.223 7 138803701.737 7     -2862.221 7        42.154               
G14  28392702.041 7 149204673.538 7      -980.913 7        43.451               
G15  23912566.781 7 125661370.684 7     -1398.008 7        47.583               
G23  24370370.350 7 128067155.852 7      2140.492 7        46.316               
G24  23378383.539 7 122854228.032 7       914.111 7        46.065               
> 2025 07 28 06 59 53.0000000  0  7                                             
G05  26652985.750 7 140062423.558 7     -2981.583 7        46.290               
G12  28754428.613 6 151105534.919 6      3117.266 6        40.125               
G13  26414005.638 7 138806563.885 7     -2862.209 7        42.165               
G14  28392888.482 7 149205651.163 7      -978.441 7        43.377               
G15  23912830.296 7 125662765.478 7     -1393.697 7        46.902               
G23  24369967.810 7 128065019.502 7      2138.265 7        46.319               
G24  23378211.724 7 122853314.166 7       913.394 7        46.539               
> 2025 07 28 06 59 54.0000000  0  7                                             
G05  26653556.156 7 140065404.686 7     -2982.935 7        46.143               
G12  28753838.868 6 151102412.442 6      3125.602 6        40.337               
G13  26414550.008 7 138809426.125 7     -2859.679 7        42.805               
G14  28393073.480 7 149206629.377 7      -978.459 7        42.684               
G15  23913096.589 7 125664160.572 7     -1391.381 7        46.451               
G23  24369562.541 7 128062883.482 7      2136.468 7        46.000               
G24  23378032.953 7 122852401.001 7       911.375 7        46.853               
> 2025 07 28 06 59 55.0000000  0  7                                             
G05  26654121.210 7 140068386.127 7     -2980.018 7        46.584               
G12  28753238.406 6 151099289.859 6      3121.196 6        40.194               
G13  26415099.262 7 138812288.416 7     -2861.369 7        42.636               
G14  28393266.371 6 149207608.141 6      -977.906 6        41.913               
G15  23913360.823 7 125665555.990 7     -1392.354 7        46.255               
G23  24369156.807 7 128060747.804 7      2136.163 7        46.818               
G24  23377861.496 7 122851488.553 7       915.782 7        46.448               
> 2025 07 28 06 59 56.0000000  0  7                                             
G05  26654687.551 7 140071367.828 7     -2985.433 7        46.199               
G12  28752646.433 6 151096167.088 6      3121.395 6        40.369               
G13  26415642.529 7 138815150.744 7     -2863.682 7        42.887               
G14  28393455.086 6 149208587.441 6      -976.911 6        41.966               
G15  23913625.945 7 125666951.697 7     -1396.913 7        46.742               
G23  24368751.448 7 128058612.438 7      2134.065 7        46.211               
G24  23377686.424 7 122850576.770 7       910.393 7        46.415               
> 2025 07 28 06 59 57.0000000  0  7                                             
G05  26655256.009 7 140074349.797 7     -2980.184 7        46.334               
G12  28752050.434 6 151093044.186 6      3120.012 6        40.225               
G13  26416191.359 7 138818013.109 7     -2861.498 7        42.586               
G14  28393638.731 7 149209567.273 7      -983.456 7        42.078               
G15  23913892.087 7 125668347.676 7     -1394.615 7        46.902               
G23  24368340.920 7 128056477.379 7      2135.057 7        46.474               
G24  23377512.898 7 122849665.680 7       909.309 7        46.392               
> 2025 07 28 06 59 58.0000000  0  7                                             
G05  26655826.969 7 140077332.041 7     -2982.378 7        46.045               
G12  28751457.915 6 151089921.099 6      3127.944 6        39.936               
G13  26416728.081 7 138820875.510 7     -2860.851 7        42.262               
G14  28393823.970 7 149210547.604 7      -980.852 7        42.287               
G15  23914155.208 7 125669743.940 7     -1397.756 7        46.216               
G23  24367937.760 7 128054342.627 7      2137.428 7        46.824               
G24  23377341.815 7 122848755.260 7       910.590 7        46.815               
> 2025 07 28 06 59 59.0000000  0  7                                             
G05  26656391.773 7 140080314.503 7     -2983.418 7        45.809               
G12  28750862.581 6 151086797.790 6      3117.270 6        39.636               
G13  26417272.385 7 138823737.904 7     -2861.910 7        42.025               
G14  28394012.229 7 149211528.444 7      -978.325 7        42.300               
G15  23914420.733 7 125671140.422 7     -1394.544 7        46.275               
G23  24367531.400 7 128052208.116 7      2132.184 7        46.689               
G24  23377167.878 7 122847845.444 7       908.662 7        46.756               
> 2025 07 28 07 00 00.0000000  0  7                                             
G05  26656961.174 7 140083297.233 7     -2983.055 7        46.235               
G12  28750262.459 6 151083674.373 6      3122.974 6        39.587               
G13  26417811.261 7 138826600.334 7     -2858.896 7        42.430               
G14  28394193.506 7 149212509.806 7      -981.717 7        42.328               
G15  23914685.829 7 125672537.216 7     -1397.898 7        46.507               
G23  24367125.251 7 128050073.933 7      2134.665 7        46.701               
G24  23376997.537 7 122846936.351 7       908.312 7        46.882               
> 2025 07 28 07 00 01.0000000  0  7                                             
G05  26657528.605 7 140086280.250 7     -2983.703 7        46.676               
G12  28749678.727 6 151080550.830 6      3125.623 6        39.597               
G13  26418358.661 7 138829462.831 7     -2863.672 7        42.234               
G14  28394383.462 7 149213491.709 7      -978.839 7        42.027               
G15  23914950.549 7 125673934.303 7     -1396.504 7        47.081               
G23  24366717.949 7 128047940.075 7      2133.558 7        47.200               
G24  23376824.203 7 122846027.943 7       906.664 7        47.123               
> 2025 07 28 07 00 02.0000000  0  7                                             
G05  26658096.496 7 140089263.461 7     -2981.861 7        47.224               
G12  28749072.905 6 151077427.031 6      3131.437 6        40.026               
G13  26418907.057 7 138832325.309 7     -2865.182 7        42.023               
G14  28394561.795 7 149214474.075 7      -981.239 7        42.124               
G15  23915216.141 7 125675331.599 7     -1395.439 7        46.182               
G23  24366313.604 7 128045806.459 7      2136.751 7        46.796               
G24  23376652.491 7 122845120.138 7       908.751 7        47.072               
> 2025 07 28 07 00 03.0000000  0  7                                             
G05  26658667.402 7 140092246.936 7     -2983.679 7        46.366               
G12  28748479.193 6 151074303.074 6      3119.954 6        40.169               
G13  26419451.044 7 138835187.801 7     -2860.422 7        42.217               
G14  28394752.686 7 149215456.976 7      -981.317 7        42.003               
G15  23915482.175 7 125676729.170 7     -1397.385 7        46.767               
G23  24365906.212 7 128043673.135 7      2132.110 7        46.195               
G24  23376477.294 7 122844213.012 7       908.093 7        46.177               
> 2025 07 28 07 00 04.0000000  0  7                                             
G05  26659234.105 7 140095230.690 7     -2981.533 7        46.450               
G12  28747889.708 6 151071178.933 6      3130.319 6        39.915               
G13  26420000.337 7 138838050.309 7     -2864.877 7        42.295               
G14  28394939.569 6 149216440.381 6      -982.755 6        40.695               
G15  23915748.017 7 125678127.029 7     -1397.680 7        46.865               
G23  24365502.944 7 128041540.139 7      2131.872 7        47.136               
G24  23376301.740 7 122843306.567 7       907.039 7        45.780               
> 2025 07 28 07 00 05.0000000  0  7                                             
G05  26659799.708 7 140098214.682 7     -2982.554 7        46.844               
G12  28747296.541 6 151068054.679 6      3117.004 6        39.993               
G13  26420544.628 7 138840912.887 7     -2864.542 7        42.122               
G14  28395134.922 6 149217424.307 6      -980.733 6        40.489               
G15  23916019.054 7 125679525.153 7     -1401.256 7        46.645               
G23  24365093.489 7 128039407.417 7      2131.471 7        46.705               
G24  23376127.919 7 122842400.776 7       903.111 7        46.471               
> 2025 07 28 07 00 06.0000000  0  7                                             
G05  26660367.434 7 140101198.967 7     -2986.707 7        47.474               
G12  28746696.526 6 151064930.260 6      3129.578 6        40.093               
G13  26421087.087 7 138843775.517 7     -2864.766 7        42.140               
G14  28395323.596 6 149218408.785 6      -987.516 6        41.069               
G15  23916284.445 7 125680923.564 7     -1395.711 7        46.509               
G23  24364690.391 7 128037275.025 7      2128.931 7        46.662               
G24  23375956.430 7 122841495.684 7       905.052 7        46.340               
> 2025 07 28 07 00 07.0000000  0  7                                             
G05  26660936.366 7 140104183.508 7     -2984.922 7        47.112               
G12  28746106.830 6 151061805.682 6      3124.500 6        40.193               
G13  26421632.891 7 138846638.124 7     -2857.089 7        42.190               
G14  28395519.088 6 149219393.774 6      -981.642 6        40.812               
G15  23916551.958 7 125682322.248 7     -1396.552 7        46.538               
G23  24364283.285 7 128035142.901 7      2132.262 7        46.383               
G24  23375784.333 7 122840591.251 7       904.392 7        46.566               
> 2025 07 28 07 00 08.0000000  0  7                                             
G05  26661506.741 7 140107168.341 7     -2985.181 7        47.388               
G12  28745522.281 6 151058680.958 6      3127.590 6        40.216               
G13  26422175.114 7 138849500.834 7     -2858.130 7        42.184               
G14  28395698.538 6 149220379.328 6      -991.462 6        40.967               
G15  23916817.232 7 125683721.247 7     -1400.669 7        46.247               
G23  24363875.554 7 128033011.134 7      2133.351 7        46.081               
G24  23375615.123 7 122839687.526 7       903.502 7        46.602               
> 2025 07 28 07 00 09.0000000  0  7                                             
G05  26662073.238 7 140110153.415 7     -2984.317 7        47.227               
G12  28744921.850 6 151055556.040 6      3128.824 6        40.763               
G13  26422719.078 7 138852363.549 7     -2858.307 7        42.391               
G14  28395879.497 6 149221365.334 6      -985.981 6        39.701               
G15  23917082.529 7 125685120.483 7     -1400.248 7        46.472               
G23  24363470.468 7 128030879.654 7      2131.223 7        47.037               
G24  23375444.174 7 122838784.461 7       899.756 7        46.614               
> 2025 07 28 07 00 10.0000000  0  7                                             
G05  26662639.963 7 140113138.745 7     -2983.544 7        47.168               
G12  28744328.237 6 151052430.970 6      3121.407 6        40.615               
G13  26423262.622 7 138855226.280 7     -2859.344 7        42.024               
G14  28396060.653 6 149222351.902 6      -980.244 6        38.865               
G15  23917348.778 7 125686519.991 7     -1404.575 7        46.747               
G23  24363065.172 7 128028748.447 7      2131.724 7        46.789               
G24  23375275.710 7 122837882.034 7       902.513 7        46.166               
> 2025 07 28 07 00 11.0000000  0  7                                             
G05  26663208.448 7 140116124.310 7     -2985.778 7        47.355               
G12  28743732.386 6 151049305.706 6      3125.492 6        41.081               
G13  26423809.781 7 138858089.022 7     -2858.698 7        42.872               
G14  28396250.382 6 149223338.944 6      -986.112 6        39.698               
G15  23917614.575 7 125687919.750 7     -1401.557 7        47.113               
G23  24362659.831 7 128026617.530 7      2129.573 7        46.484               
G24  23375100.696 7 122836980.273 7       899.620 7        46.417               
> 2025 07 28 07 00 12.0000000  0  7                                             
G05  26663775.660 7 140119110.107 7     -2986.188 7        46.884               
G12  28743138.741 6 151046180.241 6      3123.939 6        41.013               
G13  26424352.074 7 138860951.759 7     -2865.539 7        42.019               
G14  28396444.114 6 149224326.424 6      -989.521 6        38.204               
G15  23917881.194 7 125689319.743 7     -1399.599 7        46.268               
G23  24362253.655 7 128024486.858 7      2130.524 7        46.239               
G24  23374932.441 7 122836079.142 7       900.087 7        46.594               
> 2025 07 28 07 00 13.0000000  0  7                                             
G05  26664344.878 7 140122096.180 7     -2987.424 7        47.594               
G12  28742540.240 6 151043054.632 6      3124.206 6        40.559               
G13  26424898.527 7 138863814.551 7     -2861.045 7        42.203               
G14  28396628.035 6 149225314.518 6      -987.936 6        38.439               
G15  23918143.453 7 125690720.037 7     -1399.790 7        45.876               
G23  24361845.781 7 128022356.533 7      2130.684 7        46.326               
G24  23374754.595 7 122835178.703 7       893.512 7        46.412               
> 2025 07 28 07 00 14.0000000  0  7                                             
G05  26664911.576 7 140125082.472 7     -2987.777 7        47.931               
G12  28741948.052 6 151039928.822 6      3123.300 6        40.651               
G13  26425443.202 7 138866677.315 7     -2862.843 7        42.848               
G14  28396816.459 6 149226303.080 6      -986.515 6        38.864               
G15  23918411.234 7 125692120.555 7     -1399.400 7        45.788               
G23  24361443.790 7 128020226.461 7      2133.739 7        46.483               
G24  23374581.556 7 122834278.885 7       900.894 7        46.629               
> 2025 07 28 07 00 15.0000000  0  7                                             
G05  26665482.339 7 140128068.887 7     -2987.184 7        47.713               
G12  28741352.853 6 151036802.713 6      3121.315 6        40.937               
G13  26425988.354 7 138869539.973 7     -2859.292 7        43.127               
G14  28397007.314 6 149227291.997 6      -989.190 6        39.157               
G15  23918674.722 7 125693521.222 7     -1403.056 7        46.149               
G23  24361035.698 7 128018096.546 7      2132.195 7        46.936               
G24  23374411.269 7 122833379.596 7       900.858 7        46.472               
> 2025 07 28 07 00 16.0000000  0  7                                             
G05  26666051.575 7 140131055.082 7     -2986.299 7        47.640               
G12  28740758.516 6 151033675.955 6      3126.847 6        39.960               
G13  26426531.604 7 138872402.161 7     -2861.723 7        43.095               
G14  28397197.373 6 149228280.952 6      -993.395 6        39.446               
G15  23918946.349 7 125694921.675 7     -1397.041 7        46.039               
G23  24360631.983 7 128015966.460 7      2129.694 7        46.051               
G24  23374242.389 7 122832480.498 7       899.852 7        45.744               
> 2025 07 28 07 00 17.0000000  0  7                                             
G05  26666618.403 7 140134041.508 7     -2983.273 7        47.618               
G12  28740160.091 6 151030549.030 6      3130.457 6        40.297               
G13  26427077.462 7 138875264.398 7     -2861.800 7        42.770               
G14  28397397.707 6 149229270.447 6      -988.885 6        38.886               
G15  23919216.944 7 125696322.392 7     -1407.222 7        46.506               
G23  24360229.546 7 128013836.644 7      2131.246 7        46.078               
G24  23374071.275 7 122831582.061 7       898.114 7        46.399               
> 2025 07 28 07 00 18.0000000  0  7                                             
G05  26667185.253 8 140137028.173 8     -2988.025 8        48.298               
G12  28739564.396 6 151027421.919 6      3128.734 6        40.621               
G13  26427617.125 7 138878126.624 7     -2861.208 7        42.211               
G14  28397586.118 6 149230260.385 6      -989.654 6        39.194               
G15  23919482.518 7 125697723.334 7     -1403.743 7        47.033               
G23  24359825.165 7 128011707.084 7      2125.713 7        46.732               
G24  23373904.503 7 122830684.257 7       899.688 7        46.940               
> 2025 07 28 07 00 19.0000000  0  7                                             
G05  26667755.105 8 140140015.114 8     -2986.419 8        48.215               
G12  28738970.434 6 151024294.641 6      3130.922 6        40.882               
G13  26428163.184 7 138880988.879 7     -2861.704 7        43.064               
G14  28397772.273 6 149231250.866 6      -992.334 6        38.112               
G15  23919753.126 7 125699124.555 7     -1401.375 7        46.804               
G23  24359417.742 7 128009577.866 7      2128.293 7        46.319               
G24  23373732.063 7 122829787.136 7       897.284 7        46.443               
> 2025 07 28 07 00 20.0000000  0  7                                             
G05  26668324.001 7 140143002.337 7     -2988.926 7        47.400               
G12  28738372.536 6 151021167.201 6      3136.989 6        40.536               
G13  26428707.783 7 138883851.204 7     -2865.527 7        42.890               
G14  28397954.470 6 149232241.914 6      -990.299 6        38.489               
G15  23920015.895 7 125700526.090 7     -1397.835 7        46.439               
G23  24359008.980 7 128007448.939 7      2125.672 7        46.318               
G24  23373562.995 7 122828890.720 7       892.722 7        45.958               
> 2025 07 28 07 00 21.0000000  0  7                                             
G05  26668891.597 7 140145989.772 7     -2987.969 7        47.266               
G12  28737772.615 6 151018039.602 6      3123.618 6        39.954               
G13  26429254.905 7 138886713.472 7     -2856.799 7        42.647               
G14  28398132.156 6 149233233.395 6      -995.692 6        37.690               
G15  23920285.913 7 125701927.838 7     -1403.110 7        46.629               
G23  24358605.658 7 128005320.292 7      2129.479 7        46.142               
G24  23373388.111 7 122827994.917 7       894.576 7        45.945               
> 2025 07 28 07 00 22.0000000  0  7                                             
G05  26669459.407 7 140148977.458 7     -2987.075 7        47.346               
G12  28737181.285 6 151014911.800 6      3128.147 6        40.219               
G13  26429803.458 7 138889575.801 7     -2863.982 7        43.310               
G14  28398318.217 6 149234225.422 6     -1000.566 6        37.588               
G15  23920551.818 7 125703329.877 7     -1401.363 7        46.823               
G23  24358198.204 7 128003191.940 7      2127.979 7        46.908               
G24  23373218.744 7 122827099.772 7       895.619 7        46.228               
> 2025 07 28 07 00 23.0000000  0  7                                             
G05  26670030.399 7 140151965.448 7     -2991.516 7        47.458               
G12  28736592.380 6 151011783.847 6      3135.899 6        40.687               
G13  26430348.132 7 138892438.155 7     -2859.496 7        43.644               
G14  28398510.340 6 149235217.940 6      -996.446 6        37.595               
G15  23920817.463 7 125704732.197 7     -1403.020 7        47.403               
G23  24357792.537 7 128001063.900 7      2128.185 7        46.583               
G24  23373047.970 7 122826205.312 7       891.613 7        47.177               
> 2025 07 28 07 00 24.0000000  0  7                                             
G05  26670598.424 7 140154953.707 7     -2988.497 7        47.595               
G12  28735992.874 6 151008655.766 6      3133.033 6        40.511               
G13  26430893.834 7 138895300.580 7     -2861.153 7        43.804               
G14  28398716.441 6 149236211.019 6      -995.152 6        37.642               
G15  23921085.606 7 125706134.805 7     -1400.388 7        47.008               
G23  24357388.366 7 127998936.186 7      2127.701 7        46.236               
G24  23372881.283 7 122825311.566 7       888.945 7        46.765               
> 2025 07 28 07 00 25.0000000  0  7                                             
G05  26671168.664 7 140157942.238 7     -2988.496 7        47.083               
G12  28735391.161 6 151005527.509 6      3132.707 6        40.826               
G13  26431439.688 7 138898163.019 7     -2866.665 7        43.921               
G14  28398894.814 6 149237204.639 6      -998.664 6        37.960               
G15  23921353.637 7 125707537.701 7     -1403.135 7        46.762               
G23  24356984.062 7 127996808.769 7      2128.491 7        46.362               
G24  23372711.456 7 122824418.482 7       895.008 7        46.852               
> 2025 07 28 07 00 26.0000000  0  7                                             
G05  26671733.728 7 140160931.081 7     -2989.467 7        46.362               
G12  28734802.690 6 151002399.149 6      3125.156 6        40.353               
G13  26431988.044 7 138901025.533 7     -2862.561 7        43.846               
G14  28399089.042 6 149238198.833 6      -991.697 6        38.621               
G15  23921618.800 7 125708940.899 7     -1400.844 7        46.600               
G23  24356579.230 7 127994681.697 7      2125.996 7        46.733               
G24  23372543.241 7 122823526.112 7       892.005 7        46.459               
> 2025 07 28 07 00 27.0000000  0  7                                             
G05  26672302.905 7 140163920.160 7     -2990.020 7        46.970               
G12  28734202.157 6 150999270.578 6      3127.882 6        40.159               
G13  26432528.122 7 138903888.030 7     -2867.488 7        43.443               
G14  28399286.517 6 149239193.485 6      -993.183 6        38.386               
G15  23921885.066 7 125710344.332 7     -1401.438 7        46.481               
G23  24356173.063 7 127992554.884 7      2127.222 7        46.861               
G24  23372370.568 7 122822634.376 7       892.131 7        46.470               
> 2025 07 28 07 00 28.0000000  0  7                                             
G05  26672871.100 7 140166909.415 7     -2989.079 7        46.345               
G12  28733612.077 6 150996141.757 6      3129.282 6        40.544               
G13  26433073.118 7 138906750.479 7     -2864.470 7        42.990               
G14  28399478.457 6 149240188.591 6      -994.587 6        38.162               
G15  23922153.959 7 125711747.969 7     -1400.936 7        46.919               
G23  24355771.671 7 127990428.296 7      2126.865 7        46.055               
G24  23372198.883 7 122821743.212 7       890.395 7        46.117               
> 2025 07 28 07 00 29.0000000  0  7                                             
G05  26673440.630 7 140169898.925 7     -2990.281 7        46.839               
G12  28733011.883 6 150993012.784 6      3136.202 6        40.194               
G13  26433618.204 7 138909612.941 7     -2865.046 7        43.128               
G14  28399670.116 6 149241184.211 6      -990.823 6        37.969               
G15  23922419.694 7 125713151.855 7     -1404.573 7        46.721               
