$GPRMC,070424.19,A,3622.5270589,N,12721.7142190,E,1.77,0.00,060825,0.0,E,A*3E
$GPGGA,070424.19,3622.5270589,N,12721.7142190,E,1,04,1.0,93.790,M,0.000,M,0.0,*40
$GPGSA,A,3,10,12,15,24,,,,,,,,,3.3,2.1,2.6,1*28
$GPGSV,1,1,04,10,29,316,42,12,21,146,48,15,43,070,45,24,78,050,46,1*6C
$GPRMC,070424.29,A,3622.5277750,N,12721.7132304,E,2.68,322.48,060825,0.0,E,A*36
$GPGGA,070424.29,3622.5277750,N,12721.7132304,E,1,04,1.0,89.572,M,0.000,M,0.0,*4F
$GPGSA,A,3,10,12,15,24,,,,,,,,,3.3,2.1,2.6,1*28
$GPGSV,1,1,04,10,29,316,42,12,21,146,48,15,43,070,45,24,78,050,46,1*6C
$GPRMC,070424.39,A,3622.5304262,N,12721.7144677,E,3.54,230.47,060825,0.0,E,A*35
$GPGGA,070424.39,3622.5304262,N,12721.7144677,E,1,04,1.0,84.738,M,0.000,M,0.0,*4E
$GPGSA,A,3,10,12,15,24,,,,,,,,,3.3,2.1,2.6,1*28
$GPGSV,1,1,04,10,29,316,43,12,21,146,48,15,43,070,45,24,78,050,46,1*6D
$GPRMC,070424.49,A,3622.5308722,N,12721.7165325,E,1.99,78.77,060825,0.0,E,A*00
$GPGGA,070424.49,3622.5308722,N,12721.7165325,E,1,04,1.0,86.085,M,0.000,M,0.0,*46
$GPGSA,A,3,10,12,15,24,,,,,,,,,3.3,2.1,2.6,1*28
$GPGSV,1,1,04,10,29,316,43,12,21,146,48,15,43,070,45,24,78,050,46,1*6D
$GPRMC,070424.59,A,3622.5301539,N,12721.7167291,E,1.19,78.77,060825,0.0,E,A*04
$GPGGA,070424.59,3622.5301539,N,12721.7167291,E,1,04,1.0,87.857,M,0.000,M,0.0,*4C
$GPGSA,A,3,10,12,15,24,,,,,,,,,3.3,2.1,2.6,1*28
$GPGSV,1,1,04,10,29,316,43,12,21,146,48,15,43,070,45,24,78,050,46,1*6D
$GPRMC,070424.69,A,3622.5301583,N,12721.7177839,E,1.88,78.77,060825,0.0,E,A*07
$GPGGA,070424.69,3622.5301583,N,12721.7177839,E,1,04,1.0,84.082,M,0.000,M,0.0,*44
$GPGSA,A,3,10,12,15,24,,,,,,,,,3.3,2.1,2.6,1*28
$GPGSV,1,1,04,10,29,316,43,12,21,146,48,15,43,070,45,24,78,050,46,1*6D
$GPRMC,070424.79,A,3622.5299249,N,12721.7165567,E,1.62,78.77,060825,0.0,E,A*06
$GPGGA,070424.79,3622.5299249,N,12721.7165567,E,1,04,1.0,87.900,M,0.000,M,0.0,*41
$GPGSA,A,3,10,12,15,24,,,,,,,,,3.3,2.1,2.6,1*28
$GPGSV,1,1,04,10,29,316,43,12,21,146,48,15,43,070,45,24,78,050,46,1*6D
$GPRMC,070424.89,A,3622.5302916,N,12721.7174078,E,5.35,49.19,060825,0.0,E,A*0C
$GPGGA,070424.89,3622.5302916,N,12721.7174078,E,1,04,1.0,85.212,M,0.000,M,0.0,*4D
$GPGSA,A,3,10,12,15,24,,,,,,,,,3.3,2.1,2.6,1*28
$GPGSV,1,1,04,10,29,316,43,12,21,146,48,15,43,070,45,24,78,050,46,1*6D
$GPRMC,070424.99,A,3622.5298368,N,12721.7183073,E,2.97,27.40,060825,0.0,E,A*04
$GPGGA,070424.99,3622.5298368,N,12721.7183073,E,1,04,1.0,86.174,M,0.000,M,0.0,*4E
$GPGSA,A,3,10,12,15,24,,,,,,,,,3.3,2.1,2.6,1*28
$GPGSV,1,1,04,10,29,316,42,12,21,146,49,15,43,070,45,24,78,050,46,1*6D
$GPRMC,070425.09,A,3622.5286925,N,12721.7181675,E,1.88,27.40,060825,0.0,E,A*0F
$GPGGA,070425.09,3622.5286925,N,12721.7181675,E,1,04,1.0,87.174,M,0.000,M,0.0,*49
$GPGSA,A,3,10,12,15,24,,,,,,,,,3.3,2.1,2.6,1*28
$GPGSV,1,1,04,10,29,316,43,12,21,146,48,15,43,070,45,24,78,050,46,1*6D
$GPRMC,070425.19,A,3622.5299681,N,12721.7172577,E,1.18,27.40,060825,0.0,E,A*05
$GPGGA,070425.19,3622.5299681,N,12721.7172577,E,1,04,1.0,84.715,M,0.000,M,0.0,*48
$GPGSA,A,3,10,12,15,24,,,,,,,,,3.3,2.1,2.6,1*28
$GPGSV,1,1,04,10,29,316,43,12,21,146,48,15,43,070,45,24,78,050,46,1*6D
$GPRMC,070425.29,A,3622.5302928,N,12721.7172595,E,2.26,220.64,060825,0.0,E,A*38
$GPGGA,070425.29,3622.5302928,N,12721.7172595,E,1,04,1.0,86.207,M,0.000,M,0.0,*4C
$GPGSA,A,3,10,12,15,24,,,,,,,,,3.3,2.1,2.6,1*28
$GPGSV,1,1,04,10,29,316,43,12,21,146,48,15,43,070,45,24,78,050,46,1*6D
$GPRMC,070425.39,A,3622.5288457,N,12721.7146013,E,4.24,217.43,060825,0.0,E,A*36
$GPGGA,070425.39,3622.5288457,N,12721.7146013,E,1,04,1.0,86.604,M,0.000,M,0.0,*40
$GPGSA,A,3,10,12,15,24,,,,,,,,,3.3,2.1,2.6,1*28
$GPGSV,1,1,04,10,29,316,43,12,21,146,48,15,43,070,45,24,78,050,46,1*6D
$GPRMC,070425.49,A,3622.5296023,N,12721.7154178,E,4.01,54.47,060825,0.0,E,A*00
$GPGGA,070425.49,3622.5296023,N,12721.7154178,E,1,04,1.0,84.191,M,0.000,M,0.0,*49
$GPGSA,A,3,10,12,15,24,,,,,,,,,3.3,2.1,2.6,1*28
$GPGSV,1,1,04,10,29,316,43,12,21,146,48,15,43,070,45,24,78,050,46,1*6D
$GPRMC,070425.59,A,3622.5290821,N,12721.7163363,E,2.20,231.78,060825,0.0,E,A*39
$GPGGA,070425.59,3622.5290821,N,12721.7163363,E,1,04,1.0,84.924,M,0.000,M,0.0,*4E
$GPGSA,A,3,10,12,15,24,,,,,,,,,3.3,2.1,2.6,1*28
$GPGSV,1,1,04,10,29,316,43,12,21,146,49,15,43,070,45,24,78,050,46,1*6C
$GPRMC,070425.69,A,3622.5297825,N,12721.7176754,E,3.02,135.18,060825,0.0,E,A*3D
$GPGGA,070425.69,3622.5297825,N,12721.7176754,E,1,04,1.0,80.419,M,0.000,M,0.0,*4D
$GPGSA,A,3,10,12,15,24,,,,,,,,,3.3,2.1,2.6,1*28
$GPGSV,1,1,04,10,29,316,43,12,21,146,49,15,43,070,44,24,78,050,46,1*6D
$GPRMC,070425.79,A,3622.5301389,N,12721.7181667,E,4.95,40.93,060825,0.0,E,A*0F
$GPGGA,070425.79,3622.5301389,N,12721.7181667,E,1,04,1.0,83.872,M,0.000,M,0.0,*44
$GPGSA,A,3,10,12,15,24,,,,,,,,,3.3,2.1,2.6,1*28
$GPGSV,1,1,04,10,29,316,43,12,21,146,49,15,43,070,44,24,78,050,46,1*6D
$GPRMC,070425.89,A,3622.5295126,N,12721.7159060,E,4.73,226.66,060825,0.0,E,A*3F
$GPGGA,070425.89,3622.5295126,N,12721.7159060,E,1,04,1.0,84.416,M,0.000,M,0.0,*4D
$GPGSA,A,3,10,12,15,24,,,,,,,,,3.3,2.1,2.6,1*28
$GPGSV,1,1,04,10,29,316,43,12,21,146,49,15,43,070,45,24,78,050,46,1*6C
$GPRMC,070425.99,A,3622.5288569,N,12721.7146901,E,1.53,226.66,060825,0.0,E,A*3A
$GPGGA,070425.99,3622.5288569,N,12721.7146901,E,1,04,1.0,83.049,M,0.000,M,0.0,*46
$GPGSA,A,3,10,12,15,24,,,,,,,,,3.3,2.1,2.6,1*28
$GPGSV,1,1,04,10,29,316,43,12,21,146,49,15,43,070,45,24,78,050,46,1*6C
$GPRMC,070426.09,A,3622.5325062,N,12721.7179549,E,2.11,232.53,060825,0.0,E,A*32
$GPGGA,070426.09,3622.5325062,N,12721.7179549,E,1,04,1.0,72.707,M,0.000,M,0.0,*4B
$GPGSA,A,3,10,12,15,24,,,,,,,,,3.3,2.1,2.6,1*28
$GPGSV,1,1,04,10,29,316,43,12,21,146,49,15,43,070,45,24,78,050,46,1*6C
$GPRMC,070426.19,A,3622.5313661,N,12721.7188837,E,1.37,232.53,060825,0.0,E,A*3E
$GPGGA,070426.19,3622.5313661,N,12721.7188837,E,1,04,1.0,76.288,M,0.000,M,0.0,*46
$GPGSA,A,3,10,12,15,24,,,,,,,,,3.3,2.1,2.6,1*28
$GPGSV,1,1,04,10,29,316,43,12,21,146,48,15,43,070,45,24,78,050,46,1*6D
$GPRMC,070426.29,A,3622.5314713,N,12721.7190006,E,1.58,232.53,060825,0.0,E,A*34
$GPGGA,070426.29,3622.5314713,N,12721.7190006,E,1,04,1.0,80.045,M,0.000,M,0.0,*4F
$GPGSA,A,3,10,12,15,24,,,,,,,,,3.3,2.1,2.6,1*28
$GPGSV,1,1,04,10,29,316,43,12,21,146,48,15,43,070,45,24,78,050,46,1*6D
$GPRMC,070426.39,A,3622.5330376,N,12721.7204422,E,1.68,232.53,060825,0.0,E,A*3B
$GPGGA,070426.39,3622.5330376,N,12721.7204422,E,1,04,1.0,77.523,M,0.000,M,0.0,*4E
$GPGSA,A,3,10,12,15,24,,,,,,,,,3.3,2.1,2.6,1*28
$GPGSV,1,1,04,10,29,316,42,12,21,146,48,15,43,070,45,24,78,050,46,1*6C
$GPRMC,070426.49,A,3622.5331890,N,12721.7193582,E,3.60,46.22,060825,0.0,E,A*05
$GPGGA,070426.49,3622.5331890,N,12721.7193582,E,1,04,1.0,76.567,M,0.000,M,0.0,*4C
$GPGSA,A,3,10,12,15,24,,,,,,,,,3.3,2.1,2.6,1*28
$GPGSV,1,1,04,10,29,316,42,12,21,146,48,15,43,070,45,24,78,050,46,1*6C
$GPRMC,070426.59,A,3622.5326782,N,12721.7183643,E,2.03,45.98,060825,0.0,E,A*07
$GPGGA,070426.59,3622.5326782,N,12721.7183643,E,1,04,1.0,70.062,M,0.000,M,0.0,*4E
$GPGSA,A,3,10,12,15,24,,,,,,,,,3.3,2.1,2.6,1*28
$GPGSV,1,1,04,10,29,316,43,12,21,146,48,15,43,070,45,24,78,050,46,1*6D
$GPRMC,070426.69,A,3622.5318018,N,12721.7159575,E,1.72,45.98,060825,0.0,E,A*09
$GPGGA,070426.69,3622.5318018,N,12721.7159575,E,1,04,1.0,70.419,M,0.000,M,0.0,*4D
$GPGSA,A,3,10,12,15,24,,,,,,,,,3.3,2.1,2.6,1*28
$GPGSV,1,1,04,10,29,316,43,12,21,146,48,15,43,070,45,24,78,050,46,1*6D
$GPRMC,070426.79,A,3622.5312244,N,12721.7159007,E,1.55,45.98,060825,0.0,E,A*0C
$GPGGA,070426.79,3622.5312244,N,12721.7159007,E,1,04,1.0,71.738,M,0.000,M,0.0,*4C
$GPGSA,A,3,10,12,15,24,,,,,,,,,3.3,2.1,2.6,1*28
$GPGSV,1,1,04,10,29,316,43,12,21,146,48,15,43,070,45,24,78,050,46,1*6D
$GPRMC,070426.89,A,3622.5302301,N,12721.7136757,E,2.23,47.73,060825,0.0,E,A*0C
$GPGGA,070426.89,3622.5302301,N,12721.7136757,E,1,04,1.0,72.807,M,0.000,M,0.0,*49
$GPGSA,A,3,10,12,15,24,,,,,,,,,3.3,2.1,2.6,1*28
$GPGSV,1,1,04,10,29,316,43,12,21,146,48,15,43,070,45,24,78,050,46,1*6D
$GPRMC,070426.99,A,3622.5300808,N,12721.7149465,E,1.99,56.17,060825,0.0,E,A*07
$GPGGA,070426.99,3622.5300808,N,12721.7149465,E,1,04,1.0,74.793,M,0.000,M,0.0,*46
$GPGSA,A,3,10,12,15,24,,,,,,,,,3.3,2.1,2.6,1*28
$GPGSV,1,1,04,10,29,316,43,12,21,146,48,15,43,070,45,24,78,050,46,1*6D
$GPRMC,070427.09,A,3622.5323588,N,12721.7201180,E,3.12,241.13,060825,0.0,E,A*3B
$GPGGA,070427.09,3622.5323588,N,12721.7201180,E,1,04,1.0,73.792,M,0.000,M,0.0,*4D
$GPGSA,A,3,10,12,15,24,,,,,,,,,3.3,2.1,2.6,1*28
$GPGSV,1,1,04,10,29,316,43,12,21,146,48,15,43,070,45,24,78,050,46,1*6D
$GPRMC,070427.19,A,3622.5304892,N,12721.7200365,E,0.54,241.13,060825,0.0,E,A*30
$GPGGA,070427.19,3622.5304892,N,12721.7200365,E,1,04,1.0,73.848,M,0.000,M,0.0,*4F
$GPGSA,A,3,10,12,15,24,,,,,,,,,3.3,2.1,2.6,1*28
$GPGSV,1,1,04,10,29,316,43,12,21,146,48,15,43,070,46,24,78,050,46,1*6E
$GPRMC,070427.29,A,3622.5305440,N,12721.7177333,E,1.11,241.13,060825,0.0,E,A*31
$GPGGA,070427.29,3622.5305440,N,12721.7177333,E,1,04,1.0,73.710,M,0.000,M,0.0,*4C
$GPGSA,A,3,10,12,15,24,,,,,,,,,3.3,2.1,2.6,1*28
$GPGSV,1,1,04,10,29,316,43,12,21,146,48,15,43,070,45,24,78,050,46,1*6D
$GPRMC,070427.39,A,3622.5303598,N,12721.7197306,E,1.45,241.13,060825,0.0,E,A*3B
$GPGGA,070427.39,3622.5303598,N,12721.7197306,E,1,04,1.0,80.089,M,0.000,M,0.0,*4C
$GPGSA,A,3,10,12,15,24,,,,,,,,,3.3,2.1,2.6,1*28
$GPGSV,1,1,04,10,29,316,43,12,21,146,48,15,43,070,45,24,78,050,46,1*6D
$GPRMC,070427.49,A,3622.5306672,N,12721.7175905,E,2.26,210.87,060825,0.0,E,A*34
$GPGGA,070427.49,3622.5306672,N,12721.7175905,E,1,04,1.0,79.902,M,0.000,M,0.0,*40
$GPGSA,A,3,10,12,15,24,,,,,,,,,3.3,2.1,2.6,1*28
$GPGSV,1,1,04,10,29,316,43,12,21,146,48,15,43,070,45,24,78,050,46,1*6D
$GPRMC,070427.59,A,3622.5293590,N,12721.7175251,E,2.59,55.87,060825,0.0,E,A*06
$GPGGA,070427.59,3622.5293590,N,12721.7175251,E,1,04,1.0,78.457,M,0.000,M,0.0,*45
$GPGSA,A,3,10,12,15,24,,,,,,,,,3.3,2.1,2.6,1*28
$GPGSV,1,1,04,10,29,316,42,12,21,146,48,15,43,070,45,24,78,050,46,1*6C
$GPRMC,070427.69,A,3622.5336095,N,12721.7208115,E,1.88,55.87,060825,0.0,E,A*0E
$GPGGA,070427.69,3622.5336095,N,12721.7208115,E,1,04,1.0,73.461,M,0.000,M,0.0,*4C
$GPGSA,A,3,10,12,15,24,,,,,,,,,3.3,2.1,2.6,1*28
$GPGSV,1,1,04,10,29,316,43,12,21,146,48,15,43,070,45,24,78,050,46,1*6D
$GPRMC,070427.79,A,3622.5345886,N,12721.7202642,E,2.76,306.46,060825,0.0,E,A*34
$GPGGA,070427.79,3622.5345886,N,12721.7202642,E,1,04,1.0,68.362,M,0.000,M,0.0,*42
$GPGSA,A,3,10,12,15,24,,,,,,,,,3.3,2.1,2.6,1*28
$GPGSV,1,1,04,10,29,316,43,12,21,146,48,15,43,070,45,24,78,050,47,1*6C
$GPRMC,070427.89,A,3622.5320369,N,12721.7203349,E,2.68,124.96,060825,0.0,E,A*3D
$GPGGA,070427.89,3622.5320369,N,12721.7203349,E,1,04,1.0,77.521,M,0.000,M,0.0,*44
$GPGSA,A,3,10,12,15,24,,,,,,,,,3.3,2.1,2.6,1*28
$GPGSV,1,1,04,10,29,316,43,12,21,146,48,15,43,070,45,24,78,050,47,1*6C
$GPRMC,070427.99,A,3622.5302790,N,12721.7181488,E,2.72,92.45,060825,0.0,E,A*04
$GPGGA,070427.99,3622.5302790,N,12721.7181488,E,1,04,1.0,81.115,M,0.000,M,0.0,*4E
$GPGSA,A,3,10,12,15,24,,,,,,,,,3.3,2.1,2.6,1*28
$GPGSV,1,1,04,10,29,316,43,12,21,146,48,15,43,070,45,24,78,050,47,1*6C
$GPRMC,070428.09,A,3622.5310983,N,12721.7197529,E,3.37,45.90,060825,0.0,E,A*02
$GPGGA,070428.09,3622.5310983,N,12721.7197529,E,1,04,1.0,81.965,M,0.000,M,0.0,*45
$GPGSA,A,3,10,12,15,24,,,,,,,,,3.3,2.1,2.6,1*28
$GPGSV,1,1,04,10,29,316,43,12,21,146,48,15,43,070,45,24,78,050,47,1*6C
$GPRMC,070428.19,A,3622.5312545,N,12721.7211705,E,0.31,45.90,060825,0.0,E,A*03
$GPGGA,070428.19,3622.5312545,N,12721.7211705,E,1,04,1.0,77.946,M,0.000,M,0.0,*49
$GPGSA,A,3,10,12,15,24,,,,,,,,,3.3,2.1,2.6,1*28
$GPGSV,1,1,04,10,29,316,43,12,21,146,48,15,43,070,45,24,78,050,47,1*6C
$GPRMC,070428.29,A,3622.5322547,N,12721.7200482,E,1.54,45.90,060825,0.0,E,A*0F
$GPGGA,070428.29,3622.5322547,N,12721.7200482,E,1,04,1.0,73.618,M,0.000,M,0.0,*47
$GPGSA,A,3,10,12,15,24,,,,,,,,,3.3,2.1,2.6,1*28
$GPGSV,1,1,04,10,29,316,43,12,21,146,48,15,43,070,45,24,78,050,47,1*6C
$GPRMC,070428.39,A,3622.5305085,N,12721.7179326,E,0.85,45.90,060825,0.0,E,A*09
$GPGGA,070428.39,3622.5305085,N,12721.7179326,E,1,04,1.0,76.126,M,0.000,M,0.0,*43
$GPGSA,A,3,10,12,15,24,,,,,,,,,3.3,2.1,2.6,1*28
$GPGSV,1,1,04,10,29,316,42,12,21,146,48,15,43,070,45,24,78,050,47,1*6D
$GPRMC,070428.49,A,3622.5314398,N,12721.7181449,E,1.09,45.90,060825,0.0,E,A*0D
$GPGGA,070428.49,3622.5314398,N,12721.7181449,E,1,04,1.0,75.689,M,0.000,M,0.0,*43
$GPGSA,A,3,10,12,15,24,,,,,,,,,3.3,2.1,2.6,1*28
$GPGSV,1,1,04,10,29,316,42,12,21,146,48,15,43,070,45,24,78,050,46,1*6C
$GPRMC,070428.59,A,3622.5318896,N,12721.7183444,E,2.18,247.61,060825,0.0,E,A*37
$GPGGA,070428.59,3622.5318896,N,12721.7183444,E,1,04,1.0,80.349,M,0.000,M,0.0,*47
$GPGSA,A,3,10,12,15,24,,,,,,,,,3.3,2.1,2.6,1*28
$GPGSV,1,1,04,10,29,316,42,12,21,146,48,15,43,070,45,24,78,050,46,1*6C
$GPRMC,070428.69,A,3622.5325215,N,12721.7202924,E,1.22,247.61,060825,0.0,E,A*30
$GPGGA,070428.69,3622.5325215,N,12721.7202924,E,1,04,1.0,75.771,M,0.000,M,0.0,*4F
$GPGSA,A,3,10,12,15,24,,,,,,,,,3.3,2.1,2.6,1*28
$GPGSV,1,1,04,10,29,316,42,12,21,146,48,15,43,070,45,24,78,050,46,1*6C
$GPRMC,070428.79,A,3622.5324211,N,12721.7188313,E,3.59,63.99,060825,0.0,E,A*06
$GPGGA,070428.79,3622.5324211,N,12721.7188313,E,1,04,1.0,71.460,M,0.000,M,0.0,*43
$GPGSA,A,3,10,12,15,24,,,,,,,,,3.3,2.1,2.6,1*28
$GPGSV,1,1,04,10,29,316,42,12,21,146,48,15,43,070,45,24,78,050,46,1*6C
$GPRMC,070428.89,A,3622.5322538,N,12721.7190750,E,4.60,61.53,060825,0.0,E,A*00
$GPGGA,070428.89,3622.5322538,N,12721.7190750,E,1,04,1.0,72.337,M,0.000,M,0.0,*4A
$GPGSA,A,3,10,12,15,24,,,,,,,,,3.3,2.1,2.6,1*28
$GPGSV,1,1,04,10,29,316,42,12,21,146,48,15,43,070,45,24,78,050,46,1*6C
$GPRMC,070428.99,A,3622.5332645,N,12721.7186383,E,0.62,61.53,060825,0.0,E,A*02
$GPGGA,070428.99,3622.5332645,N,12721.7186383,E,1,04,1.0,73.687,M,0.000,M,0.0,*41
$GPGSA,A,3,10,12,15,24,,,,,,,,,3.3,2.1,2.6,1*28
$GPGSV,1,1,04,10,29,316,43,12,21,146,48,15,43,070,45,24,78,050,46,1*6D
$GPRMC,070429.09,A,3622.5325641,N,12721.7192357,E,1.59,61.53,060825,0.0,E,A*0D
$GPGGA,070429.09,3622.5325641,N,12721.7192357,E,1,04,1.0,77.647,M,0.000,M,0.0,*4F
$GPGSA,A,3,10,12,15,24,,,,,,,,,3.3,2.1,2.6,1*28
$GPGSV,1,1,04,10,29,316,43,12,21,146,48,15,43,070,45,24,78,050,46,1*6D
$GPRMC,070429.19,A,3622.5326126,N,12721.7195034,E,4.98,39.31,060825,0.0,E,A*09
$GPGGA,070429.19,3622.5326126,N,12721.7195034,E,1,04,1.0,76.353,M,0.000,M,0.0,*4B
$GPGSA,A,3,10,12,15,24,,,,,,,,,3.3,2.1,2.6,1*28
$GPGSV,1,1,04,10,29,316,42,12,21,146,48,15,43,070,45,24,78,050,46,1*6C
$GPRMC,070429.29,A,3622.5318959,N,12721.7184192,E,0.14,39.31,060825,0.0,E,A*0A
$GPGGA,070429.29,3622.5318959,N,12721.7184192,E,1,04,1.0,78.398,M,0.000,M,0.0,*41
$GPGSA,A,3,10,12,15,24,,,,,,,,,3.3,2.1,2.6,1*28
$GPGSV,1,1,04,10,29,316,42,12,21,146,48,15,43,070,45,24,78,050,46,1*6C
$GPRMC,070429.39,A,3622.5315431,N,12721.7177767,E,0.48,39.31,060825,0.0,E,A*0C
$GPGGA,070429.39,3622.5315431,N,12721.7177767,E,1,04,1.0,74.749,M,0.000,M,0.0,*4A
$GPGSA,A,3,10,12,15,24,,,,,,,,,3.3,2.1,2.6,1*28
$GPGSV,1,1,04,10,29,316,42,12,21,146,48,15,43,070,45,24,78,050,46,1*6C
$GPRMC,070429.49,A,3622.5322752,N,12721.7187245,E,4.25,209.99,060825,0.0,E,A*3F
$GPGGA,070429.49,3622.5322752,N,12721.7187245,E,1,04,1.0,77.326,M,0.000,M,0.0,*4B
$GPGSA,A,3,10,12,15,24,,,,,,,,,3.3,2.1,2.6,1*28
$GPGSV,1,1,04,10,29,316,42,12,21,146,48,15,43,070,45,24,78,050,46,1*6C
$GPRMC,070429.59,A,3622.5327284,N,12721.7224623,E,1.57,209.99,060825,0.0,E,A*3B
$GPGGA,070429.59,3622.5327284,N,12721.7224623,E,1,04,1.0,75.821,M,0.000,M,0.0,*41
$GPGSA,A,3,10,12,15,24,,,,,,,,,3.3,2.1,2.6,1*28
$GPGSV,1,1,04,10,29,316,42,12,21,146,48,15,43,070,45,24,78,050,46,1*6C
$GPRMC,070429.69,A,3622.5306731,N,12721.7183210,E,3.11,5.66,060825,0.0,E,A*34
$GPGGA,070429.69,3622.5306731,N,12721.7183210,E,1,04,1.0,78.450,M,0.000,M,0.0,*47
$GPGSA,A,3,10,12,15,24,,,,,,,,,3.3,2.1,2.6,1*28
$GPGSV,1,1,04,10,29,316,42,12,21,146,48,15,43,070,45,24,78,050,46,1*6C
$GPRMC,070429.79,A,3622.5310657,N,12721.7185098,E,1.53,5.66,060825,0.0,E,A*33
$GPGGA,070429.79,3622.5310657,N,12721.7185098,E,1,04,1.0,73.457,M,0.000,M,0.0,*48
$GPGSA,A,3,10,12,15,24,,,,,,,,,3.3,2.1,2.6,1*28
$GPGSV,1,1,04,10,29,316,42,12,21,146,48,15,43,070,45,24,78,050,46,1*6C
$GPRMC,070429.89,A,3622.5311413,N,12721.7156794,E,2.78,163.05,060825,0.0,E,A*34
$GPGGA,070429.89,3622.5311413,N,12721.7156794,E,1,04,1.0,69.587,M,0.000,M,0.0,*46
$GPGSA,A,3,10,12,15,24,,,,,,,,,3.3,2.1,2.6,1*28
$GPGSV,1,1,04,10,29,316,43,12,21,146,48,15,43,070,45,24,78,050,46,1*6D
$GPRMC,070429.99,A,3622.5313641,N,12721.7184939,E,1.88,163.05,060825,0.0,E,A*38
$GPGGA,070429.99,3622.5313641,N,12721.7184939,E,1,04,1.0,77.838,M,0.000,M,0.0,*40
$GPGSA,A,3,10,12,15,24,,,,,,,,,3.3,2.1,2.6,1*28
$GPGSV,1,1,04,10,29,316,43,12,21,146,48,15,43,070,45,24,78,050,46,1*6D
$GPRMC,070430.09,A,3622.5324012,N,12721.7204323,E,1.95,5.78,060825,0.0,E,A*30
$GPGGA,070430.09,3622.5324012,N,12721.7204323,E,1,04,1.0,77.326,M,0.000,M,0.0,*4B
$GPGSA,A,3,10,12,15,24,,,,,,,,,3.3,2.1,2.6,1*28
$GPGSV,1,1,04,10,29,316,43,12,21,146,48,15,43,070,45,24,78,050,46,1*6D
$GPRMC,070430.19,A,3622.5323502,N,12721.7195960,E,2.84,83.33,060825,0.0,E,A*06
$GPGGA,070430.19,3622.5323502,N,12721.7195960,E,1,04,1.0,75.004,M,0.000,M,0.0,*4E
$GPGSA,A,3,10,12,15,24,,,,,,,,,3.3,2.1,2.6,1*28
$GPGSV,1,1,04,10,29,316,43,12,21,146,48,15,43,070,45,24,78,050,46,1*6D
$GPRMC,070430.29,A,3622.5321838,N,12721.7183816,E,3.56,31.14,060825,0.0,E,A*06
$GPGGA,070430.29,3622.5321838,N,12721.7183816,E,1,04,1.0,74.854,M,0.000,M,0.0,*40
$GPGSA,A,3,10,12,15,24,,,,,,,,,3.3,2.1,2.6,1*28
$GPGSV,1,1,04,10,29,316,43,12,21,146,48,15,43,070,45,24,78,050,46,1*6D
$GPRMC,070430.39,A,3622.5317400,N,12721.7173382,E,2.43,231.22,060825,0.0,E,A*3E
$GPGGA,070430.39,3622.5317400,N,12721.7173382,E,1,04,1.0,73.419,M,0.000,M,0.0,*48
$GPGSA,A,3,10,12,15,24,,,,,,,,,3.3,2.1,2.6,1*28
$GPGSV,1,1,04,10,29,316,43,12,21,146,48,15,43,070,45,24,78,050,46,1*6D
$GPRMC,070430.49,A,3622.5303417,N,12721.7148843,E,2.84,67.05,060825,0.0,E,A*0B
$GPGGA,070430.49,3622.5303417,N,12721.7148843,E,1,04,1.0,68.990,M,0.000,M,0.0,*44
$GPGSA,A,3,10,12,15,24,,,,,,,,,3.3,2.1,2.6,1*28
$GPGSV,1,1,04,10,29,316,43,12,21,146,48,15,43,070,45,24,78,050,46,1*6D
$GPRMC,070430.59,A,3622.5316668,N,12721.7182075,E,0.57,67.05,060825,0.0,E,A*03
$GPGGA,070430.59,3622.5316668,N,12721.7182075,E,1,04,1.0,73.699,M,0.000,M,0.0,*4C
$GPGSA,A,3,10,12,15,24,,,,,,,,,3.3,2.1,2.6,1*28
$GPGSV,1,1,04,10,29,316,43,12,21,146,48,15,43,070,45,24,78,050,46,1*6D
$GPRMC,070430.69,A,3622.5306878,N,12721.7165699,E,0.90,67.05,060825,0.0,E,A*08
$GPGGA,070430.69,3622.5306878,N,12721.7165699,E,1,04,1.0,78.298,M,0.000,M,0.0,*42
$GPGSA,A,3,10,12,15,24,,,,,,,,,3.3,2.1,2.6,1*28
$GPGSV,1,1,04,10,29,316,43,12,21,146,48,15,43,070,45,24,78,050,46,1*6D
$GPRMC,070430.79,A,3622.5325051,N,12721.7191143,E,0.99,67.05,060825,0.0,E,A*09
$GPGGA,070430.79,3622.5325051,N,12721.7191143,E,1,04,1.0,76.672,M,0.000,M,0.0,*44
$GPGSA,A,3,10,12,15,24,,,,,,,,,3.3,2.1,2.6,1*28
$GPGSV,1,1,04,10,29,316,43,12,21,146,48,15,43,070,45,24,78,050,46,1*6D
$GPRMC,070430.89,A,3622.5318845,N,12721.7172669,E,2.50,48.00,060825,0.0,E,A*08
$GPGGA,070430.89,3622.5318845,N,12721.7172669,E,1,04,1.0,74.819,M,0.000,M,0.0,*4B
$GPGSA,A,3,10,12,15,24,,,,,,,,,3.3,2.1,2.6,1*28
$GPGSV,1,1,04,10,29,316,43,12,21,146,48,15,43,070,45,24,78,050,46,1*6D
$GPRMC,070430.99,A,3622.5334742,N,12721.7185883,E,1.81,48.00,060825,0.0,E,A*02
$GPGGA,070430.99,3622.5334742,N,12721.7185883,E,1,04,1.0,70.870,M,0.000,M,0.0,*45
$GPGSA,A,3,10,12,15,24,,,,,,,,,3.3,2.1,2.6,1*28
$GPGSV,1,1,04,10,29,316,43,12,21,146,48,15,43,070,45,24,78,050,46,1*6D
$GPRMC,070431.09,A,3622.5330823,N,12721.7178289,E,5.84,239.00,060825,0.0,E,A*31
$GPGGA,070431.09,3622.5330823,N,12721.7178289,E,1,04,1.0,72.837,M,0.000,M,0.0,*42
$GPGSA,A,3,10,12,15,24,,,,,,,,,3.3,2.1,2.6,1*28
$GPGSV,1,1,04,10,29,316,43,12,21,146,48,15,43,070,45,24,78,050,46,1*6D
$GPRMC,070431.19,A,3622.5319250,N,12721.7165721,E,1.65,239.00,060825,0.0,E,A*35
$GPGGA,070431.19,3622.5319250,N,12721.7165721,E,1,04,1.0,78.088,M,0.000,M,0.0,*4B
$GPGSA,A,3,10,12,15,24,,,,,,,,,3.3,2.1,2.6,1*28
$GPGSV,1,1,04,10,29,316,42,12,21,146,48,15,43,070,45,24,78,050,46,1*6C
$GPRMC,070431.29,A,3622.5296110,N,12721.7133571,E,1.30,239.00,060825,0.0,E,A*33
$GPGGA,070431.29,3622.5296110,N,12721.7133571,E,1,04,1.0,84.216,M,0.000,M,0.0,*4B
$GPGSA,A,3,10,12,15,24,,,,,,,,,3.3,2.1,2.6,1*28
$GPGSV,1,1,04,10,29,316,42,12,21,146,48,15,43,070,45,24,78,050,46,1*6C
$GPRMC,070431.39,A,3622.5304191,N,12721.7155199,E,1.81,239.00,060825,0.0,E,A*39
$GPGGA,070431.39,3622.5304191,N,12721.7155199,E,1,04,1.0,79.732,M,0.000,M,0.0,*4A
$GPGSA,A,3,10,12,15,24,,,,,,,,,3.3,2.1,2.6,1*28
$GPGSV,1,1,04,10,29,316,42,12,21,146,48,15,43,070,45,24,78,050,46,1*6C
$GPRMC,070431.49,A,3622.5308356,N,12721.7177806,E,0.89,239.00,060825,0.0,E,A*3D
$GPGGA,070431.49,3622.5308356,N,12721.7177806,E,1,04,1.0,76.888,M,0.000,M,0.0,*46
$GPGSA,A,3,10,12,15,24,,,,,,,,,3.3,2.1,2.6,1*28
$GPGSV,1,1,04,10,29,316,42,12,21,146,48,15,43,070,46,24,78,050,46,1*6F
$GPRMC,070431.59,A,3622.5299020,N,12721.7168704,E,1.90,239.00,060825,0.0,E,A*3D
$GPGGA,070431.59,3622.5299020,N,12721.7168704,E,1,04,1.0,76.773,M,0.000,M,0.0,*44
$GPGSA,A,3,10,12,15,24,,,,,,,,,3.3,2.1,2.6,1*28
$GPGSV,1,1,04,10,29,316,42,12,21,146,48,15,43,070,45,24,78,050,46,1*6C
$GPRMC,070431.69,A,3622.5293363,N,12721.7159536,E,1.29,239.00,060825,0.0,E,A*33
$GPGGA,070431.69,3622.5293363,N,12721.7159536,E,1,04,1.0,78.392,M,0.000,M,0.0,*4D
$GPGSA,A,3,10,12,15,24,,,,,,,,,3.3,2.1,2.6,1*28
$GPGSV,1,1,04,10,29,316,42,12,21,146,48,15,43,070,45,24,78,050,46,1*6C
$GPRMC,070431.79,A,3622.5302853,N,12721.7140110,E,3.46,199.40,060825,0.0,E,A*3D
$GPGGA,070431.79,3622.5302853,N,12721.7140110,E,1,04,1.0,80.419,M,0.000,M,0.0,*46
$GPGSA,A,3,10,12,15,24,,,,,,,,,3.3,2.1,2.6,1*28
$GPGSV,1,1,04,10,29,316,42,12,21,146,48,15,43,070,45,24,78,050,46,1*6C
$GPRMC,070431.89,A,3622.5322968,N,12721.7160649,E,3.76,48.51,060825,0.0,E,A*0E
$GPGGA,070431.89,3622.5322968,N,12721.7160649,E,1,04,1.0,77.652,M,0.000,M,0.0,*4E
$GPGSA,A,3,10,12,15,24,,,,,,,,,3.3,2.1,2.6,1*28
$GPGSV,1,1,04,10,29,316,42,12,21,146,48,15,43,070,46,24,78,050,47,1*6E
$GPRMC,070431.99,A,3622.5311261,N,12721.7166199,E,6.52,35.10,060825,0.0,E,A*0D
$GPGGA,070431.99,3622.5311261,N,12721.7166199,E,1,04,1.0,77.223,M,0.000,M,0.0,*43
$GPGSA,A,3,10,12,15,24,,,,,,,,,3.3,2.1,2.6,1*28
$GPGSV,1,1,04,10,29,316,42,12,21,146,48,15,43,070,46,24,78,050,46,1*6F
$GPRMC,070432.09,A,3622.5308899,N,12721.7159777,E,2.11,72.94,060825,0.0,E,A*04
$GPGGA,070432.09,3622.5308899,N,12721.7159777,E,1,04,1.0,72.376,M,0.000,M,0.0,*42
$GPGSA,A,3,10,12,15,24,,,,,,,,,3.3,2.1,2.6,1*28
$GPGSV,1,1,04,10,29,316,42,12,21,146,48,15,43,070,46,24,78,050,46,1*6F
$GPRMC,070432.19,A,3622.5308610,N,12721.7159100,E,3.28,249.15,060825,0.0,E,A*34
$GPGGA,070432.19,3622.5308610,N,12721.7159100,E,1,04,1.0,74.270,M,0.000,M,0.0,*4B
$GPGSA,A,3,10,12,15,24,,,,,,,,,3.3,2.1,2.6,1*28
$GPGSV,1,1,04,10,29,316,42,12,21,146,48,15,43,070,46,24,78,050,46,1*6F
$GPRMC,070432.29,A,3622.5293102,N,12721.7138005,E,1.80,249.15,060825,0.0,E,A*33
$GPGGA,070432.29,3622.5293102,N,12721.7138005,E,1,04,1.0,79.630,M,0.000,M,0.0,*41
$GPGSA,A,3,10,12,15,24,,,,,,,,,3.3,2.1,2.6,1*28
$GPGSV,1,1,04,10,29,316,42,12,21,146,48,15,43,070,46,24,78,050,46,1*6F
$GPRMC,070432.39,A,3622.5282937,N,12721.7120235,E,1.52,249.15,060825,0.0,E,A*3B
$GPGGA,070432.39,3622.5282937,N,12721.7120235,E,1,04,1.0,81.038,M,0.000,M,0.0,*4F
$GPGSA,A,3,10,12,15,24,,,,,,,,,3.3,2.1,2.6,1*28
$GPGSV,1,1,04,10,29,316,42,12,21,146,48,15,43,070,46,24,78,050,46,1*6F
$GPRMC,070432.49,A,3622.5304020,N,12721.7163837,E,3.41,247.51,060825,0.0,E,A*3D
$GPGGA,070432.49,3622.5304020,N,12721.7163837,E,1,04,1.0,75.774,M,0.000,M,0.0,*43
$GPGSA,A,3,10,12,15,24,,,,,,,,,3.3,2.1,2.6,1*28
$GPGSV,1,1,04,10,29,316,42,12,21,146,48,15,43,070,46,24,78,050,46,1*6F
$GPRMC,070432.59,A,3622.5307419,N,12721.7159232,E,3.18,217.78,060825,0.0,E,A*35
$GPGGA,070432.59,3622.5307419,N,12721.7159232,E,1,04,1.0,76.099,M,0.000,M,0.0,*4E
$GPGSA,A,3,10,12,15,24,,,,,,,,,3.3,2.1,2.6,1*28
$GPGSV,1,1,04,10,29,316,42,12,21,146,48,15,43,070,45,24,78,050,46,1*6C
$GPRMC,070432.69,A,3622.5291530,N,12721.7131469,E,4.48,228.34,060825,0.0,E,A*32
$GPGGA,070432.69,3622.5291530,N,12721.7131469,E,1,04,1.0,79.659,M,0.000,M,0.0,*4A
$GPGSA,A,3,10,12,15,24,,,,,,,,,3.3,2.1,2.6,1*28
$GPGSV,1,1,04,10,29,316,42,12,21,146,48,15,43,070,45,24,78,050,46,1*6C
$GPRMC,070432.79,A,3622.5291059,N,12721.7111035,E,2.53,236.53,060825,0.0,E,A*34
$GPGGA,070432.79,3622.5291059,N,12721.7111035,E,1,04,1.0,77.691,M,0.000,M,0.0,*44
$GPGSA,A,3,10,12,15,24,,,,,,,,,3.3,2.1,2.6,1*28
$GPGSV,1,1,04,10,29,316,42,12,21,146,48,15,43,070,45,24,78,050,46,1*6C
$GPRMC,070432.89,A,3622.5298339,N,12721.7120490,E,2.13,62.34,060825,0.0,E,A*08
$GPGGA,070432.89,3622.5298339,N,12721.7120490,E,1,04,1.0,76.153,M,0.000,M,0.0,*46
$GPGSA,A,3,10,12,15,24,,,,,,,,,3.3,2.1,2.6,1*28
$GPGSV,1,1,04,10,29,316,43,12,21,146,48,15,43,070,45,24,78,050,46,1*6D
$GPRMC,070432.99,A,3622.5295515,N,12721.7126112,E,2.57,266.41,060825,0.0,E,A*31
$GPGGA,070432.99,3622.5295515,N,12721.7126112,E,1,04,1.0,81.720,M,0.000,M,0.0,*41
$GPGSA,A,3,10,12,15,24,,,,,,,,,3.3,2.1,2.6,1*28
$GPGSV,1,1,04,10,29,316,42,12,21,146,48,15,43,070,45,24,78,050,46,1*6C
$GPRMC,070433.09,A,3622.5291110,N,12721.7119424,E,3.11,241.56,060825,0.0,E,A*30
$GPGGA,070433.09,3622.5291110,N,12721.7119424,E,1,04,1.0,81.481,M,0.000,M,0.0,*48
$GPGSA,A,3,10,12,15,24,,,,,,,,,3.3,2.1,2.6,1*28
$GPGSV,1,1,04,10,29,316,42,12,21,146,48,15,43,070,45,24,78,050,47,1*6D
$GPRMC,070433.19,A,3622.5288468,N,12721.7132561,E,3.56,218.74,060825,0.0,E,A*35
$GPGGA,070433.19,3622.5288468,N,12721.7132561,E,1,04,1.0,78.729,M,0.000,M,0.0,*45
$GPGSA,A,3,10,12,15,24,,,,,,,,,3.3,2.1,2.6,1*28
$GPGSV,1,1,04,10,29,316,43,12,21,146,48,15,43,070,45,24,78,050,46,1*6D
$GPRMC,070433.29,A,3622.5300617,N,12721.7153267,E,1.68,218.74,060825,0.0,E,A*34
$GPGGA,070433.29,3622.5300617,N,12721.7153267,E,1,04,1.0,72.251,M,0.000,M,0.0,*4B
$GPGSA,A,3,10,12,15,24,,,,,,,,,3.3,2.1,2.6,1*28
$GPGSV,1,1,04,10,29,316,42,12,21,146,48,15,43,070,45,24,78,050,46,1*6C
$GPRMC,070433.39,A,3622.5290019,N,12721.7126286,E,4.03,352.34,060825,0.0,E,A*3B
$GPGGA,070433.39,3622.5290019,N,12721.7126286,E,1,04,1.0,78.029,M,0.000,M,0.0,*40
$GPGSA,A,3,10,12,15,24,,,,,,,,,3.3,2.1,2.6,1*28
$GPGSV,1,1,04,10,29,316,42,12,21,146,48,15,43,070,45,24,78,050,47,1*6D
$GPRMC,070433.49,A,3622.5294590,N,12721.7137570,E,3.40,45.71,060825,0.0,E,A*06
$GPGGA,070433.49,3622.5294590,N,12721.7137570,E,1,04,1.0,72.670,M,0.000,M,0.0,*49
$GPGSA,A,3,10,12,15,24,,,,,,,,,3.3,2.1,2.6,1*28
$GPGSV,1,1,04,10,29,316,42,12,21,146,48,15,43,070,45,24,78,050,47,1*6D
$GPRMC,070433.59,A,3622.5299042,N,12721.7123480,E,2.56,4.18,060825,0.0,E,A*37
$GPGGA,070433.59,3622.5299042,N,12721.7123480,E,1,04,1.0,71.547,M,0.000,M,0.0,*40
$GPGSA,A,3,10,12,15,24,,,,,,,,,3.3,2.1,2.6,1*28
$GPGSV,1,1,04,10,29,316,42,12,21,146,48,15,43,070,45,24,78,050,46,1*6C
$GPRMC,070433.69,A,3622.5307101,N,12721.7128150,E,1.30,4.18,060825,0.0,E,A*34
$GPGGA,070433.69,3622.5307101,N,12721.7128150,E,1,04,1.0,73.857,M,0.000,M,0.0,*4E
$GPGSA,A,3,10,12,15,24,,,,,,,,,3.3,2.1,2.6,1*28
$GPGSV,1,1,04,10,29,316,42,12,21,146,48,15,43,070,45,24,78,050,46,1*6C
$GPRMC,070433.79,A,3622.5309309,N,12721.7132892,E,1.96,227.45,060825,0.0,E,A*3A
$GPGGA,070433.79,3622.5309309,N,12721.7132892,E,1,04,1.0,74.651,M,0.000,M,0.0,*48
$GPGSA,A,3,10,12,15,24,,,,,,,,,3.3,2.1,2.6,1*28
$GPGSV,1,1,04,10,29,316,42,12,21,146,47,15,43,070,45,24,78,050,46,1*63
$GPRMC,070433.89,A,3622.5293661,N,12721.7114124,E,1.87,227.45,060825,0.0,E,A*3C
$GPGGA,070433.89,3622.5293661,N,12721.7114124,E,1,04,1.0,76.908,M,0.000,M,0.0,*4F
$GPGSA,A,3,10,12,15,24,,,,,,,,,3.3,2.1,2.6,1*28
$GPGSV,1,1,04,10,29,316,42,12,21,146,48,15,43,070,46,24,78,050,46,1*6F
$GPRMC,070433.99,A,3622.5275522,N,12721.7103176,E,2.42,188.71,060825,0.0,E,A*3B
$GPGGA,070433.99,3622.5275522,N,12721.7103176,E,1,04,1.0,80.644,M,0.000,M,0.0,*4D
$GPGSA,A,3,10,12,15,24,,,,,,,,,3.3,2.1,2.6,1*28
$GPGSV,1,1,04,10,29,316,42,12,21,146,48,15,43,070,46,24,78,050,46,1*6F
$GPRMC,070434.09,A,3622.5282349,N,12721.7113472,E,1.29,188.71,060825,0.0,E,A*38
$GPGGA,070434.09,3622.5282349,N,12721.7113472,E,1,04,1.0,78.773,M,0.000,M,0.0,*42
$GPGSA,A,3,10,12,15,24,,,,,,,,,3.3,2.1,2.6,1*28
$GPGSV,1,1,04,10,29,317,42,12,21,146,48,15,43,070,46,24,78,050,46,1*6E
$GPRMC,070434.19,A,3622.5284744,N,12721.7119964,E,0.49,188.71,060825,0.0,E,A*31
$GPGGA,070434.19,3622.5284744,N,12721.7119964,E,1,04,1.0,81.291,M,0.000,M,0.0,*43
$GPGSA,A,3,10,12,15,24,,,,,,,,,3.3,2.1,2.6,1*28
$GPGSV,1,1,04,10,29,317,42,12,21,146,48,15,43,070,46,24,78,050,46,1*6E
$GPRMC,070434.29,A,3622.5284875,N,12721.7123502,E,3.38,36.48,060825,0.0,E,A*01
$GPGGA,070434.29,3622.5284875,N,12721.7123502,E,1,04,1.0,81.254,M,0.000,M,0.0,*41
$GPGSA,A,3,10,12,15,24,,,,,,,,,3.3,2.1,2.6,1*28
$GPGSV,1,1,04,10,29,317,42,12,21,146,47,15,43,070,45,24,78,050,46,1*62
$GPRMC,070434.39,A,3622.5272886,N,12721.7106676,E,4.26,53.94,060825,0.0,E,A*08
$GPGGA,070434.39,3622.5272886,N,12721.7106676,E,1,04,1.0,84.743,M,0.000,M,0.0,*44
$GPGSA,A,3,10,12,15,24,,,,,,,,,3.3,2.1,2.6,1*28
$GPGSV,1,1,04,10,29,317,42,12,21,146,47,15,43,070,45,24,78,050,46,1*62
$GPRMC,070434.49,A,3622.5285880,N,12721.7102724,E,1.45,53.94,060825,0.0,E,A*03
$GPGGA,070434.49,3622.5285880,N,12721.7102724,E,1,04,1.0,86.238,M,0.000,M,0.0,*44
$GPGSA,A,3,10,12,15,24,,,,,,,,,3.3,2.1,2.6,1*28
$GPGSV,1,1,04,10,29,317,42,12,21,146,47,15,43,070,45,24,78,050,46,1*62
$GPRMC,070434.59,A,3622.5302084,N,12721.7120951,E,1.41,53.94,060825,0.0,E,A*08
$GPGGA,070434.59,3622.5302084,N,12721.7120951,E,1,04,1.0,79.181,M,0.000,M,0.0,*4A
$GPGSA,A,3,10,12,15,24,,,,,,,,,3.3,2.1,2.6,1*28
$GPGSV,1,1,04,10,29,317,42,12,21,146,47,15,43,070,46,24,78,050,46,1*61
$GPRMC,070434.69,A,3622.5301860,N,12721.7123624,E,1.05,53.94,060825,0.0,E,A*04
$GPGGA,070434.69,3622.5301860,N,12721.7123624,E,1,04,1.0,75.510,M,0.000,M,0.0,*46
$GPGSA,A,3,10,12,15,24,,,,,,,,,3.3,2.1,2.6,1*28
$GPGSV,1,1,04,10,29,317,42,12,21,146,47,15,43,070,46,24,78,050,46,1*61
$GPRMC,070434.79,A,3622.5286451,N,12721.7129958,E,2.69,355.66,060825,0.0,E,A*3A
$GPGGA,070434.79,3622.5286451,N,12721.7129958,E,1,04,1.0,84.270,M,0.000,M,0.0,*46
$GPGSA,A,3,10,12,15,24,,,,,,,,,3.3,2.1,2.6,1*28
$GPGSV,1,1,04,10,29,317,42,12,21,146,47,15,43,070,46,24,78,050,46,1*61
$GPRMC,070434.89,A,3622.5272671,N,12721.7106942,E,1.54,355.66,060825,0.0,E,A*35
$GPGGA,070434.89,3622.5272671,N,12721.7106942,E,1,04,1.0,87.711,M,0.000,M,0.0,*45
$GPGSA,A,3,10,12,15,24,,,,,,,,,3.3,2.1,2.6,1*28
$GPGSV,1,1,04,10,29,317,42,12,21,146,47,15,43,070,46,24,78,050,46,1*61
$GPRMC,070434.99,A,3622.5287734,N,12721.7130785,E,2.53,241.66,060825,0.0,E,A*3E
$GPGGA,070434.99,3622.5287734,N,12721.7130785,E,1,04,1.0,81.403,M,0.000,M,0.0,*48
$GPGSA,A,3,10,12,15,24,,,,,,,,,3.3,2.1,2.6,1*28
$GPGSV,1,1,04,10,29,317,42,12,21,146,48,15,43,070,46,24,78,050,47,1*6F
$GPRMC,070435.09,A,3622.5266201,N,12721.7114092,E,1.71,241.66,060825,0.0,E,A*3E
$GPGGA,070435.09,3622.5266201,N,12721.7114092,E,1,04,1.0,87.449,M,0.000,M,0.0,*43
$GPGSA,A,3,10,12,15,24,,,,,,,,,3.3,2.1,2.6,1*28
$GPGSV,1,1,04,10,29,317,42,12,21,146,48,15,43,070,46,24,78,050,47,1*6F
$GPRMC,070435.19,A,3622.5295216,N,12721.7125911,E,2.20,337.61,060825,0.0,E,A*35
$GPGGA,070435.19,3622.5295216,N,12721.7125911,E,1,04,1.0,75.321,M,0.000,M,0.0,*4C
$GPGSA,A,3,10,12,15,24,,,,,,,,,3.3,2.1,2.6,1*28
$GPGSV,1,1,04,10,29,317,42,12,21,146,47,15,43,070,46,24,78,050,47,1*60
$GPRMC,070435.29,A,3622.5294158,N,12721.7117498,E,0.38,337.61,060825,0.0,E,A*38
$GPGGA,070435.29,3622.5294158,N,12721.7117498,E,1,04,1.0,73.076,M,0.000,M,0.0,*4D
$GPGSA,A,3,10,12,15,24,,,,,,,,,3.3,2.1,2.6,1*28
$GPGSV,1,1,04,10,29,317,42,12,21,146,48,15,43,070,46,24,78,050,46,1*6E
$GPRMC,070435.39,A,3622.5291552,N,12721.7117912,E,1.78,337.61,060825,0.0,E,A*38
$GPGGA,070435.39,3622.5291552,N,12721.7117912,E,1,04,1.0,78.744,M,0.000,M,0.0,*45
$GPGSA,A,3,10,12,15,24,,,,,,,,,3.3,2.1,2.6,1*28
$GPGSV,1,1,04,10,29,317,42,12,21,146,47,15,43,070,46,24,78,050,46,1*61
$GPRMC,070435.49,A,3622.5284804,N,12721.7127287,E,1.01,337.61,060825,0.0,E,A*3F
$GPGGA,070435.49,3622.5284804,N,12721.7127287,E,1,04,1.0,84.104,M,0.000,M,0.0,*4D
$GPGSA,A,3,10,12,15,24,,,,,,,,,3.3,2.1,2.6,1*28
$GPGSV,1,1,04,10,29,317,42,12,21,146,47,15,43,070,46,24,78,050,46,1*61
$GPRMC,070435.59,A,3622.5292775,N,12721.7143071,E,0.81,337.61,060825,0.0,E,A*30
$GPGGA,070435.59,3622.5292775,N,12721.7143071,E,1,04,1.0,86.837,M,0.000,M,0.0,*40
$GPGSA,A,3,10,12,15,24,,,,,,,,,3.3,2.1,2.6,1*28
$GPGSV,1,1,04,10,29,317,42,12,21,146,47,15,43,070,46,24,78,050,46,1*61
$GPRMC,070435.69,A,3622.5307877,N,12721.7131443,E,2.27,182.49,060825,0.0,E,A*3B
$GPGGA,070435.69,3622.5307877,N,12721.7131443,E,1,04,1.0,81.599,M,0.000,M,0.0,*4D
$GPGSA,A,3,10,12,15,24,,,,,,,,,3.3,2.1,2.6,1*28
$GPGSV,1,1,04,10,29,317,42,12,21,146,47,15,43,070,46,24,78,050,46,1*61
$GPRMC,070435.79,A,3622.5290139,N,12721.7122597,E,3.41,13.97,060825,0.0,E,A*07
$GPGGA,070435.79,3622.5290139,N,12721.7122597,E,1,04,1.0,78.463,M,0.000,M,0.0,*48
$GPGSA,A,3,10,12,15,24,,,,,,,,,3.3,2.1,2.6,1*28
$GPGSV,1,1,04,10,29,317,42,12,21,146,47,15,43,070,46,24,78,050,46,1*61
$GPRMC,070435.89,A,3622.5285564,N,12721.7103785,E,1.93,13.97,060825,0.0,E,A*0F
$GPGGA,070435.89,3622.5285564,N,12721.7103785,E,1,04,1.0,82.556,M,0.000,M,0.0,*4F
$GPGSA,A,3,10,12,15,24,,,,,,,,,3.3,2.1,2.6,1*28
$GPGSV,1,1,04,10,29,317,42,12,21,146,47,15,43,070,46,24,78,050,47,1*60
$GPRMC,070435.99,A,3622.5298160,N,12721.7112952,E,2.03,46.71,060825,0.0,E,A*04
$GPGGA,070435.99,3622.5298160,N,12721.7112952,E,1,04,1.0,79.682,M,0.000,M,0.0,*48
$GPGSA,A,3,10,12,15,24,,,,,,,,,3.3,2.1,2.6,1*28
$GPGSV,1,1,04,10,29,317,43,12,21,146,47,15,43,070,46,24,78,050,47,1*61
$GPRMC,070436.09,A,3622.5294503,N,12721.7127512,E,5.73,34.31,060825,0.0,E,A*0C
$GPGGA,070436.09,3622.5294503,N,12721.7127512,E,1,04,1.0,79.650,M,0.000,M,0.0,*4E
$GPGSA,A,3,10,12,15,24,,,,,,,,,3.3,2.1,2.6,1*28
$GPGSV,1,1,04,10,29,317,43,12,21,146,47,15,43,070,46,24,78,050,46,1*60
$GPRMC,070436.19,A,3622.5294591,N,12721.7129443,E,2.87,226.31,060825,0.0,E,A*30
$GPGGA,070436.19,3622.5294591,N,12721.7129443,E,1,04,1.0,83.723,M,0.000,M,0.0,*4F
$GPGSA,A,3,10,12,15,24,,,,,,,,,3.3,2.1,2.6,1*28
$GPGSV,1,1,04,10,29,317,43,12,21,146,47,15,43,070,46,24,78,050,46,1*60
$GPRMC,070436.29,A,3622.5306936,N,12721.7151060,E,2.83,47.14,060825,0.0,E,A*04
$GPGGA,070436.29,3622.5306936,N,12721.7151060,E,1,04,1.0,82.071,M,0.000,M,0.0,*4C
$GPGSA,A,3,10,12,15,24,,,,,,,,,3.3,2.1,2.6,1*28
$GPGSV,1,1,04,10,29,317,42,12,21,146,47,15,43,070,45,24,78,050,47,1*63
$GPRMC,070436.39,A,3622.5306823,N,12721.7138869,E,1.88,47.14,060825,0.0,E,A*06
$GPGGA,070436.39,3622.5306823,N,12721.7138869,E,1,04,1.0,84.762,M,0.000,M,0.0,*45
$GPGSA,A,3,10,12,15,24,,,,,,,,,3.3,2.1,2.6,1*28
$GPGSV,1,1,04,10,29,317,42,12,21,146,47,15,43,070,45,24,78,050,46,1*62
$GPRMC,070436.49,A,3622.5301819,N,12721.7146559,E,1.34,47.14,060825,0.0,E,A*0F
$GPGGA,070436.49,3622.5301819,N,12721.7146559,E,1,04,1.0,82.684,M,0.000,M,0.0,*44
$GPGSA,A,3,10,12,15,24,,,,,,,,,3.3,2.1,2.6,1*28
$GPGSV,1,1,04,10,29,317,42,12,21,146,47,15,43,070,46,24,78,050,46,1*61
$GPRMC,070436.59,A,3622.5298862,N,12721.7162745,E,0.26,47.14,060825,0.0,E,A*08
$GPGGA,070436.59,3622.5298862,N,12721.7162745,E,1,04,1.0,86.044,M,0.000,M,0.0,*4F
$GPGSA,A,3,10,12,15,24,,,,,,,,,3.3,2.1,2.6,1*28
$GPGSV,1,1,04,10,29,317,42,12,21,146,47,15,43,070,46,24,78,050,46,1*61
$GPRMC,070436.69,A,3622.5300043,N,12721.7157931,E,1.28,47.14,060825,0.0,E,A*04
$GPGGA,070436.69,3622.5300043,N,12721.7157931,E,1,04,1.0,82.374,M,0.000,M,0.0,*48
$GPGSA,A,3,10,12,15,24,,,,,,,,,3.3,2.1,2.6,1*28
$GPGSV,1,1,04,10,29,317,42,12,21,146,47,15,43,070,46,24,78,050,46,1*61
$GPRMC,070436.79,A,3622.5305519,N,12721.7165886,E,0.24,47.14,060825,0.0,E,A*0B
$GPGGA,070436.79,3622.5305519,N,12721.7165886,E,1,04,1.0,83.416,M,0.000,M,0.0,*48
$GPGSA,A,3,10,12,15,24,,,,,,,,,3.3,2.1,2.6,1*28
$GPGSV,1,1,04,10,29,317,42,12,21,146,47,15,43,070,46,24,78,050,46,1*61
$GPRMC,070436.89,A,3622.5303093,N,12721.7169703,E,0.89,47.14,060825,0.0,E,A*0C
$GPGGA,070436.89,3622.5303093,N,12721.7169703,E,1,04,1.0,83.764,M,0.000,M,0.0,*4E
$GPGSA,A,3,10,12,15,24,,,,,,,,,3.3,2.1,2.6,1*28
$GPGSV,1,1,04,10,29,317,42,12,21,146,47,15,43,070,46,24,78,050,46,1*61
$GPRMC,070436.99,A,3622.5307151,N,12721.7141283,E,3.40,57.23,060825,0.0,E,A*02
$GPGGA,070436.99,3622.5307151,N,12721.7141283,E,1,04,1.0,81.514,M,0.000,M,0.0,*44
$GPGSA,A,3,10,12,15,24,,,,,,,,,3.3,2.1,2.6,1*28
$GPGSV,1,1,04,10,29,317,42,12,21,146,47,15,43,070,46,24,78,050,46,1*61
$GPRMC,070437.09,A,3622.5286117,N,12721.7113731,E,2.78,11.63,060825,0.0,E,A*07
$GPGGA,070437.09,3622.5286117,N,12721.7113731,E,1,04,1.0,85.180,M,0.000,M,0.0,*40
$GPGSA,A,3,10,12,15,24,,,,,,,,,3.3,2.1,2.6,1*28
$GPGSV,1,1,04,10,29,317,42,12,21,146,47,15,43,070,46,24,78,050,46,1*61
$GPRMC,070437.19,A,3622.5306213,N,12721.7135252,E,3.04,317.10,060825,0.0,E,A*37
$GPGGA,070437.19,3622.5306213,N,12721.7135252,E,1,04,1.0,84.397,M,0.000,M,0.0,*4E
$GPGSA,A,3,10,12,15,24,,,,,,,,,3.3,2.1,2.6,1*28
$GPGSV,1,1,04,10,29,317,42,12,21,146,47,15,43,070,45,24,78,050,46,1*62
$GPRMC,070437.29,A,3622.5304239,N,12721.7134380,E,4.06,237.47,060825,0.0,E,A*35
$GPGGA,070437.29,3622.5304239,N,12721.7134380,E,1,04,1.0,86.120,M,0.000,M,0.0,*44
$GPGSA,A,3,10,12,15,24,,,,,,,,,3.3,2.1,2.6,1*28
$GPGSV,1,1,04,10,29,317,43,12,21,146,47,15,43,070,45,24,78,050,46,1*63
$GPRMC,070437.39,A,3622.5311293,N,12721.7179108,E,1.14,237.47,060825,0.0,E,A*3D
$GPGGA,070437.39,3622.5311293,N,12721.7179108,E,1,04,1.0,80.681,M,0.000,M,0.0,*40
$GPGSA,A,3,10,12,15,24,,,,,,,,,3.3,2.1,2.6,1*28
$GPGSV,1,1,04,10,29,317,43,12,21,146,47,15,43,070,45,24,78,050,46,1*63
$GPRMC,070437.49,A,3622.5302539,N,12721.7147949,E,1.59,237.47,060825,0.0,E,A*36
$GPGGA,070437.49,3622.5302539,N,12721.7147949,E,1,04,1.0,82.258,M,0.000,M,0.0,*40
$GPGSA,A,3,10,12,15,24,,,,,,,,,3.3,2.1,2.6,1*28
$GPGSV,1,1,04,10,29,317,42,12,21,146,47,15,43,070,45,24,78,050,46,1*62
$GPRMC,070437.59,A,3622.5295946,N,12721.7140902,E,2.79,200.75,060825,0.0,E,A*30
$GPGGA,070437.59,3622.5295946,N,12721.7140902,E,1,04,1.0,85.450,M,0.000,M,0.0,*4B
$GPGSA,A,3,10,12,15,24,,,,,,,,,3.3,2.1,2.6,1*28
$GPGSV,1,1,04,10,29,317,42,12,21,146,47,15,43,070,45,24,78,050,46,1*62
$GPRMC,070437.69,A,3622.5291372,N,12721.7117868,E,2.33,185.42,060825,0.0,E,A*31
$GPGGA,070437.69,3622.5291372,N,12721.7117868,E,1,04,1.0,87.413,M,0.000,M,0.0,*4B
$GPGSA,A,3,10,12,15,24,,,,,,,,,3.3,2.1,2.6,1*28
$GPGSV,1,1,04,10,29,317,42,12,21,146,47,15,43,070,46,24,78,050,46,1*61
$GPRMC,070437.79,A,3622.5296068,N,12721.7138547,E,2.01,60.73,060825,0.0,E,A*0B
$GPGGA,070437.79,3622.5296068,N,12721.7138547,E,1,04,1.0,84.867,M,0.000,M,0.0,*44
$GPGSA,A,3,10,12,15,24,,,,,,,,,3.3,2.1,2.6,1*28
$GPGSV,1,1,04,10,29,317,42,12,21,146,47,15,43,070,45,24,78,050,46,1*62
$GPRMC,070437.89,A,3622.5318503,N,12721.7148428,E,2.44,167.21,060825,0.0,E,A*34
$GPGGA,070437.89,3622.5318503,N,12721.7148428,E,1,04,1.0,71.189,M,0.000,M,0.0,*48
$GPGSA,A,3,10,12,15,24,,,,,,,,,3.3,2.1,2.6,1*28
$GPGSV,1,1,04,10,29,317,42,12,21,146,47,15,43,070,45,24,78,050,46,1*62
$GPRMC,070437.99,A,3622.5305974,N,12721.7140556,E,1.60,167.21,060825,0.0,E,A*30
$GPGGA,070437.99,3622.5305974,N,12721.7140556,E,1,04,1.0,75.524,M,0.000,M,0.0,*4E
$GPGSA,A,3,10,12,15,24,,,,,,,,,3.3,2.1,2.6,1*28
$GPGSV,1,1,04,10,29,317,42,12,21,146,47,15,43,070,45,24,78,050,46,1*62
$GPRMC,070438.09,A,3622.5294736,N,12721.7136738,E,1.50,167.21,060825,0.0,E,A*3F
$GPGGA,070438.09,3622.5294736,N,12721.7136738,E,1,04,1.0,80.731,M,0.000,M,0.0,*4E
$GPGSA,A,3,10,12,15,24,,,,,,,,,3.3,2.1,2.6,1*28
$GPGSV,1,1,04,10,29,317,42,12,21,146,47,15,43,070,45,24,78,050,46,1*62
$GPRMC,070438.19,A,3622.5310764,N,12721.7128132,E,1.33,167.21,060825,0.0,E,A*32
$GPGGA,070438.19,3622.5310764,N,12721.7128132,E,1,04,1.0,81.167,M,0.000,M,0.0,*42
$GPGSA,A,3,10,12,15,24,,,,,,,,,3.3,2.1,2.6,1*28
$GPGSV,1,1,04,10,29,317,42,12,21,146,47,15,43,070,45,24,78,050,46,1*62
$GPRMC,070438.29,A,3622.5303145,N,12721.7146027,E,2.19,52.13,060825,0.0,E,A*06
$GPGGA,070438.29,3622.5303145,N,12721.7146027,E,1,04,1.0,79.394,M,0.000,M,0.0,*42
$GPGSA,A,3,10,12,15,24,,,,,,,,,3.3,2.1,2.6,1*28
$GPGSV,1,1,04,10,29,317,42,12,21,146,47,15,43,070,45,24,78,050,46,1*62
$GPRMC,070438.39,A,3622.5289357,N,12721.7139928,E,0.87,52.13,060825,0.0,E,A*0E
$GPGGA,070438.39,3622.5289357,N,12721.7139928,E,1,04,1.0,86.830,M,0.000,M,0.0,*4A
$GPGSA,A,3,10,12,15,24,,,,,,,,,3.3,2.1,2.6,1*28
$GPGSV,1,1,04,10,29,317,42,12,21,146,47,15,43,070,45,24,78,050,46,1*62
$GPRMC,070438.49,A,3622.5293415,N,12721.7143683,E,3.09,342.66,060825,0.0,E,A*35
$GPGGA,070438.49,3622.5293415,N,12721.7143683,E,1,04,1.0,86.935,M,0.000,M,0.0,*40
$GPGSA,A,3,10,12,15,24,,,,,,,,,3.3,2.1,2.6,1*28
$GPGSV,1,1,04,10,29,317,42,12,21,146,47,15,43,070,45,24,78,050,46,1*62
$GPRMC,070438.59,A,3622.5290945,N,12721.7149185,E,2.04,239.82,060825,0.0,E,A*3F
$GPGGA,070438.59,3622.5290945,N,12721.7149185,E,1,04,1.0,82.911,M,0.000,M,0.0,*43
$GPGSA,A,3,10,12,15,24,,,,,,,,,3.3,2.1,2.6,1*28
$GPGSV,1,1,04,10,29,317,42,12,21,146,47,15,43,070,45,24,78,050,46,1*62
$GPRMC,070438.69,A,3622.5295085,N,12721.7150927,E,3.19,224.82,060825,0.0,E,A*35
$GPGGA,070438.69,3622.5295085,N,12721.7150927,E,1,04,1.0,85.012,M,0.000,M,0.0,*45
$GPGSA,A,3,10,12,15,24,,,,,,,,,3.3,2.1,2.6,1*28
$GPGSV,1,1,04,10,29,317,42,12,21,146,47,15,43,070,45,24,78,050,46,1*62
$GPRMC,070438.79,A,3622.5306063,N,12721.7150554,E,1.47,224.82,060825,0.0,E,A*36
$GPGGA,070438.79,3622.5306063,N,12721.7150554,E,1,04,1.0,86.802,M,0.000,M,0.0,*45
$GPGSA,A,3,10,12,15,24,,,,,,,,,3.3,2.1,2.6,1*28
$GPGSV,1,1,04,10,29,317,42,12,21,146,47,15,43,070,46,24,78,050,46,1*61
$GPRMC,070438.89,A,3622.5298456,N,12721.7150657,E,2.44,323.97,060825,0.0,E,A*3F
$GPGGA,070438.89,3622.5298456,N,12721.7150657,E,1,04,1.0,85.032,M,0.000,M,0.0,*46
$GPGSA,A,3,10,12,15,24,,,,,,,,,3.3,2.1,2.6,1*28
$GPGSV,1,1,04,10,29,317,42,12,21,146,47,15,43,070,45,24,78,050,47,1*63
$GPRMC,070438.99,A,3622.5314841,N,12721.7151267,E,2.09,105.95,060825,0.0,E,A*3A
$GPGGA,070438.99,3622.5314841,N,12721.7151267,E,1,04,1.0,82.066,M,0.000,M,0.0,*48
$GPGSA,A,3,10,12,15,24,,,,,,,,,3.3,2.1,2.6,1*28
$GPGSV,1,1,04,10,29,317,42,12,21,146,47,15,43,070,45,24,78,050,46,1*62
$GPRMC,070439.09,A,3622.5313325,N,12721.7153642,E,4.61,40.36,060825,0.0,E,A*0C
$GPGGA,070439.09,3622.5313325,N,12721.7153642,E,1,04,1.0,79.074,M,0.000,M,0.0,*48
$GPGSA,A,3,10,12,15,24,,,,,,,,,3.3,2.1,2.6,1*28
$GPGSV,1,1,04,10,29,317,42,12,21,146,47,15,43,070,45,24,78,050,46,1*62
$GPRMC,070439.19,A,3622.5312963,N,12721.7140046,E,7.76,34.81,060825,0.0,E,A*0E
$GPGGA,070439.19,3622.5312963,N,12721.7140046,E,1,04,1.0,79.533,M,0.000,M,0.0,*46
$GPGSA,A,3,10,12,15,24,,,,,,,,,3.3,2.1,2.6,1*28
$GPGSV,1,1,04,10,29,317,42,12,21,146,47,15,43,070,45,24,78,050,46,1*62
$GPRMC,070439.29,A,3622.5312953,N,12721.7145628,E,3.31,228.55,060825,0.0,E,A*34
$GPGGA,070439.29,3622.5312953,N,12721.7145628,E,1,04,1.0,76.588,M,0.000,M,0.0,*42
$GPGSA,A,3,10,12,15,24,,,,,,,,,3.3,2.1,2.6,1*28
$GPGSV,1,1,04,10,29,317,42,12,21,146,47,15,43,070,45,24,78,050,46,1*62
$GPRMC,070439.39,A,3622.5302465,N,12721.7132591,E,2.23,257.67,060825,0.0,E,A*36
$GPGGA,070439.39,3622.5302465,N,12721.7132591,E,1,04,1.0,76.159,M,0.000,M,0.0,*43
$GPGSA,A,3,10,12,15,24,,,,,,,,,3.3,2.1,2.6,1*28
$GPGSV,1,1,04,10,29,317,42,12,21,146,47,15,43,070,45,24,78,050,46,1*62
$GPRMC,070439.49,A,3622.5308581,N,12721.7127753,E,1.61,257.67,060825,0.0,E,A*3D
$GPGGA,070439.49,3622.5308581,N,12721.7127753,E,1,04,1.0,74.389,M,0.000,M,0.0,*40
$GPGSA,A,3,10,12,15,24,,,,,,,,,3.3,2.1,2.6,1*28
$GPGSV,1,1,04,10,29,317,42,12,21,146,47,15,43,070,45,24,78,050,46,1*62
$GPRMC,070439.59,A,3622.5311169,N,12721.7154874,E,1.35,257.67,060825,0.0,E,A*39
$GPGGA,070439.59,3622.5311169,N,12721.7154874,E,1,04,1.0,77.825,M,0.000,M,0.0,*4B
$GPGSA,A,3,10,12,15,24,,,,,,,,,3.3,2.1,2.6,1*28
$GPGSV,1,1,04,10,29,317,42,12,21,146,47,15,43,070,45,24,78,050,46,1*62
$GPRMC,070439.69,A,3622.5298328,N,12721.7151152,E,2.42,53.71,060825,0.0,E,A*07
$GPGGA,070439.69,3622.5298328,N,12721.7151152,E,1,04,1.0,79.290,M,0.000,M,0.0,*4D
$GPGSA,A,3,10,12,15,24,,,,,,,,,3.3,2.1,2.6,1*28
$GPGSV,1,1,04,10,29,317,42,12,21,146,47,15,43,070,45,24,78,050,46,1*62
$GPRMC,070439.79,A,3622.5299065,N,12721.7130515,E,1.12,53.71,060825,0.0,E,A*0B
$GPGGA,070439.79,3622.5299065,N,12721.7130515,E,1,04,1.0,79.563,M,0.000,M,0.0,*4C
$GPGSA,A,3,10,12,15,24,,,,,,,,,3.3,2.1,2.6,1*28
$GPGSV,1,1,04,10,29,317,42,12,21,146,47,15,43,070,45,24,78,050,46,1*62
$GPRMC,070439.89,A,3622.5278270,N,12721.7118056,E,1.38,53.71,060825,0.0,E,A*0D
$GPGGA,070439.89,3622.5278270,N,12721.7118056,E,1,04,1.0,85.631,M,0.000,M,0.0,*45
$GPGSA,A,3,10,12,15,24,,,,,,,,,3.3,2.1,2.6,1*28
$GPGSV,1,1,04,10,29,317,42,12,21,146,47,15,43,070,45,24,78,050,46,1*62
$GPRMC,070439.99,A,3622.5299956,N,12721.7124319,E,2.12,306.77,060825,0.0,E,A*35
$GPGGA,070439.99,3622.5299956,N,12721.7124319,E,1,04,1.0,74.491,M,0.000,M,0.0,*45
$GPGSA,A,3,10,12,15,24,,,,,,,,,3.3,2.1,2.6,1*28
$GPGSV,1,1,04,10,29,317,42,12,21,146,47,15,43,070,45,24,78,050,46,1*62
$GPRMC,070440.09,A,3622.5323728,N,12721.7143771,E,1.20,306.77,060825,0.0,E,A*3C
$GPGGA,070440.09,3622.5323728,N,12721.7143771,E,1,04,1.0,75.888,M,0.000,M,0.0,*4B
$GPGSA,A,3,10,12,15,24,,,,,,,,,3.3,2.1,2.6,1*28
$GPGSV,1,1,04,10,29,317,42,12,21,146,47,15,43,070,45,24,78,050,46,1*62
$GPRMC,070440.19,A,3622.5307508,N,12721.7143621,E,1.11,306.77,060825,0.0,E,A*3D
$GPGGA,070440.19,3622.5307508,N,12721.7143621,E,1,04,1.0,81.768,M,0.000,M,0.0,*42
$GPGSA,A,3,10,12,15,24,,,,,,,,,3.3,2.1,2.6,1*28
$GPGSV,1,1,04,10,29,317,42,12,21,146,47,15,43,070,46,24,78,050,46,1*61
$GPRMC,070440.29,A,3622.5303577,N,12721.7163217,E,1.35,306.77,060825,0.0,E,A*37
$GPGGA,070440.29,3622.5303577,N,12721.7163217,E,1,04,1.0,84.770,M,0.000,M,0.0,*42
$GPGSA,A,3,10,12,15,24,,,,,,,,,3.3,2.1,2.6,1*28
$GPGSV,1,1,04,10,29,317,43,12,21,146,47,15,43,070,46,24,78,050,46,1*60
$GPRMC,070440.39,A,3622.5301061,N,12721.7151099,E,2.44,47.40,060825,0.0,E,A*04
$GPGGA,070440.39,3622.5301061,N,12721.7151099,E,1,04,1.0,82.298,M,0.000,M,0.0,*43
$GPGSA,A,3,10,12,15,24,,,,,,,,,3.3,2.1,2.6,1*28
$GPGSV,1,1,04,10,29,317,43,12,21,146,47,15,43,070,46,24,78,050,46,1*60
$GPRMC,070440.49,A,3622.5305143,N,12721.7164485,E,4.47,48.45,060825,0.0,E,A*06
$GPGGA,070440.49,3622.5305143,N,12721.7164485,E,1,04,1.0,81.396,M,0.000,M,0.0,*42
$GPGSA,A,3,10,12,15,24,,,,,,,,,3.3,2.1,2.6,1*28
$GPGSV,1,1,04,10,29,317,43,12,21,146,47,15,43,070,45,24,78,050,46,1*63
$GPRMC,070440.59,A,3622.5301661,N,12721.7154377,E,2.22,71.42,060825,0.0,E,A*05
$GPGGA,070440.59,3622.5301661,N,12721.7154377,E,1,04,1.0,77.981,M,0.000,M,0.0,*4C
$GPGSA,A,3,10,12,15,24,,,,,,,,,3.3,2.1,2.6,1*28
$GPGSV,1,1,04,10,29,317,43,12,21,146,47,15,43,070,45,24,78,050,46,1*63
$GPRMC,070440.69,A,3622.5292158,N,12721.7145184,E,0.63,71.42,060825,0.0,E,A*09
$GPGGA,070440.69,3622.5292158,N,12721.7145184,E,1,04,1.0,78.623,M,0.000,M,0.0,*4F
$GPGSA,A,3,10,12,15,24,,,,,,,,,3.3,2.1,2.6,1*28
$GPGSV,1,1,04,10,29,317,43,12,21,146,47,15,43,070,45,24,78,050,46,1*63
$GPRMC,070440.79,A,3622.5295779,N,12721.7130433,E,1.69,71.42,060825,0.0,E,A*0A
$GPGGA,070440.79,3622.5295779,N,12721.7130433,E,1,04,1.0,76.825,M,0.000,M,0.0,*41
$GPGSA,A,3,10,12,15,24,,,,,,,,,3.3,2.1,2.6,1*28
$GPGSV,1,1,04,10,29,317,43,12,21,146,47,15,43,070,45,24,78,050,47,1*62
$GPRMC,070440.89,A,3622.5306311,N,12721.7145890,E,2.06,233.16,060825,0.0,E,A*3C
$GPGGA,070440.89,3622.5306311,N,12721.7145890,E,1,04,1.0,76.030,M,0.000,M,0.0,*44
$GPGSA,A,3,10,12,15,24,,,,,,,,,3.3,2.1,2.6,1*28
$GPGSV,1,1,04,10,29,317,43,12,21,146,47,15,43,070,45,24,78,050,47,1*62
$GPRMC,070440.99,A,3622.5298605,N,12721.7148341,E,2.83,250.49,060825,0.0,E,A*33
$GPGGA,070440.99,3622.5298605,N,12721.7148341,E,1,04,1.0,76.228,M,0.000,M,0.0,*42
$GPGSA,A,3,10,12,15,24,,,,,,,,,3.3,2.1,2.6,1*28
$GPGSV,1,1,04,10,29,317,43,12,21,146,47,15,43,070,45,24,78,050,47,1*62
$GPRMC,070441.09,A,3622.5308602,N,12721.7154420,E,0.50,250.49,060825,0.0,E,A*35
$GPGGA,070441.09,3622.5308602,N,12721.7154420,E,1,04,1.0,78.309,M,0.000,M,0.0,*44
$GPGSA,A,3,10,12,15,24,,,,,,,,,3.3,2.1,2.6,1*28
$GPGSV,1,1,04,10,29,317,43,12,21,146,47,15,43,070,45,24,78,050,47,1*62
$GPRMC,070441.19,A,3622.5322549,N,12721.7162355,E,1.65,250.49,060825,0.0,E,A*37
$GPGGA,070441.19,3622.5322549,N,12721.7162355,E,1,04,1.0,71.514,M,0.000,M,0.0,*42
$GPGSA,A,3,10,12,15,24,,,,,,,,,3.3,2.1,2.6,1*28
$GPGSV,1,1,04,10,29,317,43,12,21,146,47,15,43,070,45,24,78,050,47,1*62
$GPRMC,070441.29,A,3622.5292648,N,12721.7145872,E,5.69,233.28,060825,0.0,E,A*3D
$GPGGA,070441.29,3622.5292648,N,12721.7145872,E,1,04,1.0,77.363,M,0.000,M,0.0,*42
$GPGSA,A,3,10,12,15,24,,,,,,,,,3.3,2.1,2.6,1*28
$GPGSV,1,1,04,10,29,317,43,12,21,146,47,15,43,070,45,24,78,050,47,1*62
$GPRMC,070441.39,A,3622.5292568,N,12721.7133983,E,1.17,233.28,060825,0.0,E,A*3E
$GPGGA,070441.39,3622.5292568,N,12721.7133983,E,1,04,1.0,77.554,M,0.000,M,0.0,*4E
$GPGSA,A,3,10,12,15,24,,,,,,,,,3.3,2.1,2.6,1*28
$GPGSV,1,1,04,10,29,317,42,12,21,146,47,15,43,070,46,24,78,050,46,1*61
$GPRMC,070441.49,A,3622.5287857,N,12721.7129978,E,1.15,233.28,060825,0.0,E,A*31
$GPGGA,070441.49,3622.5287857,N,12721.7129978,E,1,04,1.0,85.240,M,0.000,M,0.0,*4C
$GPGSA,A,3,10,12,15,24,,,,,,,,,3.3,2.1,2.6,1*28
$GPGSV,1,1,04,10,29,317,43,12,21,146,47,15,43,070,45,24,78,050,46,1*63
$GPRMC,070441.59,A,3622.5321535,N,12721.7171370,E,3.61,80.47,060825,0.0,E,A*09
$GPGGA,070441.59,3622.5321535,N,12721.7171370,E,1,04,1.0,76.941,M,0.000,M,0.0,*40
$GPGSA,A,3,10,12,15,24,,,,,,,,,3.3,2.1,2.6,1*28
$GPGSV,1,1,04,10,29,317,43,12,21,146,47,15,43,070,46,24,78,050,46,1*60
$GPRMC,070441.69,A,3622.5311493,N,12721.7142910,E,1.35,80.47,060825,0.0,E,A*0B
$GPGGA,070441.69,3622.5311493,N,12721.7142910,E,1,04,1.0,77.470,M,0.000,M,0.0,*4F
$GPGSA,A,3,10,12,15,24,,,,,,,,,3.3,2.1,2.6,1*28
$GPGSV,1,1,04,10,29,317,43,12,21,146,47,15,43,070,46,24,78,050,46,1*60
$GPRMC,070441.79,A,3622.5292843,N,12721.7174690,E,0.66,80.47,060825,0.0,E,A*04
$GPGGA,070441.79,3622.5292843,N,12721.7174690,E,1,04,1.0,83.808,M,0.000,M,0.0,*4F
$GPGSA,A,3,10,12,15,24,,,,,,,,,3.3,2.1,2.6,1*28
$GPGSV,1,1,04,10,29,317,43,12,21,146,47,15,43,070,46,24,78,050,46,1*60
$GPRMC,070441.89,A,3622.5304175,N,12721.7171947,E,4.48,201.13,060825,0.0,E,A*3B
$GPGGA,070441.89,3622.5304175,N,12721.7171947,E,1,04,1.0,77.865,M,0.000,M,0.0,*42
$GPGSA,A,3,10,12,15,24,,,,,,,,,3.3,2.1,2.6,1*28
$GPGSV,1,1,04,10,29,317,43,12,21,146,47,15,43,070,45,24,78,050,46,1*63
$GPRMC,070441.99,A,3622.5310187,N,12721.7170250,E,3.61,66.86,060825,0.0,E,A*0D
$GPGGA,070441.99,3622.5310187,N,12721.7170250,E,1,04,1.0,79.756,M,0.000,M,0.0,*46
$GPGSA,A,3,10,12,15,24,,,,,,,,,3.3,2.1,2.6,1*28
$GPGSV,1,1,04,10,29,317,43,12,21,146,47,15,43,070,45,24,78,050,46,1*63
$GPRMC,070442.09,A,3622.5314776,N,12721.7162522,E,3.06,59.96,060825,0.0,E,A*06
$GPGGA,070442.09,3622.5314776,N,12721.7162522,E,1,04,1.0,76.368,M,0.000,M,0.0,*47
$GPGSA,A,3,10,12,15,24,,,,,,,,,3.3,2.1,2.6,1*28
$GPGSV,1,1,04,10,29,317,43,12,21,146,46,15,43,070,45,24,78,050,46,1*62
$GPRMC,070442.19,A,3622.5285000,N,12721.7140440,E,3.52,289.19,060825,0.0,E,A*34
$GPGGA,070442.19,3622.5285000,N,12721.7140440,E,1,04,1.0,84.016,M,0.000,M,0.0,*4B
$GPGSA,A,3,10,12,15,24,,,,,,,,,3.3,2.1,2.6,1*28
$GPGSV,1,1,04,10,29,317,43,12,21,146,46,15,43,070,45,24,78,050,46,1*62
$GPRMC,070442.29,A,3622.5284577,N,12721.7141481,E,1.37,289.19,060825,0.0,E,A*3E
$GPGGA,070442.29,3622.5284577,N,12721.7141481,E,1,04,1.0,83.659,M,0.000,M,0.0,*4A
$GPGSA,A,3,10,12,15,24,,,,,,,,,3.3,2.1,2.6,1*28
$GPGSV,1,1,04,10,29,317,43,12,21,146,46,15,43,070,45,24,78,050,46,1*62
$GPRMC,070442.39,A,3622.5297123,N,12721.7150562,E,0.81,289.19,060825,0.0,E,A*38
$GPGGA,070442.39,3622.5297123,N,12721.7150562,E,1,04,1.0,79.990,M,0.000,M,0.0,*4F
$GPGSA,A,3,10,12,15,24,,,,,,,,,3.3,2.1,2.6,1*28
$GPGSV,1,1,04,10,29,317,43,12,21,146,47,15,43,070,45,24,78,050,46,1*63
$GPRMC,070442.49,A,3622.5301458,N,12721.7156398,E,1.09,289.19,060825,0.0,E,A*3C
$GPGGA,070442.49,3622.5301458,N,12721.7156398,E,1,04,1.0,79.108,M,0.000,M,0.0,*43
$GPGSA,A,3,10,12,15,24,,,,,,,,,3.3,2.1,2.6,1*28
$GPGSV,1,1,04,10,29,317,43,12,21,146,47,15,43,070,45,24,78,050,46,1*63
$GPRMC,070442.59,A,3622.5297596,N,12721.7161117,E,1.81,289.19,060825,0.0,E,A*31
$GPGGA,070442.59,3622.5297596,N,12721.7161117,E,1,04,1.0,81.400,M,0.000,M,0.0,*44
$GPGSA,A,3,10,12,15,24,,,,,,,,,3.3,2.1,2.6,1*28
$GPGSV,1,1,04,10,29,317,43,12,21,146,47,15,43,070,45,24,78,050,46,1*63
$GPRMC,070442.69,A,3622.5307287,N,12721.7165598,E,5.43,218.44,060825,0.0,E,A*30
$GPGGA,070442.69,3622.5307287,N,12721.7165598,E,1,04,1.0,83.131,M,0.000,M,0.0,*4A
$GPGSA,A,3,10,12,15,24,,,,,,,,,3.3,2.1,2.6,1*28
$GPGSV,1,1,04,10,29,317,43,12,21,146,47,15,43,070,45,24,78,050,46,1*63
$GPRMC,070442.79,A,3622.5310873,N,12721.7183606,E,3.09,178.10,060825,0.0,E,A*36
$GPGGA,070442.79,3622.5310873,N,12721.7183606,E,1,04,1.0,79.918,M,0.000,M,0.0,*46
$GPGSA,A,3,10,12,15,24,,,,,,,,,3.3,2.1,2.6,1*28
$GPGSV,1,1,04,10,29,317,43,12,21,146,47,15,43,070,45,24,78,050,46,1*63
$GPRMC,070442.89,A,3622.5286222,N,12721.7149776,E,2.73,47.95,060825,0.0,E,A*05
$GPGGA,070442.89,3622.5286222,N,12721.7149776,E,1,04,1.0,86.048,M,0.000,M,0.0,*45
$GPGSA,A,3,10,12,15,24,,,,,,,,,3.3,2.1,2.6,1*28
$GPGSV,1,1,04,10,29,317,43,12,21,146,47,15,43,070,45,24,78,050,46,1*63
$GPRMC,070442.99,A,3622.5290218,N,12721.7160702,E,2.56,151.25,060825,0.0,E,A*38
$GPGGA,070442.99,3622.5290218,N,12721.7160702,E,1,04,1.0,92.296,M,0.000,M,0.0,*46
$GPGSA,A,3,10,12,15,24,,,,,,,,,3.3,2.1,2.6,1*28
$GPGSV,1,1,04,10,29,317,42,12,21,146,48,15,43,070,45,24,78,050,46,1*6D
$GPRMC,070443.09,A,3622.5268555,N,12721.7140807,E,1.83,151.25,060825,0.0,E,A*3A
$GPGGA,070443.09,3622.5268555,N,12721.7140807,E,1,04,1.0,99.909,M,0.000,M,0.0,*49
$GPGSA,A,3,10,12,15,24,,,,,,,,,3.3,2.1,2.6,1*28
$GPGSV,1,1,04,10,29,317,42,12,21,146,47,15,43,070,45,24,78,050,46,1*62
$GPRMC,070443.19,A,3622.5300530,N,12721.7183955,E,4.20,226.82,060825,0.0,E,A*3C
$GPGGA,070443.19,3622.5300530,N,12721.7183955,E,1,04,1.0,89.101,M,0.000,M,0.0,*4C
$GPGSA,A,3,10,12,15,24,,,,,,,,,3.3,2.1,2.6,1*28
$GPGSV,1,1,04,10,29,317,43,12,21,146,47,15,43,070,45,24,78,050,46,1*63
$GPRMC,070443.29,A,3622.5310309,N,12721.7193852,E,2.79,176.64,060825,0.0,E,A*31
$GPGGA,070443.29,3622.5310309,N,12721.7193852,E,1,04,1.0,82.458,M,0.000,M,0.0,*47
$GPGSA,A,3,10,12,15,24,,,,,,,,,3.3,2.1,2.6,1*28
$GPGSV,1,1,04,10,29,317,43,12,21,146,47,15,43,070,45,24,78,050,46,1*63
$GPRMC,070443.39,A,3622.5309937,N,12721.7185059,E,4.99,229.41,060825,0.0,E,A*3D
$GPGGA,070443.39,3622.5309937,N,12721.7185059,E,1,04,1.0,81.905,M,0.000,M,0.0,*4B
$GPGSA,A,3,10,12,15,24,,,,,,,,,3.3,2.1,2.6,1*28
$GPGSV,1,1,04,10,29,317,43,12,21,146,47,15,43,070,45,24,78,050,46,1*63
$GPRMC,070443.49,A,3622.5311015,N,12721.7198291,E,5.96,53.02,060825,0.0,E,A*06
$GPGGA,070443.49,3622.5311015,N,12721.7198291,E,1,04,1.0,82.112,M,0.000,M,0.0,*4B
$GPGSA,A,3,10,12,15,24,,,,,,,,,3.3,2.1,2.6,1*28
$GPGSV,1,1,04,10,29,317,43,12,21,146,47,15,43,070,45,24,78,050,46,1*63
$GPRMC,070443.59,A,3622.5289486,N,12721.7178494,E,1.10,53.02,060825,0.0,E,A*0E
$GPGGA,070443.59,3622.5289486,N,12721.7178494,E,1,04,1.0,86.760,M,0.000,M,0.0,*4E
$GPGSA,A,3,10,12,15,24,,,,,,,,,3.3,2.1,2.6,1*28
$GPGSV,1,1,04,10,29,317,43,12,21,146,46,15,43,070,45,24,78,050,46,1*62
$GPRMC,070443.69,A,3622.5295611,N,12721.7187970,E,2.65,257.18,060825,0.0,E,A*37
$GPGGA,070443.69,3622.5295611,N,12721.7187970,E,1,04,1.0,90.638,M,0.000,M,0.0,*40
$GPGSA,A,3,10,12,15,24,,,,,,,,,3.3,2.1,2.6,1*28
$GPGSV,1,1,04,10,29,317,43,12,21,146,47,15,43,070,45,24,78,050,46,1*63
$GPRMC,070443.79,A,3622.5297833,N,12721.7180662,E,3.81,40.59,060825,0.0,E,A*0B
$GPGGA,070443.79,3622.5297833,N,12721.7180662,E,1,04,1.0,85.819,M,0.000,M,0.0,*4F
$GPGSA,A,3,10,12,15,24,,,,,,,,,3.3,2.1,2.6,1*28
$GPGSV,1,1,04,10,29,317,43,12,21,146,47,15,43,070,45,24,78,050,46,1*63
$GPRMC,070443.89,A,3622.5297420,N,12721.7170727,E,0.78,40.59,060825,0.0,E,A*00
$GPGGA,070443.89,3622.5297420,N,12721.7170727,E,1,04,1.0,88.477,M,0.000,M,0.0,*48
$GPGSA,A,3,10,12,15,24,,,,,,,,,3.3,2.1,2.6,1*28
$GPGSV,1,1,04,10,29,317,43,12,21,146,47,15,43,070,45,24,78,050,46,1*63
$GPRMC,070443.99,A,3622.5285509,N,12721.7177433,E,0.50,40.59,060825,0.0,E,A*03
$GPGGA,070443.99,3622.5285509,N,12721.7177433,E,1,04,1.0,97.460,M,0.000,M,0.0,*49
$GPGSA,A,3,10,12,15,24,,,,,,,,,3.3,2.1,2.6,1*28
$GPGSV,1,1,04,10,29,317,43,12,21,146,47,15,43,070,45,24,78,050,46,1*63
$GPRMC,070444.09,A,3622.5263155,N,12721.7164508,E,3.43,28.02,060825,0.0,E,A*02
$GPGGA,070444.09,3622.5263155,N,12721.7164508,E,1,04,1.0,102.482,M,0.000,M,0.0,*78
$GPGSA,A,3,10,12,15,24,,,,,,,,,3.3,2.1,2.6,1*28
$GPGSV,1,1,04,10,29,317,43,12,21,146,47,15,43,070,45,24,78,050,46,1*63
$GPRMC,070444.19,A,3622.5281819,N,12721.7175745,E,2.55,185.84,060825,0.0,E,A*3B
$GPGGA,070444.19,3622.5281819,N,12721.7175745,E,1,04,1.0,94.705,M,0.000,M,0.0,*4D
$GPGSA,A,3,10,12,15,24,,,,,,,,,3.3,2.1,2.6,1*28
$GPGSV,1,1,04,10,29,317,43,12,21,146,47,15,43,070,45,24,78,050,46,1*63
$GPRMC,070444.29,A,3622.5297862,N,12721.7190605,E,2.54,25.83,060825,0.0,E,A*00
$GPGGA,070444.29,3622.5297862,N,12721.7190605,E,1,04,1.0,87.094,M,0.000,M,0.0,*46
$GPGSA,A,3,10,12,15,24,,,,,,,,,3.3,2.1,2.6,1*28
$GPGSV,1,1,04,10,29,317,43,12,21,146,47,15,43,070,45,24,78,050,46,1*63
$GPRMC,070444.39,A,3622.5302141,N,12721.7199345,E,3.81,47.78,060825,0.0,E,A*05
$GPGGA,070444.39,3622.5302141,N,12721.7199345,E,1,04,1.0,88.938,M,0.000,M,0.0,*4A
$GPGSA,A,3,10,12,15,24,,,,,,,,,3.3,2.1,2.6,1*28
$GPGSV,1,1,04,10,29,317,43,12,21,146,47,15,43,070,45,24,78,050,46,1*63
$GPRMC,070444.49,A,3622.5290965,N,12721.7192659,E,7.36,213.74,060825,0.0,E,A*32
$GPGGA,070444.49,3622.5290965,N,12721.7192659,E,1,04,1.0,92.135,M,0.000,M,0.0,*44
$GPGSA,A,3,10,12,15,24,,,,,,,,,3.3,2.1,2.6,1*28
$GPGSV,1,1,04,10,29,317,43,12,21,146,47,15,43,070,44,24,78,050,46,1*62
$GPRMC,070444.59,A,3622.5284040,N,12721.7185717,E,2.25,230.46,060825,0.0,E,A*32
$GPGGA,070444.59,3622.5284040,N,12721.7185717,E,1,04,1.0,94.096,M,0.000,M,0.0,*4D
$GPGSA,A,3,10,12,15,24,,,,,,,,,3.3,2.1,2.6,1*28
$GPGSV,1,1,04,10,29,317,43,12,21,146,47,15,43,070,44,24,78,050,46,1*62
$GPRMC,070444.69,A,3622.5273975,N,12721.7177834,E,1.45,230.46,060825,0.0,E,A*30
$GPGGA,070444.69,3622.5273975,N,12721.7177834,E,1,04,1.0,95.214,M,0.000,M,0.0,*43
$GPGSA,A,3,10,12,15,24,,,,,,,,,3.3,2.1,2.6,1*28
$GPGSV,1,1,04,10,29,317,43,12,21,146,47,15,43,070,44,24,78,050,46,1*62
$GPRMC,070444.79,A,3622.5285298,N,12721.7168882,E,1.47,230.46,060825,0.0,E,A*31
$GPGGA,070444.79,3622.5285298,N,12721.7168882,E,1,04,1.0,92.726,M,0.000,M,0.0,*43
$GPGSA,A,3,10,12,15,24,,,,,,,,,3.3,2.1,2.6,1*28
$GPGSV,1,1,04,10,29,317,43,12,21,146,47,15,43,070,44,24,78,050,46,1*62
$GPRMC,070444.89,A,3622.5300864,N,12721.7179074,E,1.86,230.46,060825,0.0,E,A*37
$GPGGA,070444.89,3622.5300864,N,12721.7179074,E,1,04,1.0,88.339,M,0.000,M,0.0,*49
$GPGSA,A,3,10,12,15,24,,,,,,,,,3.3,2.1,2.6,1*28
$GPGSV,1,1,04,10,29,317,43,12,21,146,47,15,43,070,45,24,78,050,46,1*63
$GPRMC,070444.99,A,3622.5290501,N,12721.7172038,E,1.49,230.46,060825,0.0,E,A*30
$GPGGA,070444.99,3622.5290501,N,12721.7172038,E,1,04,1.0,90.715,M,0.000,M,0.0,*4E
$GPGSA,A,3,10,12,15,24,,,,,,,,,3.3,2.1,2.6,1*28
$GPGSV,1,1,04,10,29,317,43,12,21,146,47,15,43,070,45,24,78,050,46,1*63
$GPRMC,070445.09,A,3622.5277611,N,12721.7166206,E,1.44,230.46,060825,0.0,E,A*34
$GPGGA,070445.09,3622.5277611,N,12721.7166206,E,1,04,1.0,92.556,M,0.000,M,0.0,*40
$GPGSA,A,3,10,12,15,24,,,,,,,,,3.3,2.1,2.6,1*28
$GPGSV,1,1,04,10,29,317,43,12,21,146,47,15,43,070,45,24,78,050,46,1*63
$GPRMC,070445.19,A,3622.5292463,N,12721.7193092,E,0.86,230.46,060825,0.0,E,A*33
$GPGGA,070445.19,3622.5292463,N,12721.7193092,E,1,04,1.0,93.935,M,0.000,M,0.0,*40
$GPGSA,A,3,10,12,15,24,,,,,,,,,3.3,2.1,2.6,1*28
