$GPRMC,065830.19,A,3622.5253845,N,12721.7070286,E,1.74,0.00,280725,0.0,E,A*3B
$GPGGA,065830.19,3622.5253845,N,12721.7070286,E,1,05,1.0,85.131,M,0.000,M,0.0,*4E
$GPGSA,A,3,05,13,15,23,24,,,,,,,,3.9,2.1,3.3,1*22
$GPGSV,2,1,05,05,26,123,48,13,24,058,42,15,57,045,47,23,54,322,45,1*66
$GPGSV,2,2,05,24,77,177,46,,,,,,,,,,,,,1*54
$GPRMC,065830.29,A,3622.5258337,N,12721.7055562,E,4.96,111.38,280725,0.0,E,A*34
$GPGGA,065830.29,3622.5258337,N,12721.7055562,E,1,05,1.0,75.886,M,0.000,M,0.0,*48
$GPGSA,A,3,05,13,15,23,24,,,,,,,,3.9,2.1,3.3,1*22
$GPGSV,2,1,05,05,26,123,48,13,24,058,42,15,57,045,47,23,54,322,45,1*66
$GPGSV,2,2,05,24,77,177,46,,,,,,,,,,,,,1*54
$GPRMC,065830.39,A,3622.5264179,N,12721.7063090,E,1.67,111.38,280725,0.0,E,A*34
$GPGGA,065830.39,3622.5264179,N,12721.7063090,E,1,05,1.0,81.357,M,0.000,M,0.0,*4F
$GPGSA,A,3,05,13,15,23,24,,,,,,,,3.9,2.1,3.3,1*22
$GPGSV,2,1,05,05,26,123,48,13,24,058,42,15,57,045,47,23,54,322,44,1*67
$GPGSV,2,2,05,24,77,177,46,,,,,,,,,,,,,1*54
$GPRMC,065830.49,A,3622.5260447,N,12721.7088687,E,3.81,252.33,280725,0.0,E,A*3F
$GPGGA,065830.49,3622.5260447,N,12721.7088687,E,1,05,1.0,85.030,M,0.000,M,0.0,*47
$GPGSA,A,3,05,13,15,23,24,,,,,,,,3.9,2.1,3.3,1*22
$GPGSV,2,1,05,05,26,123,48,13,24,058,42,15,57,045,47,23,54,322,44,1*67
$GPGSV,2,2,05,24,77,177,46,,,,,,,,,,,,,1*54
$GPRMC,065830.59,A,3622.5252177,N,12721.7062879,E,3.05,236.37,280725,0.0,E,A*38
$GPGGA,065830.59,3622.5252177,N,12721.7062879,E,1,05,1.0,83.020,M,0.000,M,0.0,*4D
$GPGSA,A,3,05,13,15,23,24,,,,,,,,3.9,2.1,3.3,1*22
$GPGSV,2,1,05,05,26,123,48,13,24,058,42,15,57,045,47,23,54,322,44,1*67
$GPGSV,2,2,05,24,77,177,46,,,,,,,,,,,,,1*54
$GPRMC,065830.69,A,3622.5260532,N,12721.7058057,E,3.65,249.16,280725,0.0,E,A*3F
$GPGGA,065830.69,3622.5260532,N,12721.7058057,E,1,05,1.0,77.446,M,0.000,M,0.0,*48
$GPGSA,A,3,05,13,15,23,24,,,,,,,,3.9,2.1,3.3,1*22
$GPGSV,2,1,05,05,26,123,48,13,24,058,42,15,57,045,46,23,54,322,44,1*66
$GPGSV,2,2,05,24,77,177,46,,,,,,,,,,,,,1*54
$GPRMC,065830.79,A,3622.5269241,N,12721.7071871,E,0.57,249.16,280725,0.0,E,A*31
$GPGGA,065830.79,3622.5269241,N,12721.7071871,E,1,05,1.0,81.471,M,0.000,M,0.0,*49
$GPGSA,A,3,05,13,15,23,24,,,,,,,,3.9,2.1,3.3,1*22
$GPGSV,2,1,05,05,26,123,48,13,24,058,42,15,57,045,46,23,54,322,44,1*66
$GPGSV,2,2,05,24,77,177,46,,,,,,,,,,,,,1*54
$GPRMC,065830.89,A,3622.5270900,N,12721.7107290,E,2.75,252.84,280725,0.0,E,A*3E
$GPGGA,065830.89,3622.5270900,N,12721.7107290,E,1,05,1.0,83.310,M,0.000,M,0.0,*47
$GPGSA,A,3,05,13,15,23,24,,,,,,,,3.9,2.1,3.3,1*22
$GPGSV,2,1,05,05,26,123,48,13,24,058,42,15,57,045,46,23,54,322,44,1*66
$GPGSV,2,2,05,24,77,177,46,,,,,,,,,,,,,1*54
$GPRMC,065830.99,A,3622.5274993,N,12721.7065976,E,1.25,252.84,280725,0.0,E,A*31
$GPGGA,065830.99,3622.5274993,N,12721.7065976,E,1,05,1.0,82.794,M,0.000,M,0.0,*47
$GPGSA,A,3,05,13,15,23,24,,,,,,,,3.9,2.1,3.3,1*22
$GPGSV,2,1,05,05,26,123,48,13,24,058,42,15,57,045,46,23,54,322,44,1*66
$GPGSV,2,2,05,24,77,177,46,,,,,,,,,,,,,1*54
$GPRMC,065831.09,A,3622.5260897,N,12721.7063228,E,1.71,252.84,280725,0.0,E,A*3E
$GPGGA,065831.09,3622.5260897,N,12721.7063228,E,1,05,1.0,83.986,M,0.000,M,0.0,*45
$GPGSA,A,3,05,13,15,23,24,,,,,,,,3.9,2.1,3.3,1*22
$GPGSV,2,1,05,05,26,123,48,13,24,058,42,15,57,045,46,23,54,322,44,1*66
$GPGSV,2,2,05,24,77,177,46,,,,,,,,,,,,,1*54
$GPRMC,065831.19,A,3622.5259652,N,12721.7091952,E,3.36,272.69,280725,0.0,E,A*39
$GPGGA,065831.19,3622.5259652,N,12721.7091952,E,1,05,1.0,90.544,M,0.000,M,0.0,*42
$GPGSA,A,3,05,13,15,23,24,,,,,,,,3.9,2.1,3.3,1*22
$GPGSV,2,1,05,05,26,123,48,13,24,058,42,15,57,045,46,23,54,322,45,1*67
$GPGSV,2,2,05,24,77,177,46,,,,,,,,,,,,,1*54
$GPRMC,065831.29,A,3622.5276175,N,12721.7133494,E,3.60,264.47,280725,0.0,E,A*33
$GPGGA,065831.29,3622.5276175,N,12721.7133494,E,1,05,1.0,94.828,M,0.000,M,0.0,*43
$GPGSA,A,3,05,13,15,23,24,,,,,,,,3.9,2.1,3.3,1*22
$GPGSV,2,1,05,05,26,123,48,13,24,058,42,15,57,045,46,23,54,322,45,1*67
$GPGSV,2,2,05,24,77,177,46,,,,,,,,,,,,,1*54
$GPRMC,065831.39,A,3622.5269005,N,12721.7110230,E,8.09,264.81,280725,0.0,E,A*3D
$GPGGA,065831.39,3622.5269005,N,12721.7110230,E,1,05,1.0,88.651,M,0.000,M,0.0,*4E
$GPGSA,A,3,05,13,15,23,24,,,,,,,,3.9,2.1,3.3,1*22
$GPGSV,2,1,05,05,26,123,48,13,24,058,42,15,57,045,47,23,54,322,45,1*66
$GPGSV,2,2,05,24,77,177,46,,,,,,,,,,,,,1*54
$GPRMC,065831.49,A,3622.5265390,N,12721.7092554,E,6.32,99.73,280725,0.0,E,A*0C
$GPGGA,065831.49,3622.5265390,N,12721.7092554,E,1,05,1.0,84.575,M,0.000,M,0.0,*4D
$GPGSA,A,3,05,13,15,23,24,,,,,,,,3.9,2.1,3.3,1*22
$GPGSV,2,1,05,05,26,123,48,13,24,058,42,15,57,045,47,23,54,322,45,1*66
$GPGSV,2,2,05,24,77,177,46,,,,,,,,,,,,,1*54
$GPRMC,065831.59,A,3622.5276524,N,12721.7101619,E,3.30,78.79,280725,0.0,E,A*05
$GPGGA,065831.59,3622.5276524,N,12721.7101619,E,1,05,1.0,87.215,M,0.000,M,0.0,*44
$GPGSA,A,3,05,13,15,23,24,,,,,,,,3.9,2.1,3.3,1*22
$GPGSV,2,1,05,05,26,123,48,13,24,058,42,15,57,045,47,23,54,322,45,1*66
$GPGSV,2,2,05,24,77,177,46,,,,,,,,,,,,,1*54
$GPRMC,065831.69,A,3622.5272795,N,12721.7101382,E,3.18,72.13,280725,0.0,E,A*01
$GPGGA,065831.69,3622.5272795,N,12721.7101382,E,1,05,1.0,81.654,M,0.000,M,0.0,*4B
$GPGSA,A,3,05,13,15,23,24,,,,,,,,3.9,2.1,3.3,1*22
$GPGSV,2,1,05,05,26,123,48,13,24,058,42,15,57,045,47,23,54,322,45,1*66
$GPGSV,2,2,05,24,77,177,46,,,,,,,,,,,,,1*54
$GPRMC,065831.79,A,3622.5281375,N,12721.7117630,E,1.38,72.13,280725,0.0,E,A*0D
$GPGGA,065831.79,3622.5281375,N,12721.7117630,E,1,05,1.0,86.030,M,0.000,M,0.0,*44
$GPGSA,A,3,05,13,15,23,24,,,,,,,,3.9,2.1,3.3,1*22
$GPGSV,2,1,05,05,26,123,48,13,24,058,42,15,57,045,47,23,54,322,45,1*66
$GPGSV,2,2,05,24,77,177,46,,,,,,,,,,,,,1*54
$GPRMC,065831.89,A,3622.5279068,N,12721.7108091,E,1.38,72.13,280725,0.0,E,A*09
$GPGGA,065831.89,3622.5279068,N,12721.7108091,E,1,05,1.0,86.723,M,0.000,M,0.0,*45
$GPGSA,A,3,05,13,15,23,24,,,,,,,,3.9,2.1,3.3,1*22
$GPGSV,2,1,05,05,26,123,48,13,24,058,42,15,57,045,47,23,54,322,45,1*66
$GPGSV,2,2,05,24,77,177,46,,,,,,,,,,,,,1*54
$GPRMC,065831.99,A,3622.5265557,N,12721.7111976,E,1.95,244.82,280725,0.0,E,A*3C
$GPGGA,065831.99,3622.5265557,N,12721.7111976,E,1,05,1.0,92.092,M,0.000,M,0.0,*40
$GPGSA,A,3,05,13,15,23,24,,,,,,,,3.9,2.1,3.3,1*22
$GPGSV,2,1,05,05,26,123,48,13,24,058,42,15,57,045,47,23,54,322,45,1*66
$GPGSV,2,2,05,24,77,177,47,,,,,,,,,,,,,1*55
$GPRMC,065832.09,A,3622.5271117,N,12721.7129257,E,2.73,262.84,280725,0.0,E,A*39
$GPGGA,065832.09,3622.5271117,N,12721.7129257,E,1,05,1.0,95.049,M,0.000,M,0.0,*4D
$GPGSA,A,3,05,13,15,23,24,,,,,,,,3.9,2.1,3.3,1*22
$GPGSV,2,1,05,05,26,123,48,13,24,058,42,15,57,045,47,23,54,322,44,1*67
$GPGSV,2,2,05,24,77,177,47,,,,,,,,,,,,,1*55
$GPRMC,065832.19,A,3622.5277960,N,12721.7142101,E,4.52,250.47,280725,0.0,E,A*30
$GPGGA,065832.19,3622.5277960,N,12721.7142101,E,1,05,1.0,96.892,M,0.000,M,0.0,*42
$GPGSA,A,3,05,13,15,23,24,,,,,,,,3.9,2.1,3.3,1*22
$GPGSV,2,1,05,05,26,123,48,13,24,058,42,15,57,045,47,23,54,322,44,1*67
$GPGSV,2,2,05,24,77,177,47,,,,,,,,,,,,,1*55
$GPRMC,065832.29,A,3622.5262305,N,12721.7130331,E,3.23,57.38,280725,0.0,E,A*06
$GPGGA,065832.29,3622.5262305,N,12721.7130331,E,1,05,1.0,92.347,M,0.000,M,0.0,*4F
$GPGSA,A,3,05,13,15,23,24,,,,,,,,3.9,2.1,3.3,1*22
$GPGSV,2,1,05,05,26,123,48,13,24,058,42,15,57,045,47,23,54,322,44,1*67
$GPGSV,2,2,05,24,77,177,47,,,,,,,,,,,,,1*55
$GPRMC,065832.39,A,3622.5275924,N,12721.7142972,E,2.94,154.52,280725,0.0,E,A*33
$GPGGA,065832.39,3622.5275924,N,12721.7142972,E,1,05,1.0,91.907,M,0.000,M,0.0,*44
$GPGSA,A,3,05,13,15,23,24,,,,,,,,3.9,2.1,3.3,1*22
$GPGSV,2,1,05,05,26,123,48,13,24,058,42,15,57,045,46,23,54,322,44,1*66
$GPGSV,2,2,05,24,77,177,47,,,,,,,,,,,,,1*55
$GPRMC,065832.49,A,3622.5283106,N,12721.7155677,E,3.62,248.86,280725,0.0,E,A*36
$GPGGA,065832.49,3622.5283106,N,12721.7155677,E,1,05,1.0,95.044,M,0.000,M,0.0,*44
$GPGSA,A,3,05,13,15,23,24,,,,,,,,3.9,2.1,3.3,1*22
$GPGSV,2,1,05,05,26,123,48,13,24,058,42,15,57,045,46,23,54,322,44,1*66
$GPGSV,2,2,05,24,77,177,47,,,,,,,,,,,,,1*55
$GPRMC,065832.59,A,3622.5280656,N,12721.7131084,E,3.89,271.91,280725,0.0,E,A*37
$GPGGA,065832.59,3622.5280656,N,12721.7131084,E,1,05,1.0,88.882,M,0.000,M,0.0,*42
$GPGSA,A,3,05,13,15,23,24,,,,,,,,3.9,2.1,3.3,1*22
$GPGSV,2,1,05,05,26,123,48,13,24,058,42,15,57,045,46,23,54,322,44,1*66
$GPGSV,2,2,05,24,77,177,47,,,,,,,,,,,,,1*55
$GPRMC,065832.69,A,3622.5267987,N,12721.7144862,E,2.38,314.73,280725,0.0,E,A*39
$GPGGA,065832.69,3622.5267987,N,12721.7144862,E,1,05,1.0,93.612,M,0.000,M,0.0,*44
$GPGSA,A,3,05,13,15,23,24,,,,,,,,3.9,2.1,3.3,1*22
$GPGSV,2,1,05,05,26,123,48,13,24,058,42,15,57,045,46,23,54,322,44,1*66
$GPGSV,2,2,05,24,77,177,47,,,,,,,,,,,,,1*55
$GPRMC,065832.79,A,3622.5276290,N,12721.7144985,E,3.24,127.42,280725,0.0,E,A*31
$GPGGA,065832.79,3622.5276290,N,12721.7144985,E,1,05,1.0,92.799,M,0.000,M,0.0,*43
$GPGSA,A,3,05,13,15,23,24,,,,,,,,3.9,2.1,3.3,1*22
$GPGSV,2,1,05,05,26,123,48,13,24,058,42,15,57,045,46,23,54,322,44,1*66
$GPGSV,2,2,05,24,77,177,47,,,,,,,,,,,,,1*55
$GPRMC,065832.89,A,3622.5253115,N,12721.7114824,E,1.20,127.42,280725,0.0,E,A*3E
$GPGGA,065832.89,3622.5253115,N,12721.7114824,E,1,05,1.0,91.068,M,0.000,M,0.0,*40
$GPGSA,A,3,05,13,15,23,24,,,,,,,,3.9,2.1,3.3,1*22
$GPGSV,2,1,05,05,26,123,48,13,24,058,42,15,57,045,46,23,54,322,44,1*66
$GPGSV,2,2,05,24,77,177,47,,,,,,,,,,,,,1*55
$GPRMC,065832.99,A,3622.5269618,N,12721.7123021,E,2.02,252.96,280725,0.0,E,A*3E
$GPGGA,065832.99,3622.5269618,N,12721.7123021,E,1,05,1.0,91.462,M,0.000,M,0.0,*45
$GPGSA,A,3,05,13,15,23,24,,,,,,,,3.9,2.1,3.3,1*22
$GPGSV,2,1,05,05,26,123,48,13,24,058,42,15,57,045,47,23,54,322,44,1*67
$GPGSV,2,2,05,24,77,177,47,,,,,,,,,,,,,1*55
$GPRMC,065833.09,A,3622.5259692,N,12721.7115016,E,2.38,243.57,280725,0.0,E,A*32
$GPGGA,065833.09,3622.5259692,N,12721.7115016,E,1,05,1.0,88.581,M,0.000,M,0.0,*49
$GPGSA,A,3,05,13,15,23,24,,,,,,,,3.9,2.1,3.3,1*22
$GPGSV,2,1,05,05,26,123,48,13,24,058,42,15,57,045,47,23,54,322,44,1*67
$GPGSV,2,2,05,24,77,177,47,,,,,,,,,,,,,1*55
$GPRMC,065833.19,A,3622.5256216,N,12721.7132000,E,1.51,243.57,280725,0.0,E,A*3A
$GPGGA,065833.19,3622.5256216,N,12721.7132000,E,1,05,1.0,97.457,M,0.000,M,0.0,*49
$GPGSA,A,3,05,13,15,23,24,,,,,,,,3.9,2.1,3.3,1*22
$GPGSV,2,1,05,05,26,123,48,13,24,058,42,15,57,045,47,23,54,322,44,1*67
$GPGSV,2,2,05,24,77,177,47,,,,,,,,,,,,,1*55
$GPRMC,065833.29,A,3622.5261031,N,12721.7123258,E,2.35,246.36,280725,0.0,E,A*36
$GPGGA,065833.29,3622.5261031,N,12721.7123258,E,1,05,1.0,93.964,M,0.000,M,0.0,*4F
$GPGSA,A,3,05,13,15,23,24,,,,,,,,3.9,2.1,3.3,1*22
$GPGSV,2,1,05,05,26,123,48,13,24,058,42,15,57,045,46,23,54,322,44,1*66
$GPGSV,2,2,05,24,77,177,47,,,,,,,,,,,,,1*55
$GPRMC,065833.39,A,3622.5281434,N,12721.7128043,E,0.93,246.36,280725,0.0,E,A*35
$GPGGA,065833.39,3622.5281434,N,12721.7128043,E,1,05,1.0,89.596,M,0.000,M,0.0,*48
$GPGSA,A,3,05,13,15,23,24,,,,,,,,3.9,2.1,3.3,1*22
$GPGSV,2,1,05,05,26,123,48,13,24,058,42,15,57,045,46,23,54,322,44,1*66
$GPGSV,2,2,05,24,77,177,47,,,,,,,,,,,,,1*55
$GPRMC,065833.49,A,3622.5258776,N,12721.7144089,E,1.21,246.36,280725,0.0,E,A*37
$GPGGA,065833.49,3622.5258776,N,12721.7144089,E,1,05,1.0,95.208,M,0.000,M,0.0,*4F
$GPGSA,A,3,05,13,15,23,24,,,,,,,,3.9,2.1,3.3,1*22
$GPGSV,2,1,05,05,26,123,48,13,24,058,42,15,57,045,46,23,54,322,44,1*66
$GPGSV,2,2,05,24,77,177,46,,,,,,,,,,,,,1*54
$GPRMC,065833.59,A,3622.5272008,N,12721.7156875,E,1.64,246.36,280725,0.0,E,A*39
$GPGGA,065833.59,3622.5272008,N,12721.7156875,E,1,05,1.0,98.633,M,0.000,M,0.0,*41
$GPGSA,A,3,05,13,15,23,24,,,,,,,,3.9,2.1,3.3,1*22
$GPGSV,2,1,05,05,26,123,48,13,24,058,42,15,57,045,46,23,54,322,44,1*66
$GPGSV,2,2,05,24,77,177,47,,,,,,,,,,,,,1*55
$GPRMC,065833.69,A,3622.5269504,N,12721.7160810,E,3.27,66.44,280725,0.0,E,A*0F
$GPGGA,065833.69,3622.5269504,N,12721.7160810,E,1,05,1.0,97.326,M,0.000,M,0.0,*49
$GPGSA,A,3,05,13,15,23,24,,,,,,,,3.9,2.1,3.3,1*22
$GPGSV,2,1,05,05,26,123,48,13,24,058,42,15,57,045,46,23,54,322,45,1*67
$GPGSV,2,2,05,24,77,177,47,,,,,,,,,,,,,1*55
$GPRMC,065833.79,A,3622.5277509,N,12721.7146339,E,1.51,66.44,280725,0.0,E,A*0B
$GPGGA,065833.79,3622.5277509,N,12721.7146339,E,1,05,1.0,95.443,M,0.000,M,0.0,*48
$GPGSA,A,3,05,13,15,23,24,,,,,,,,3.9,2.1,3.3,1*22
$GPGSV,2,1,05,05,26,123,48,13,24,058,42,15,56,045,46,23,54,322,45,1*66
$GPGSV,2,2,05,24,77,177,46,,,,,,,,,,,,,1*54
$GPRMC,065833.89,A,3622.5281118,N,12721.7142809,E,3.75,265.00,280725,0.0,E,A*30
$GPGGA,065833.89,3622.5281118,N,12721.7142809,E,1,05,1.0,94.667,M,0.000,M,0.0,*43
$GPGSA,A,3,05,13,15,23,24,,,,,,,,3.9,2.1,3.3,1*22
$GPGSV,2,1,05,05,26,123,48,13,24,058,42,15,56,045,46,23,54,322,45,1*66
$GPGSV,2,2,05,24,77,177,47,,,,,,,,,,,,,1*55
$GPRMC,065833.99,A,3622.5266903,N,12721.7139198,E,2.22,10.67,280725,0.0,E,A*05
$GPGGA,065833.99,3622.5266903,N,12721.7139198,E,1,05,1.0,97.074,M,0.000,M,0.0,*43
$GPGSA,A,3,05,13,15,23,24,,,,,,,,3.9,2.1,3.3,1*22
$GPGSV,2,1,05,05,26,123,48,13,24,058,42,15,56,045,46,23,54,322,45,1*66
$GPGSV,2,2,05,24,77,177,47,,,,,,,,,,,,,1*55
$GPRMC,065834.09,A,3622.5262203,N,12721.7157676,E,9.72,267.81,280725,0.0,E,A*3F
$GPGGA,065834.09,3622.5262203,N,12721.7157676,E,1,05,1.0,97.388,M,0.000,M,0.0,*4D
$GPGSA,A,3,05,13,15,23,24,,,,,,,,3.9,2.1,3.3,1*22
$GPGSV,2,1,05,05,26,123,48,13,24,058,42,15,56,045,46,23,54,322,45,1*66
$GPGSV,2,2,05,24,77,177,46,,,,,,,,,,,,,1*54
$GPRMC,065834.19,A,3622.5271354,N,12721.7161280,E,1.19,267.81,280725,0.0,E,A*32
$GPGGA,065834.19,3622.5271354,N,12721.7161280,E,1,05,1.0,96.923,M,0.000,M,0.0,*4F
$GPGSA,A,3,05,13,15,23,24,,,,,,,,3.9,2.1,3.3,1*22
$GPGSV,2,1,05,05,26,123,48,13,24,058,42,15,56,045,46,23,54,322,45,1*66
$GPGSV,2,2,05,24,77,177,46,,,,,,,,,,,,,1*54
$GPRMC,065834.29,A,3622.5266550,N,12721.7158660,E,0.95,267.81,280725,0.0,E,A*30
$GPGGA,065834.29,3622.5266550,N,12721.7158660,E,1,05,1.0,97.327,M,0.000,M,0.0,*47
$GPGSA,A,3,05,13,15,23,24,,,,,,,,3.9,2.1,3.3,1*22
$GPGSV,2,1,05,05,26,123,48,13,24,058,42,15,56,045,46,23,54,322,45,1*66
$GPGSV,2,2,05,24,77,177,46,,,,,,,,,,,,,1*54
$GPRMC,065834.39,A,3622.5257841,N,12721.7165346,E,2.19,246.22,280725,0.0,E,A*3D
$GPGGA,065834.39,3622.5257841,N,12721.7165346,E,1,05,1.0,104.895,M,0.000,M,0.0,*7F
$GPGSA,A,3,05,13,15,23,24,,,,,,,,3.9,2.1,3.3,1*22
$GPGSV,2,1,05,05,26,123,48,13,24,058,42,15,56,045,46,23,54,322,44,1*67
$GPGSV,2,2,05,24,77,177,46,,,,,,,,,,,,,1*54
$GPRMC,065834.49,A,3622.5253051,N,12721.7166979,E,3.98,117.47,280725,0.0,E,A*3E
$GPGGA,065834.49,3622.5253051,N,12721.7166979,E,1,05,1.0,104.326,M,0.000,M,0.0,*73
$GPGSA,A,3,05,13,15,23,24,,,,,,,,3.9,2.1,3.3,1*22
$GPGSV,2,1,05,05,26,123,48,13,24,058,42,15,56,045,46,23,54,322,44,1*67
$GPGSV,2,2,05,24,77,177,46,,,,,,,,,,,,,1*54
$GPRMC,065834.59,A,3622.5259727,N,12721.7149562,E,5.74,254.03,280725,0.0,E,A*38
$GPGGA,065834.59,3622.5259727,N,12721.7149562,E,1,05,1.0,98.074,M,0.000,M,0.0,*45
$GPGSA,A,3,05,13,15,23,24,,,,,,,,3.9,2.1,3.3,1*22
$GPGSV,2,1,05,05,26,123,48,13,24,058,42,15,56,045,46,23,54,322,44,1*67
$GPGSV,2,2,05,24,77,177,46,,,,,,,,,,,,,1*54
$GPRMC,065834.69,A,3622.5251017,N,12721.7137108,E,1.47,254.03,280725,0.0,E,A*32
$GPGGA,065834.69,3622.5251017,N,12721.7137108,E,1,05,1.0,100.520,M,0.000,M,0.0,*7F
$GPGSA,A,3,05,13,15,23,24,,,,,,,,3.9,2.1,3.3,1*22
$GPGSV,2,1,05,05,26,123,48,13,24,058,42,15,56,045,46,23,54,322,44,1*67
$GPGSV,2,2,05,24,77,177,46,,,,,,,,,,,,,1*54
$GPRMC,065834.79,A,3622.5240441,N,12721.7117289,E,3.85,76.16,280725,0.0,E,A*06
$GPGGA,065834.79,3622.5240441,N,12721.7117289,E,1,05,1.0,96.243,M,0.000,M,0.0,*4D
$GPGSA,A,3,05,13,15,23,24,,,,,,,,3.9,2.1,3.3,1*22
$GPGSV,2,1,05,05,26,123,48,13,24,058,42,15,56,045,46,23,54,322,44,1*67
$GPGSV,2,2,05,24,77,177,46,,,,,,,,,,,,,1*54
$GPRMC,065834.89,A,3622.5250444,N,12721.7137349,E,1.24,76.16,280725,0.0,E,A*0B
$GPGGA,065834.89,3622.5250444,N,12721.7137349,E,1,05,1.0,96.043,M,0.000,M,0.0,*4B
$GPGSA,A,3,05,13,15,23,24,,,,,,,,3.9,2.1,3.3,1*22
$GPGSV,2,1,05,05,26,123,48,13,24,058,42,15,56,045,46,23,54,322,45,1*66
$GPGSV,2,2,05,24,77,177,46,,,,,,,,,,,,,1*54
$GPRMC,065834.99,A,3622.5262547,N,12721.7149024,E,7.66,72.47,280725,0.0,E,A*08
$GPGGA,065834.99,3622.5262547,N,12721.7149024,E,1,05,1.0,96.424,M,0.000,M,0.0,*4D
$GPGSA,A,3,05,13,15,23,24,,,,,,,,3.9,2.1,3.3,1*22
$GPGSV,2,1,05,05,26,123,48,13,24,058,42,15,56,045,46,23,54,322,45,1*66
$GPGSV,2,2,05,24,77,177,46,,,,,,,,,,,,,1*54
$GPRMC,065835.09,A,3622.5269978,N,12721.7143362,E,1.33,72.47,280725,0.0,E,A*06
$GPGGA,065835.09,3622.5269978,N,12721.7143362,E,1,05,1.0,88.995,M,0.000,M,0.0,*4D
$GPGSA,A,3,05,13,15,23,24,,,,,,,,3.9,2.1,3.3,1*22
$GPGSV,2,1,05,05,26,123,48,13,24,058,42,15,56,045,46,23,54,322,45,1*66
$GPGSV,2,2,05,24,77,177,46,,,,,,,,,,,,,1*54
$GPRMC,065835.19,A,3622.5273760,N,12721.7139127,E,1.72,72.47,280725,0.0,E,A*00
$GPGGA,065835.19,3622.5273760,N,12721.7139127,E,1,05,1.0,88.834,M,0.000,M,0.0,*44
$GPGSA,A,3,05,13,15,23,24,,,,,,,,3.9,2.1,3.3,1*22
$GPGSV,2,1,05,05,26,123,48,13,24,058,42,15,56,045,46,23,54,322,45,1*66
$GPGSV,2,2,05,24,77,177,46,,,,,,,,,,,,,1*54
$GPRMC,065835.29,A,3622.5266641,N,12721.7166943,E,1.57,72.47,280725,0.0,E,A*02
$GPGGA,065835.29,3622.5266641,N,12721.7166943,E,1,05,1.0,97.313,M,0.000,M,0.0,*41
$GPGSA,A,3,05,13,15,23,24,,,,,,,,3.9,2.1,3.3,1*22
$GPGSV,2,1,05,05,26,123,48,13,24,058,42,15,56,045,46,23,54,322,45,1*66
$GPGSV,2,2,05,24,77,177,46,,,,,,,,,,,,,1*54
$GPRMC,065835.39,A,3622.5255898,N,12721.7148320,E,1.44,72.47,280725,0.0,E,A*08
$GPGGA,065835.39,3622.5255898,N,12721.7148320,E,1,05,1.0,92.026,M,0.000,M,0.0,*49
$GPGSA,A,3,05,13,15,23,24,,,,,,,,3.9,2.1,3.3,1*22
$GPGSV,2,1,05,05,26,123,47,13,24,058,42,15,56,045,46,23,54,322,45,1*69
$GPGSV,2,2,05,24,77,177,46,,,,,,,,,,,,,1*54
$GPRMC,065835.49,A,3622.5278251,N,12721.7165166,E,2.35,158.10,280725,0.0,E,A*3E
$GPGGA,065835.49,3622.5278251,N,12721.7165166,E,1,05,1.0,95.065,M,0.000,M,0.0,*41
$GPGSA,A,3,05,13,15,23,24,,,,,,,,3.9,2.1,3.3,1*22
$GPGSV,2,1,05,05,26,123,47,13,24,058,42,15,56,045,46,23,54,322,45,1*69
$GPGSV,2,2,05,24,77,177,46,,,,,,,,,,,,,1*54
$GPRMC,065835.59,A,3622.5269469,N,12721.7167913,E,0.93,158.10,280725,0.0,E,A*34
$GPGGA,065835.59,3622.5269469,N,12721.7167913,E,1,05,1.0,101.438,M,0.000,M,0.0,*75
$GPGSA,A,3,05,13,15,23,24,,,,,,,,3.9,2.1,3.3,1*22
$GPGSV,2,1,05,05,26,123,48,13,24,058,42,15,56,045,46,23,54,322,45,1*66
$GPGSV,2,2,05,24,77,177,46,,,,,,,,,,,,,1*54
$GPRMC,065835.69,A,3622.5273482,N,12721.7180399,E,4.91,228.54,280725,0.0,E,A*3A
$GPGGA,065835.69,3622.5273482,N,12721.7180399,E,1,05,1.0,103.101,M,0.000,M,0.0,*74
$GPGSA,A,3,05,13,15,23,24,,,,,,,,3.9,2.1,3.3,1*22
$GPGSV,2,1,05,05,26,123,48,13,24,058,42,15,56,045,46,23,54,322,45,1*66
$GPGSV,2,2,05,24,77,177,46,,,,,,,,,,,,,1*54
$GPRMC,065835.79,A,3622.5272609,N,12721.7163470,E,7.17,116.04,280725,0.0,E,A*30
$GPGGA,065835.79,3622.5272609,N,12721.7163470,E,1,05,1.0,96.118,M,0.000,M,0.0,*4D
$GPGSA,A,3,05,13,15,23,24,,,,,,,,3.9,2.1,3.3,1*22
$GPGSV,2,1,05,05,26,123,47,13,24,058,41,15,56,045,46,23,54,322,45,1*6A
$GPGSV,2,2,05,24,77,177,46,,,,,,,,,,,,,1*54
$GPRMC,065835.89,A,3622.5277617,N,12721.7152392,E,4.40,316.20,280725,0.0,E,A*39
$GPGGA,065835.89,3622.5277617,N,12721.7152392,E,1,05,1.0,92.671,M,0.000,M,0.0,*4D
$GPGSA,A,3,05,13,15,23,24,,,,,,,,3.9,2.1,3.3,1*22
$GPGSV,2,1,05,05,26,123,48,13,24,058,41,15,56,045,46,23,54,322,45,1*65
$GPGSV,2,2,05,24,77,177,46,,,,,,,,,,,,,1*54
$GPRMC,065835.99,A,3622.5279704,N,12721.7160166,E,6.13,271.14,280725,0.0,E,A*3E
$GPGGA,065835.99,3622.5279704,N,12721.7160166,E,1,05,1.0,92.908,M,0.000,M,0.0,*48
$GPGSA,A,3,05,13,15,23,24,,,,,,,,3.9,2.1,3.3,1*22
$GPGSV,2,1,05,05,26,123,48,13,24,058,42,15,56,045,46,23,54,322,45,1*66
$GPGSV,2,2,05,24,77,177,46,,,,,,,,,,,,,1*54
$GPRMC,065836.09,A,3622.5264352,N,12721.7145448,E,2.92,20.21,280725,0.0,E,A*0C
$GPGGA,065836.09,3622.5264352,N,12721.7145448,E,1,05,1.0,93.015,M,0.000,M,0.0,*43
$GPGSA,A,3,05,13,15,23,24,,,,,,,,3.9,2.1,3.3,1*22
$GPGSV,2,1,05,05,26,123,47,13,24,058,42,15,56,045,46,23,54,322,45,1*69
$GPGSV,2,2,05,24,77,177,46,,,,,,,,,,,,,1*54
$GPRMC,065836.19,A,3622.5279085,N,12721.7142232,E,1.01,20.21,280725,0.0,E,A*0D
$GPGGA,065836.19,3622.5279085,N,12721.7142232,E,1,05,1.0,88.076,M,0.000,M,0.0,*44
$GPGSA,A,3,05,13,15,23,24,,,,,,,,3.9,2.1,3.3,1*22
$GPGSV,2,1,05,05,26,123,47,13,24,058,42,15,56,045,46,23,54,322,45,1*69
$GPGSV,2,2,05,24,77,177,46,,,,,,,,,,,,,1*54
$GPRMC,065836.29,A,3622.5281959,N,12721.7156792,E,3.94,77.87,280725,0.0,E,A*0B
$GPGGA,065836.29,3622.5281959,N,12721.7156792,E,1,05,1.0,93.838,M,0.000,M,0.0,*4A
$GPGSA,A,3,05,13,15,23,24,,,,,,,,3.9,2.1,3.3,1*22
$GPGSV,2,1,05,05,26,123,47,13,24,058,42,15,56,045,46,23,54,322,45,1*69
$GPGSV,2,2,05,24,77,177,46,,,,,,,,,,,,,1*54
$GPRMC,065836.39,A,3622.5297056,N,12721.7152059,E,0.96,77.87,280725,0.0,E,A*0E
$GPGGA,065836.39,3622.5297056,N,12721.7152059,E,1,05,1.0,88.904,M,0.000,M,0.0,*4A
$GPGSA,A,3,05,13,15,23,24,,,,,,,,3.9,2.1,3.3,1*22
$GPGSV,2,1,05,05,26,123,47,13,24,058,42,15,56,045,46,23,54,322,44,1*68
$GPGSV,2,2,05,24,77,177,46,,,,,,,,,,,,,1*54
$GPRMC,065836.49,A,3622.5303967,N,12721.7140527,E,2.89,235.49,280725,0.0,E,A*3B
$GPGGA,065836.49,3622.5303967,N,12721.7140527,E,1,05,1.0,89.642,M,0.000,M,0.0,*49
$GPGSA,A,3,05,13,15,23,24,,,,,,,,3.9,2.1,3.3,1*22
$GPGSV,2,1,05,05,26,123,47,13,24,058,42,15,56,045,46,23,54,322,44,1*68
$GPGSV,2,2,05,24,77,177,46,,,,,,,,,,,,,1*54
$GPRMC,065836.59,A,3622.5278788,N,12721.7127648,E,3.58,302.19,280725,0.0,E,A*3E
$GPGGA,065836.59,3622.5278788,N,12721.7127648,E,1,05,1.0,81.780,M,0.000,M,0.0,*46
$GPGSA,A,3,05,13,15,23,24,,,,,,,,3.9,2.1,3.3,1*22
$GPGSV,2,1,05,05,26,123,47,13,24,058,42,15,56,045,46,23,54,322,44,1*68
$GPGSV,2,2,05,24,77,177,46,,,,,,,,,,,,,1*54
$GPRMC,065836.69,A,3622.5265700,N,12721.7102465,E,2.17,241.18,280725,0.0,E,A*36
$GPGGA,065836.69,3622.5265700,N,12721.7102465,E,1,05,1.0,80.256,M,0.000,M,0.0,*4C
$GPGSA,A,3,05,13,15,23,24,,,,,,,,3.9,2.1,3.3,1*22
$GPGSV,2,1,05,05,26,123,47,13,24,058,42,15,56,045,46,23,54,322,44,1*68
$GPGSV,2,2,05,24,77,177,46,,,,,,,,,,,,,1*54
$GPRMC,065836.79,A,3622.5272743,N,12721.7093337,E,1.11,241.18,280725,0.0,E,A*3A
$GPGGA,065836.79,3622.5272743,N,12721.7093337,E,1,05,1.0,71.013,M,0.000,M,0.0,*48
$GPGSA,A,3,05,13,15,23,24,,,,,,,,3.9,2.1,3.3,1*22
$GPGSV,2,1,05,05,26,123,47,13,24,058,42,15,56,045,46,23,54,322,44,1*68
$GPGSV,2,2,05,24,77,177,46,,,,,,,,,,,,,1*54
$GPRMC,065836.89,A,3622.5278053,N,12721.7152435,E,2.14,34.92,280725,0.0,E,A*04
$GPGGA,065836.89,3622.5278053,N,12721.7152435,E,1,05,1.0,87.094,M,0.000,M,0.0,*44
$GPGSA,A,3,05,13,15,23,24,,,,,,,,3.9,2.1,3.3,1*22
$GPGSV,2,1,05,05,26,123,47,13,24,058,42,15,56,045,46,23,54,322,44,1*68
$GPGSV,2,2,05,24,77,177,46,,,,,,,,,,,,,1*54
$GPRMC,065836.99,A,3622.5280703,N,12721.7165894,E,4.11,247.59,280725,0.0,E,A*31
$GPGGA,065836.99,3622.5280703,N,12721.7165894,E,1,05,1.0,92.539,M,0.000,M,0.0,*45
$GPGSA,A,3,05,13,15,23,24,,,,,,,,3.9,2.1,3.3,1*22
$GPGSV,2,1,05,05,26,123,47,13,24,058,42,15,56,045,46,23,54,322,44,1*68
$GPGSV,2,2,05,24,77,177,46,,,,,,,,,,,,,1*54
$GPRMC,065837.09,A,3622.5277596,N,12721.7146233,E,1.38,247.59,280725,0.0,E,A*37
$GPGGA,065837.09,3622.5277596,N,12721.7146233,E,1,05,1.0,86.461,M,0.000,M,0.0,*44
$GPGSA,A,3,05,13,15,23,24,,,,,,,,3.9,2.1,3.3,1*22
$GPGSV,2,1,05,05,26,123,47,13,24,058,42,15,56,045,46,23,54,322,44,1*68
$GPGSV,2,2,05,24,77,177,46,,,,,,,,,,,,,1*54
$GPRMC,065837.19,A,3622.5268095,N,12721.7107418,E,4.68,237.78,280725,0.0,E,A*30
$GPGGA,065837.19,3622.5268095,N,12721.7107418,E,1,05,1.0,77.867,M,0.000,M,0.0,*43
$GPGSA,A,3,05,13,15,23,24,,,,,,,,3.9,2.1,3.3,1*22
$GPGSV,2,1,05,05,26,123,47,13,24,058,42,15,56,045,46,23,54,322,44,1*68
$GPGSV,2,2,05,24,77,177,46,,,,,,,,,,,,,1*54
$GPRMC,065837.29,A,3622.5278716,N,12721.7138682,E,3.29,228.86,280725,0.0,E,A*3E
$GPGGA,065837.29,3622.5278716,N,12721.7138682,E,1,05,1.0,83.120,M,0.000,M,0.0,*41
$GPGSA,A,3,05,13,15,23,24,,,,,,,,3.9,2.1,3.3,1*22
$GPGSV,2,1,05,05,26,123,47,13,24,058,42,15,56,045,46,23,54,322,44,1*68
$GPGSV,2,2,05,24,77,177,46,,,,,,,,,,,,,1*54
$GPRMC,065837.39,A,3622.5286428,N,12721.7133479,E,3.54,41.08,280725,0.0,E,A*0C
$GPGGA,065837.39,3622.5286428,N,12721.7133479,E,1,05,1.0,83.176,M,0.000,M,0.0,*41
$GPGSA,A,3,05,13,15,23,24,,,,,,,,3.9,2.1,3.3,1*22
$GPGSV,2,1,05,05,26,123,47,13,24,058,42,15,56,045,46,23,54,322,45,1*69
$GPGSV,2,2,05,24,77,177,46,,,,,,,,,,,,,1*54
$GPRMC,065837.49,A,3622.5281807,N,12721.7143451,E,4.62,72.12,280725,0.0,E,A*09
$GPGGA,065837.49,3622.5281807,N,12721.7143451,E,1,05,1.0,82.192,M,0.000,M,0.0,*46
$GPGSA,A,3,05,13,15,23,24,,,,,,,,3.9,2.1,3.3,1*22
$GPGSV,2,1,05,05,26,123,47,13,24,058,42,15,56,045,46,23,54,322,45,1*69
$GPGSV,2,2,05,24,77,177,46,,,,,,,,,,,,,1*54
$GPRMC,065837.59,A,3622.5274894,N,12721.7150198,E,6.92,278.31,280725,0.0,E,A*3E
$GPGGA,065837.59,3622.5274894,N,12721.7150198,E,1,05,1.0,80.209,M,0.000,M,0.0,*46
$GPGSA,A,3,05,13,15,23,24,,,,,,,,3.9,2.1,3.3,1*22
$GPGSV,2,1,05,05,26,123,47,13,24,058,42,15,56,045,46,23,54,322,45,1*69
$GPGSV,2,2,05,24,77,177,46,,,,,,,,,,,,,1*54
$GPRMC,065837.69,A,3622.5278604,N,12721.7128878,E,3.71,309.45,280725,0.0,E,A*32
$GPGGA,065837.69,3622.5278604,N,12721.7128878,E,1,05,1.0,79.792,M,0.000,M,0.0,*47
$GPGSA,A,3,05,13,15,23,24,,,,,,,,3.9,2.1,3.3,1*22
$GPGSV,2,1,05,05,26,123,47,13,24,058,42,15,56,045,46,23,54,322,45,1*69
$GPGSV,2,2,05,24,77,177,46,,,,,,,,,,,,,1*54
$GPRMC,065837.79,A,3622.5272119,N,12721.7128948,E,12.30,270.71,280725,0.0,E,A*0D
$GPGGA,065837.79,3622.5272119,N,12721.7128948,E,1,05,1.0,79.210,M,0.000,M,0.0,*4A
$GPGSA,A,3,05,13,15,23,24,,,,,,,,3.9,2.1,3.3,1*22
$GPGSV,2,1,05,05,26,123,47,13,24,058,42,15,56,045,46,23,54,322,45,1*69
$GPGSV,2,2,05,24,77,177,46,,,,,,,,,,,,,1*54
$GPRMC,065837.89,A,3622.5271258,N,12721.7131944,E,1.60,270.71,280725,0.0,E,A*34
$GPGGA,065837.89,3622.5271258,N,12721.7131944,E,1,05,1.0,80.727,M,0.000,M,0.0,*43
$GPGSA,A,3,05,13,15,23,24,,,,,,,,3.9,2.1,3.3,1*22
$GPGSV,2,1,05,05,26,123,47,13,24,058,42,15,56,045,46,23,54,322,45,1*69
$GPGSV,2,2,05,24,77,177,47,,,,,,,,,,,,,1*55
$GPRMC,065837.99,A,3622.5279576,N,12721.7104729,E,1.79,270.71,280725,0.0,E,A*3D
$GPGGA,065837.99,3622.5279576,N,12721.7104729,E,1,05,1.0,72.766,M,0.000,M,0.0,*4A
$GPGSA,A,3,05,13,15,23,24,,,,,,,,3.9,2.1,3.3,1*22
$GPGSV,2,1,05,05,26,123,47,13,24,058,42,15,56,045,46,23,54,322,45,1*69
$GPGSV,2,2,05,24,77,177,47,,,,,,,,,,,,,1*55
$GPRMC,065838.09,A,3622.5258009,N,12721.7125335,E,4.38,278.56,280725,0.0,E,A*32
$GPGGA,065838.09,3622.5258009,N,12721.7125335,E,1,05,1.0,77.506,M,0.000,M,0.0,*49
$GPGSA,A,3,05,13,15,23,24,,,,,,,,3.9,2.1,3.3,1*22
$GPGSV,2,1,05,05,26,123,47,13,24,058,42,15,56,045,46,23,54,322,45,1*69
$GPGSV,2,2,05,24,77,177,47,,,,,,,,,,,,,1*55
$GPRMC,065838.19,A,3622.5249044,N,12721.7142319,E,1.45,278.56,280725,0.0,E,A*3A
$GPGGA,065838.19,3622.5249044,N,12721.7142319,E,1,05,1.0,80.273,M,0.000,M,0.0,*43
$GPGSA,A,3,05,13,15,23,24,,,,,,,,3.9,2.1,3.3,1*22
$GPGSV,2,1,05,05,26,123,47,13,24,058,42,15,56,045,46,23,54,322,45,1*69
$GPGSV,2,2,05,24,77,177,47,,,,,,,,,,,,,1*55
$GPRMC,065838.29,A,3622.5257648,N,12721.7126162,E,2.96,159.97,280725,0.0,E,A*30
$GPGGA,065838.29,3622.5257648,N,12721.7126162,E,1,05,1.0,82.582,M,0.000,M,0.0,*42
$GPGSA,A,3,05,13,15,23,24,,,,,,,,3.9,2.1,3.3,1*22
$GPGSV,2,1,05,05,26,123,47,13,24,058,42,15,56,045,46,23,54,322,45,1*69
$GPGSV,2,2,05,24,77,177,46,,,,,,,,,,,,,1*54
$GPRMC,065838.39,A,3622.5259168,N,12721.7120051,E,8.43,279.92,280725,0.0,E,A*3B
$GPGGA,065838.39,3622.5259168,N,12721.7120051,E,1,05,1.0,81.182,M,0.000,M,0.0,*48
$GPGSA,A,3,05,13,15,23,24,,,,,,,,3.9,2.1,3.3,1*22
$GPGSV,2,1,05,05,26,123,47,13,24,058,42,15,56,045,46,23,54,322,45,1*69
$GPGSV,2,2,05,24,77,177,46,,,,,,,,,,,,,1*54
$GPRMC,065838.49,A,3622.5257667,N,12721.7122585,E,5.87,265.22,280725,0.0,E,A*37
$GPGGA,065838.49,3622.5257667,N,12721.7122585,E,1,05,1.0,84.713,M,0.000,M,0.0,*4C
$GPGSA,A,3,05,13,15,23,24,,,,,,,,3.9,2.1,3.3,1*22
$GPGSV,2,1,05,05,26,123,47,13,24,058,42,15,56,045,46,23,54,322,45,1*69
$GPGSV,2,2,05,24,77,177,46,,,,,,,,,,,,,1*54
$GPRMC,065838.59,A,3622.5250894,N,12721.7122655,E,3.38,86.03,280725,0.0,E,A*03
$GPGGA,065838.59,3622.5250894,N,12721.7122655,E,1,05,1.0,80.739,M,0.000,M,0.0,*4A
$GPGSA,A,3,05,13,15,23,24,,,,,,,,3.9,2.1,3.3,1*22
$GPGSV,2,1,05,05,26,123,47,13,24,058,42,15,56,045,46,23,54,322,45,1*69
$GPGSV,2,2,05,24,77,177,46,,,,,,,,,,,,,1*54
$GPRMC,065838.69,A,3622.5254517,N,12721.7142670,E,3.41,262.89,280725,0.0,E,A*37
$GPGGA,065838.69,3622.5254517,N,12721.7142670,E,1,05,1.0,85.945,M,0.000,M,0.0,*4A
$GPGSA,A,3,05,13,15,23,24,,,,,,,,3.9,2.1,3.3,1*22
$GPGSV,2,1,05,05,26,123,47,13,24,058,42,15,56,045,46,23,54,322,45,1*69
$GPGSV,2,2,05,24,77,177,46,,,,,,,,,,,,,1*54
$GPRMC,065838.79,A,3622.5259482,N,12721.7104540,E,2.24,307.85,280725,0.0,E,A*38
$GPGGA,065838.79,3622.5259482,N,12721.7104540,E,1,05,1.0,73.994,M,0.000,M,0.0,*4C
$GPGSA,A,3,05,13,15,23,24,,,,,,,,3.9,2.1,3.3,1*22
$GPGSV,2,1,05,05,26,123,47,13,24,058,42,15,56,045,47,23,54,322,45,1*68
$GPGSV,2,2,05,24,77,177,46,,,,,,,,,,,,,1*54
$GPRMC,065838.89,A,3622.5239886,N,12721.7086509,E,2.81,138.62,280725,0.0,E,A*37
$GPGGA,065838.89,3622.5239886,N,12721.7086509,E,1,05,1.0,74.704,M,0.000,M,0.0,*4B
$GPGSA,A,3,05,13,15,23,24,,,,,,,,3.9,2.1,3.3,1*22
$GPGSV,2,1,05,05,26,123,47,13,24,058,42,15,56,045,47,23,54,322,45,1*68
$GPGSV,2,2,05,24,77,177,46,,,,,,,,,,,,,1*54
$GPRMC,065838.99,A,3622.5234359,N,12721.7131238,E,1.77,138.62,280725,0.0,E,A*30
$GPGGA,065838.99,3622.5234359,N,12721.7131238,E,1,05,1.0,81.701,M,0.000,M,0.0,*49
$GPGSA,A,3,05,13,15,23,24,,,,,,,,3.9,2.1,3.3,1*22
$GPGSV,2,1,05,05,26,123,47,13,24,058,41,15,56,045,47,23,54,322,45,1*6B
$GPGSV,2,2,05,24,77,177,46,,,,,,,,,,,,,1*54
$GPRMC,065839.09,A,3622.5231294,N,12721.7123932,E,3.25,126.29,280725,0.0,E,A*3A
$GPGGA,065839.09,3622.5231294,N,12721.7123932,E,1,05,1.0,86.455,M,0.000,M,0.0,*43
$GPGSA,A,3,05,13,15,23,24,,,,,,,,3.9,2.1,3.3,1*22
$GPGSV,2,1,05,05,26,123,47,13,24,058,42,15,56,045,46,23,54,322,45,1*69
$GPGSV,2,2,05,24,77,177,46,,,,,,,,,,,,,1*54
$GPRMC,065839.19,A,3622.5258942,N,12721.7112180,E,3.04,101.78,280725,0.0,E,A*35
$GPGGA,065839.19,3622.5258942,N,12721.7112180,E,1,05,1.0,73.556,M,0.000,M,0.0,*46
$GPGSA,A,3,05,13,15,23,24,,,,,,,,3.9,2.1,3.3,1*22
$GPGSV,2,1,05,05,26,123,47,13,24,058,42,15,56,045,46,23,54,322,45,1*69
$GPGSV,2,2,05,24,77,177,46,,,,,,,,,,,,,1*54
$GPRMC,065839.29,A,3622.5257675,N,12721.7103589,E,1.76,101.78,280725,0.0,E,A*38
$GPGGA,065839.29,3622.5257675,N,12721.7103589,E,1,05,1.0,78.487,M,0.000,M,0.0,*4A
$GPGSA,A,3,05,13,15,23,24,,,,,,,,3.9,2.1,3.3,1*22
$GPGSV,2,1,05,05,26,123,47,13,24,058,42,15,56,045,46,23,54,322,45,1*69
$GPGSV,2,2,05,24,77,177,46,,,,,,,,,,,,,1*54
$GPRMC,065839.39,A,3622.5246557,N,12721.7093509,E,2.83,203.39,280725,0.0,E,A*37
$GPGGA,065839.39,3622.5246557,N,12721.7093509,E,1,05,1.0,81.124,M,0.000,M,0.0,*42
$GPGSA,A,3,05,13,15,23,24,,,,,,,,3.9,2.1,3.3,1*22
$GPGSV,2,1,05,05,26,123,47,13,24,058,42,15,56,045,46,23,54,322,45,1*69
$GPGSV,2,2,05,24,77,177,46,,,,,,,,,,,,,1*54
$GPRMC,065839.49,A,3622.5235796,N,12721.7129207,E,1.73,203.39,280725,0.0,E,A*3E
$GPGGA,065839.49,3622.5235796,N,12721.7129207,E,1,05,1.0,87.248,M,0.000,M,0.0,*48
$GPGSA,A,3,05,13,15,23,24,,,,,,,,3.9,2.1,3.3,1*22
$GPGSV,2,1,05,05,26,123,47,13,24,058,42,15,56,045,46,23,54,322,45,1*69
$GPGSV,2,2,05,24,77,177,46,,,,,,,,,,,,,1*54
$GPRMC,065839.59,A,3622.5239561,N,12721.7132529,E,2.57,75.83,280725,0.0,E,A*0F
$GPGGA,065839.59,3622.5239561,N,12721.7132529,E,1,05,1.0,83.051,M,0.000,M,0.0,*40
$GPGSA,A,3,05,13,15,23,24,,,,,,,,3.9,2.1,3.3,1*22
$GPGSV,2,1,05,05,26,123,47,13,24,058,42,15,56,045,46,23,54,322,45,1*69
$GPGSV,2,2,05,24,77,177,46,,,,,,,,,,,,,1*54
$GPRMC,065839.69,A,3622.5239364,N,12721.7108848,E,5.84,94.13,280725,0.0,E,A*03
$GPGGA,065839.69,3622.5239364,N,12721.7108848,E,1,05,1.0,81.321,M,0.000,M,0.0,*45
$GPGSA,A,3,05,13,15,23,24,,,,,,,,3.9,2.1,3.3,1*22
$GPGSV,2,1,05,05,26,123,47,13,24,058,42,15,56,045,46,23,54,322,46,1*6A
$GPGSV,2,2,05,24,77,177,46,,,,,,,,,,,,,1*54
$GPRMC,065839.79,A,3622.5254253,N,12721.7109817,E,0.62,94.13,280725,0.0,E,A*0A
$GPGGA,065839.79,3622.5254253,N,12721.7109817,E,1,05,1.0,83.826,M,0.000,M,0.0,*4F
$GPGSA,A,3,05,13,15,23,24,,,,,,,,3.9,2.1,3.3,1*22
$GPGSV,2,1,05,05,26,123,47,13,24,058,42,15,56,045,46,23,54,322,45,1*69
$GPGSV,2,2,05,24,77,177,46,,,,,,,,,,,,,1*54
$GPRMC,065839.89,A,3622.5243407,N,12721.7107321,E,1.84,94.13,280725,0.0,E,A*0D
$GPGGA,065839.89,3622.5243407,N,12721.7107321,E,1,05,1.0,79.937,M,0.000,M,0.0,*45
$GPGSA,A,3,05,13,15,23,24,,,,,,,,3.9,2.1,3.3,1*22
$GPGSV,2,1,05,05,26,123,47,13,24,058,42,15,56,045,46,23,54,322,45,1*69
$GPGSV,2,2,05,24,77,177,46,,,,,,,,,,,,,1*54
$GPRMC,065839.99,A,3622.5233217,N,12721.7080804,E,1.57,94.13,280725,0.0,E,A*00
$GPGGA,065839.99,3622.5233217,N,12721.7080804,E,1,05,1.0,75.928,M,0.000,M,0.0,*44
$GPGSA,A,3,05,13,15,23,24,,,,,,,,3.9,2.1,3.3,1*22
$GPGSV,2,1,05,05,26,123,48,13,24,058,42,15,56,045,46,23,54,322,45,1*66
$GPGSV,2,2,05,24,77,177,46,,,,,,,,,,,,,1*54
$GPRMC,065840.09,A,3622.5241124,N,12721.7088692,E,3.19,93.87,280725,0.0,E,A*0A
$GPGGA,065840.09,3622.5241124,N,12721.7088692,E,1,05,1.0,77.958,M,0.000,M,0.0,*49
$GPGSA,A,3,05,13,15,23,24,,,,,,,,3.9,2.1,3.3,1*22
$GPGSV,2,1,05,05,26,123,48,13,24,058,42,15,56,045,46,23,54,322,45,1*66
$GPGSV,2,2,05,24,77,177,46,,,,,,,,,,,,,1*54
$GPRMC,065840.19,A,3622.5244313,N,12721.7099236,E,1.16,93.87,280725,0.0,E,A*0F
$GPGGA,065840.19,3622.5244313,N,12721.7099236,E,1,05,1.0,85.478,M,0.000,M,0.0,*43
$GPGSA,A,3,05,13,15,23,24,,,,,,,,3.9,2.1,3.3,1*22
$GPGSV,2,1,05,05,26,123,48,13,24,058,42,15,56,045,46,23,54,322,45,1*66
$GPGSV,2,2,05,24,77,177,46,,,,,,,,,,,,,1*54
$GPRMC,065840.29,A,3622.5241343,N,12721.7129811,E,1.37,93.87,280725,0.0,E,A*0A
$GPGGA,065840.29,3622.5241343,N,12721.7129811,E,1,05,1.0,88.157,M,0.000,M,0.0,*40
$GPGSA,A,3,05,13,15,23,24,,,,,,,,3.9,2.1,3.3,1*22
$GPGSV,2,1,05,05,26,123,48,13,24,058,42,15,56,045,46,23,54,322,45,1*66
$GPGSV,2,2,05,24,77,177,46,,,,,,,,,,,,,1*54
$GPRMC,065840.39,A,3622.5248149,N,12721.7107015,E,1.60,93.87,280725,0.0,E,A*08
$GPGGA,065840.39,3622.5248149,N,12721.7107015,E,1,05,1.0,80.732,M,0.000,M,0.0,*4D
$GPGSA,A,3,05,13,15,23,24,,,,,,,,3.9,2.1,3.3,1*22
$GPGSV,2,1,05,05,26,123,48,13,24,058,42,15,56,045,46,23,54,322,45,1*66
$GPGSV,2,2,05,24,77,177,46,,,,,,,,,,,,,1*54
$GPRMC,065840.49,A,3622.5234444,N,12721.7120358,E,1.03,93.87,280725,0.0,E,A*06
$GPGGA,065840.49,3622.5234444,N,12721.7120358,E,1,05,1.0,87.424,M,0.000,M,0.0,*45
$GPGSA,A,3,05,13,15,23,24,,,,,,,,3.9,2.1,3.3,1*22
$GPGSV,2,1,05,05,26,123,48,13,24,058,42,15,56,045,46,23,54,322,45,1*66
$GPGSV,2,2,05,24,77,177,46,,,,,,,,,,,,,1*54
$GPRMC,065840.59,A,3622.5239528,N,12721.7097121,E,2.08,59.41,280725,0.0,E,A*04
$GPGGA,065840.59,3622.5239528,N,12721.7097121,E,1,05,1.0,85.455,M,0.000,M,0.0,*47
$GPGSA,A,3,05,13,15,23,24,,,,,,,,3.9,2.1,3.3,1*22
$GPGSV,2,1,05,05,26,123,48,13,24,058,42,15,56,045,46,23,54,322,45,1*66
$GPGSV,2,2,05,24,77,177,46,,,,,,,,,,,,,1*54
$GPRMC,065840.69,A,3622.5243492,N,12721.7087245,E,1.35,59.41,280725,0.0,E,A*07
$GPGGA,065840.69,3622.5243492,N,12721.7087245,E,1,05,1.0,81.384,M,0.000,M,0.0,*46
$GPGSA,A,3,05,13,15,23,24,,,,,,,,3.9,2.1,3.3,1*22
$GPGSV,2,1,05,05,26,123,48,13,24,058,42,15,56,045,46,23,54,322,45,1*66
$GPGSV,2,2,05,24,77,177,46,,,,,,,,,,,,,1*54
$GPRMC,065840.79,A,3622.5235111,N,12721.7135310,E,1.15,59.41,280725,0.0,E,A*02
$GPGGA,065840.79,3622.5235111,N,12721.7135310,E,1,05,1.0,92.763,M,0.000,M,0.0,*4E
$GPGSA,A,3,05,13,15,23,24,,,,,,,,3.9,2.1,3.3,1*22
$GPGSV,2,1,05,05,26,123,48,13,24,058,42,15,56,045,46,23,54,322,45,1*66
$GPGSV,2,2,05,24,77,177,46,,,,,,,,,,,,,1*54
$GPRMC,065840.89,A,3622.5220706,N,12721.7102108,E,2.42,260.75,280725,0.0,E,A*38
$GPGGA,065840.89,3622.5220706,N,12721.7102108,E,1,05,1.0,86.091,M,0.000,M,0.0,*45
$GPGSA,A,3,05,13,15,23,24,,,,,,,,3.9,2.1,3.3,1*22
$GPGSV,2,1,05,05,26,123,48,13,24,058,42,15,56,045,46,23,54,322,46,1*65
$GPGSV,2,2,05,24,77,177,46,,,,,,,,,,,,,1*54
$GPRMC,065840.99,A,3622.5228709,N,12721.7111520,E,5.42,247.35,280725,0.0,E,A*34
$GPGGA,065840.99,3622.5228709,N,12721.7111520,E,1,05,1.0,91.409,M,0.000,M,0.0,*4C
$GPGSA,A,3,05,13,15,23,24,,,,,,,,3.9,2.1,3.3,1*22
$GPGSV,2,1,05,05,26,123,48,13,24,058,42,15,56,045,46,23,54,322,46,1*65
$GPGSV,2,2,05,24,77,177,46,,,,,,,,,,,,,1*54
$GPRMC,065841.09,A,3622.5227848,N,12721.7091685,E,1.66,247.35,280725,0.0,E,A*3E
$GPGGA,065841.09,3622.5227848,N,12721.7091685,E,1,05,1.0,83.756,M,0.000,M,0.0,*4E
$GPGSA,A,3,05,13,15,23,24,,,,,,,,3.9,2.1,3.3,1*22
$GPGSV,2,1,05,05,26,123,47,13,24,058,42,15,56,045,46,23,54,322,46,1*6A
$GPGSV,2,2,05,24,77,177,46,,,,,,,,,,,,,1*54
$GPRMC,065841.19,A,3622.5240154,N,12721.7131627,E,3.58,205.09,280725,0.0,E,A*3F
$GPGGA,065841.19,3622.5240154,N,12721.7131627,E,1,05,1.0,89.617,M,0.000,M,0.0,*47
$GPGSA,A,3,05,13,15,23,24,,,,,,,,3.9,2.1,3.3,1*22
$GPGSV,2,1,05,05,26,123,48,13,24,058,42,15,56,045,46,23,54,322,46,1*65
$GPGSV,2,2,05,24,77,177,46,,,,,,,,,,,,,1*54
$GPRMC,065841.29,A,3622.5237085,N,12721.7087983,E,6.31,271.90,280725,0.0,E,A*35
$GPGGA,065841.29,3622.5237085,N,12721.7087983,E,1,05,1.0,84.311,M,0.000,M,0.0,*4A
$GPGSA,A,3,05,13,15,23,24,,,,,,,,3.9,2.1,3.3,1*22
$GPGSV,2,1,05,05,26,123,48,13,24,058,42,15,56,045,47,23,54,322,46,1*64
$GPGSV,2,2,05,24,77,177,46,,,,,,,,,,,,,1*54
$GPRMC,065841.39,A,3622.5233027,N,12721.7116186,E,3.52,77.52,280725,0.0,E,A*06
$GPGGA,065841.39,3622.5233027,N,12721.7116186,E,1,05,1.0,88.289,M,0.000,M,0.0,*4F
$GPGSA,A,3,05,13,15,23,24,,,,,,,,3.9,2.1,3.3,1*22
$GPGSV,2,1,05,05,26,123,48,13,24,058,42,15,56,045,47,23,54,322,46,1*64
$GPGSV,2,2,05,24,77,177,46,,,,,,,,,,,,,1*54
$GPRMC,065841.49,A,3622.5222509,N,12721.7098340,E,7.06,107.61,280725,0.0,E,A*34
$GPGGA,065841.49,3622.5222509,N,12721.7098340,E,1,05,1.0,81.987,M,0.000,M,0.0,*42
$GPGSA,A,3,05,13,15,23,24,,,,,,,,3.9,2.1,3.3,1*22
$GPGSV,2,1,05,05,26,123,48,13,24,058,42,15,56,045,46,23,54,322,46,1*65
$GPGSV,2,2,05,24,77,177,46,,,,,,,,,,,,,1*54
$GPRMC,065841.59,A,3622.5219504,N,12721.7078389,E,2.22,285.36,280725,0.0,E,A*33
$GPGGA,065841.59,3622.5219504,N,12721.7078389,E,1,05,1.0,81.419,M,0.000,M,0.0,*47
$GPGSA,A,3,05,13,15,23,24,,,,,,,,3.9,2.1,3.3,1*22
$GPGSV,2,1,05,05,26,123,48,13,24,058,42,15,56,045,46,23,54,322,46,1*65
$GPGSV,2,2,05,24,77,177,46,,,,,,,,,,,,,1*54
$GPRMC,065841.69,A,3622.5229518,N,12721.7089324,E,5.92,92.62,280725,0.0,E,A*0E
$GPGGA,065841.69,3622.5229518,N,12721.7089324,E,1,05,1.0,81.010,M,0.000,M,0.0,*4E
$GPGSA,A,3,05,13,15,23,24,,,,,,,,3.9,2.1,3.3,1*22
$GPGSV,2,1,05,05,26,123,48,13,24,058,42,15,56,045,46,23,54,322,46,1*65
$GPGSV,2,2,05,24,77,177,46,,,,,,,,,,,,,1*54
$GPRMC,065841.79,A,3622.5211682,N,12721.7096383,E,3.47,342.50,280725,0.0,E,A*36
$GPGGA,065841.79,3622.5211682,N,12721.7096383,E,1,05,1.0,91.945,M,0.000,M,0.0,*4F
$GPGSA,A,3,05,13,15,23,24,,,,,,,,3.9,2.1,3.3,1*22
$GPGSV,2,1,05,05,26,123,48,13,24,058,42,15,56,045,46,23,54,322,46,1*65
$GPGSV,2,2,05,24,77,177,46,,,,,,,,,,,,,1*54
$GPRMC,065841.89,A,3622.5232765,N,12721.7135999,E,3.19,294.04,280725,0.0,E,A*39
$GPGGA,065841.89,3622.5232765,N,12721.7135999,E,1,05,1.0,97.500,M,0.000,M,0.0,*4B
$GPGSA,A,3,05,13,15,23,24,,,,,,,,3.9,2.1,3.3,1*22
$GPGSV,2,1,05,05,26,123,48,13,24,058,42,15,56,045,46,23,54,322,46,1*65
$GPGSV,2,2,05,24,77,177,46,,,,,,,,,,,,,1*54
$GPRMC,065841.99,A,3622.5238869,N,12721.7137513,E,1.04,294.04,280725,0.0,E,A*33
$GPGGA,065841.99,3622.5238869,N,12721.7137513,E,1,05,1.0,95.564,M,0.000,M,0.0,*4F
$GPGSA,A,3,05,13,15,23,24,,,,,,,,3.9,2.1,3.3,1*22
$GPGSV,2,1,05,05,26,123,47,13,24,058,42,15,56,045,46,23,54,322,46,1*6A
$GPGSV,2,2,05,24,77,177,46,,,,,,,,,,,,,1*54
$GPRMC,065842.09,A,3622.5239463,N,12721.7093247,E,2.03,256.09,280725,0.0,E,A*30
$GPGGA,065842.09,3622.5239463,N,12721.7093247,E,1,05,1.0,87.031,M,0.000,M,0.0,*4D
$GPGSA,A,3,05,13,15,23,24,,,,,,,,3.9,2.1,3.3,1*22
$GPGSV,2,1,05,05,26,123,47,13,24,058,42,15,56,045,46,23,54,322,46,1*6A
$GPGSV,2,2,05,24,77,177,46,,,,,,,,,,,,,1*54
$GPRMC,065842.19,A,3622.5236205,N,12721.7112516,E,5.50,54.47,280725,0.0,E,A*08
$GPGGA,065842.19,3622.5236205,N,12721.7112516,E,1,05,1.0,88.003,M,0.000,M,0.0,*40
$GPGSA,A,3,05,13,15,23,24,,,,,,,,3.9,2.1,3.3,1*22
$GPGSV,2,1,05,05,26,123,47,13,24,058,42,15,56,045,46,23,54,322,45,1*69
$GPGSV,2,2,05,24,77,177,46,,,,,,,,,,,,,1*54
$GPRMC,065842.29,A,3622.5230501,N,12721.7088461,E,0.57,54.47,280725,0.0,E,A*0F
$GPGGA,065842.29,3622.5230501,N,12721.7088461,E,1,05,1.0,82.285,M,0.000,M,0.0,*43
$GPGSA,A,3,05,13,15,23,24,,,,,,,,3.9,2.1,3.3,1*22
$GPGSV,2,1,05,05,26,123,47,13,24,058,42,15,56,045,47,23,54,322,46,1*6B
$GPGSV,2,2,05,24,77,177,46,,,,,,,,,,,,,1*54
$GPRMC,065842.39,A,3622.5230824,N,12721.7095948,E,1.09,54.47,280725,0.0,E,A*04
$GPGGA,065842.39,3622.5230824,N,12721.7095948,E,1,05,1.0,84.882,M,0.000,M,0.0,*49
$GPGSA,A,3,05,13,15,23,24,,,,,,,,3.9,2.1,3.3,1*22
$GPGSV,2,1,05,05,26,123,47,13,24,058,42,15,56,045,47,23,54,322,46,1*6B
$GPGSV,2,2,05,24,77,177,46,,,,,,,,,,,,,1*54
$GPRMC,065842.49,A,3622.5258581,N,12721.7131584,E,1.13,54.47,280725,0.0,E,A*07
$GPGGA,065842.49,3622.5258581,N,12721.7131584,E,1,05,1.0,93.430,M,0.000,M,0.0,*42
$GPGSA,A,3,05,13,15,23,24,,,,,,,,3.9,2.1,3.3,1*22
$GPGSV,2,1,05,05,26,123,47,13,24,058,42,15,56,045,47,23,54,322,46,1*6B
$GPGSV,2,2,05,24,77,177,46,,,,,,,,,,,,,1*54
$GPRMC,065842.59,A,3622.5241911,N,12721.7126014,E,7.76,272.58,280725,0.0,E,A*3C
$GPGGA,065842.59,3622.5241911,N,12721.7126014,E,1,05,1.0,87.116,M,0.000,M,0.0,*40
$GPGSA,A,3,05,13,15,23,24,,,,,,,,3.9,2.1,3.3,1*22
$GPGSV,2,1,05,05,26,123,47,13,24,058,42,15,56,045,47,23,54,322,46,1*6B
$GPGSV,2,2,05,24,77,177,46,,,,,,,,,,,,,1*54
$GPRMC,065842.69,A,3622.5218816,N,12721.7114062,E,2.11,10.67,280725,0.0,E,A*0B
$GPGGA,065842.69,3622.5218816,N,12721.7114062,E,1,05,1.0,90.302,M,0.000,M,0.0,*48
$GPGSA,A,3,05,13,15,23,24,,,,,,,,3.9,2.1,3.3,1*22
$GPGSV,2,1,05,05,26,123,47,13,24,058,42,15,56,045,47,23,54,322,46,1*6B
$GPGSV,2,2,05,24,77,177,46,,,,,,,,,,,,,1*54
$GPRMC,065842.79,A,3622.5220308,N,12721.7103595,E,2.38,80.45,280725,0.0,E,A*0C
$GPGGA,065842.79,3622.5220308,N,12721.7103595,E,1,05,1.0,84.165,M,0.000,M,0.0,*4B
$GPGSA,A,3,05,13,15,23,24,,,,,,,,3.9,2.1,3.3,1*22
$GPGSV,2,1,05,05,26,123,48,13,24,058,42,15,56,045,46,23,54,322,46,1*65
$GPGSV,2,2,05,24,77,177,46,,,,,,,,,,,,,1*54
$GPRMC,065842.89,A,3622.5224406,N,12721.7137317,E,2.27,319.51,280725,0.0,E,A*3D
$GPGGA,065842.89,3622.5224406,N,12721.7137317,E,1,05,1.0,89.161,M,0.000,M,0.0,*4B
$GPGSA,A,3,05,13,15,23,24,,,,,,,,3.9,2.1,3.3,1*22
$GPGSV,2,1,05,05,26,123,48,13,24,058,42,15,56,045,47,23,54,322,46,1*64
$GPGSV,2,2,05,24,77,177,46,,,,,,,,,,,,,1*54
$GPRMC,065842.99,A,3622.5224484,N,12721.7122268,E,1.37,319.51,280725,0.0,E,A*39
$GPGGA,065842.99,3622.5224484,N,12721.7122268,E,1,05,1.0,88.327,M,0.000,M,0.0,*4C
$GPGSA,A,3,05,13,15,23,24,,,,,,,,3.9,2.1,3.3,1*22
$GPGSV,2,1,05,05,26,123,48,13,24,058,43,15,56,045,47,23,54,322,45,1*66
$GPGSV,2,2,05,24,77,177,46,,,,,,,,,,,,,1*54
$GPRMC,065843.09,A,3622.5219758,N,12721.7086328,E,1.73,319.51,280725,0.0,E,A*37
$GPGGA,065843.09,3622.5219758,N,12721.7086328,E,1,05,1.0,85.294,M,0.000,M,0.0,*46
$GPGSA,A,3,05,13,15,23,24,,,,,,,,3.9,2.1,3.3,1*22
$GPGSV,2,1,05,05,26,123,48,13,24,058,42,15,56,045,47,23,54,322,45,1*67
$GPGSV,2,2,05,24,77,177,46,,,,,,,,,,,,,1*54
$GPRMC,065843.19,A,3622.5208373,N,12721.7084084,E,3.39,136.20,280725,0.0,E,A*39
$GPGGA,065843.19,3622.5208373,N,12721.7084084,E,1,05,1.0,85.946,M,0.000,M,0.0,*49
$GPGSA,A,3,05,13,15,23,24,,,,,,,,3.9,2.1,3.3,1*22
$GPGSV,2,1,05,05,26,123,48,13,24,058,42,15,56,045,47,23,54,322,45,1*67
$GPGSV,2,2,05,24,77,177,46,,,,,,,,,,,,,1*54
$GPRMC,065843.29,A,3622.5221010,N,12721.7086996,E,2.01,105.14,280725,0.0,E,A*32
$GPGGA,065843.29,3622.5221010,N,12721.7086996,E,1,05,1.0,85.150,M,0.000,M,0.0,*40
$GPGSA,A,3,05,13,15,23,24,,,,,,,,3.9,2.1,3.3,1*22
$GPGSV,2,1,05,05,26,123,48,13,24,058,42,15,56,045,46,23,54,322,45,1*66
$GPGSV,2,2,05,24,77,177,46,,,,,,,,,,,,,1*54
$GPRMC,065843.39,A,3622.5224893,N,12721.7084966,E,2.19,241.51,280725,0.0,E,A*33
$GPGGA,065843.39,3622.5224893,N,12721.7084966,E,1,05,1.0,80.649,M,0.000,M,0.0,*40
$GPGSA,A,3,05,13,15,23,24,,,,,,,,3.9,2.1,3.3,1*22
$GPGSV,2,1,05,05,26,123,48,13,24,058,42,15,56,045,46,23,54,322,45,1*66
$GPGSV,2,2,05,24,77,177,46,,,,,,,,,,,,,1*54
$GPRMC,065843.49,A,3622.5219298,N,12721.7132879,E,4.59,279.65,280725,0.0,E,A*36
$GPGGA,065843.49,3622.5219298,N,12721.7132879,E,1,05,1.0,89.382,M,0.000,M,0.0,*40
$GPGSA,A,3,05,13,15,23,24,,,,,,,,3.9,2.1,3.3,1*22
$GPGSV,2,1,05,05,26,123,47,13,24,058,42,15,56,045,46,23,54,322,45,1*69
$GPGSV,2,2,05,24,77,177,46,,,,,,,,,,,,,1*54
$GPRMC,065843.59,A,3622.5220939,N,12721.7111796,E,1.45,279.65,280725,0.0,E,A*3A
$GPGGA,065843.59,3622.5220939,N,12721.7111796,E,1,05,1.0,90.201,M,0.000,M,0.0,*46
$GPGSA,A,3,05,13,15,23,24,,,,,,,,3.9,2.1,3.3,1*22
$GPGSV,2,1,05,05,26,123,47,13,24,058,42,15,56,045,46,23,54,322,46,1*6A
$GPGSV,2,2,05,24,77,177,46,,,,,,,,,,,,,1*54
$GPRMC,065843.69,A,3622.5228771,N,12721.7113941,E,1.73,279.65,280725,0.0,E,A*30
$GPGGA,065843.69,3622.5228771,N,12721.7113941,E,1,05,1.0,90.560,M,0.000,M,0.0,*49
$GPGSA,A,3,05,13,15,23,24,,,,,,,,3.9,2.1,3.3,1*22
$GPGSV,2,1,05,05,26,123,47,13,24,058,42,15,56,045,46,23,54,322,45,1*69
$GPGSV,2,2,05,24,77,177,46,,,,,,,,,,,,,1*54
$GPRMC,065843.79,A,3622.5240445,N,12721.7101117,E,3.30,124.23,280725,0.0,E,A*3F
$GPGGA,065843.79,3622.5240445,N,12721.7101117,E,1,05,1.0,80.084,M,0.000,M,0.0,*44
$GPGSA,A,3,05,13,15,23,24,,,,,,,,3.9,2.1,3.3,1*22
$GPGSV,2,1,05,05,26,123,47,13,24,058,42,15,56,045,46,23,54,322,46,1*6A
$GPGSV,2,2,05,24,77,177,46,,,,,,,,,,,,,1*54
$GPRMC,065843.89,A,3622.5248268,N,12721.7131828,E,5.16,103.25,280725,0.0,E,A*36
$GPGGA,065843.89,3622.5248268,N,12721.7131828,E,1,05,1.0,87.265,M,0.000,M,0.0,*46
$GPGSA,A,3,05,13,15,23,24,,,,,,,,3.9,2.1,3.3,1*22
$GPGSV,2,1,05,05,26,123,48,13,24,058,42,15,56,045,46,23,54,322,46,1*65
$GPGSV,2,2,05,24,77,177,46,,,,,,,,,,,,,1*54
$GPRMC,065843.99,A,3622.5235230,N,12721.7138772,E,4.32,87.67,280725,0.0,E,A*05
$GPGGA,065843.99,3622.5235230,N,12721.7138772,E,1,05,1.0,94.926,M,0.000,M,0.0,*47
$GPGSA,A,3,05,13,15,23,24,,,,,,,,3.9,2.1,3.3,1*22
$GPGSV,2,1,05,05,26,123,48,13,24,058,42,15,56,045,46,23,54,322,45,1*66
$GPGSV,2,2,05,24,77,177,46,,,,,,,,,,,,,1*54
$GPRMC,065844.09,A,3622.5253304,N,12721.7123853,E,2.63,200.00,280725,0.0,E,A*35
$GPGGA,065844.09,3622.5253304,N,12721.7123853,E,1,05,1.0,92.138,M,0.000,M,0.0,*48
$GPGSA,A,3,05,13,15,23,24,,,,,,,,3.9,2.1,3.3,1*22
$GPGSV,2,1,05,05,26,123,48,13,24,058,42,15,56,045,46,23,54,322,45,1*66
$GPGSV,2,2,05,24,77,177,46,,,,,,,,,,,,,1*54
$GPRMC,065844.19,A,3622.5242921,N,12721.7108961,E,2.81,321.75,280725,0.0,E,A*3C
$GPGGA,065844.19,3622.5242921,N,12721.7108961,E,1,05,1.0,88.580,M,0.000,M,0.0,*41
$GPGSA,A,3,05,13,15,23,24,,,,,,,,3.9,2.1,3.3,1*22
$GPGSV,2,1,05,05,26,123,48,13,24,058,42,15,56,045,46,23,54,322,45,1*66
$GPGSV,2,2,05,24,77,177,46,,,,,,,,,,,,,1*54
$GPRMC,065844.29,A,3622.5247197,N,12721.7121842,E,1.18,321.75,280725,0.0,E,A*37
$GPGGA,065844.29,3622.5247197,N,12721.7121842,E,1,05,1.0,86.483,M,0.000,M,0.0,*45
$GPGSA,A,3,05,13,15,23,24,,,,,,,,3.9,2.1,3.3,1*22
$GPGSV,2,1,05,05,26,123,48,13,24,058,42,15,56,045,46,23,54,322,45,1*66
$GPGSV,2,2,05,24,77,177,46,,,,,,,,,,,,,1*54
$GPRMC,065844.39,A,3622.5242677,N,12721.7122340,E,1.88,321.75,280725,0.0,E,A*39
$GPGGA,065844.39,3622.5242677,N,12721.7122340,E,1,05,1.0,88.014,M,0.000,M,0.0,*46
$GPGSA,A,3,05,13,15,23,24,,,,,,,,3.9,2.1,3.3,1*22
$GPGSV,2,1,05,05,26,123,48,13,24,058,42,15,56,045,46,23,54,322,45,1*66
$GPGSV,2,2,05,24,77,177,46,,,,,,,,,,,,,1*54
$GPRMC,065844.49,A,3622.5247362,N,12721.7138899,E,3.10,99.03,280725,0.0,E,A*0C
$GPGGA,065844.49,3622.5247362,N,12721.7138899,E,1,05,1.0,90.977,M,0.000,M,0.0,*44
$GPGSA,A,3,05,13,15,23,24,,,,,,,,3.9,2.1,3.3,1*22
$GPGSV,2,1,05,05,26,123,48,13,24,058,42,15,56,045,46,23,54,322,45,1*66
$GPGSV,2,2,05,24,77,177,46,,,,,,,,,,,,,1*54
$GPRMC,065844.59,A,3622.5245451,N,12721.7132353,E,6.54,267.76,280725,0.0,E,A*3B
$GPGGA,065844.59,3622.5245451,N,12721.7132353,E,1,05,1.0,85.594,M,0.000,M,0.0,*42
$GPGSA,A,3,05,13,15,23,24,,,,,,,,3.9,2.1,3.3,1*22
$GPGSV,2,1,05,05,26,123,48,13,24,058,42,15,56,045,46,23,54,322,45,1*66
$GPGSV,2,2,05,24,77,177,46,,,,,,,,,,,,,1*54
$GPRMC,065844.69,A,3622.5226995,N,12721.7119708,E,2.68,20.14,280725,0.0,E,A*05
$GPGGA,065844.69,3622.5226995,N,12721.7119708,E,1,05,1.0,80.315,M,0.000,M,0.0,*48
$GPGSA,A,3,05,13,15,23,24,,,,,,,,3.9,2.1,3.3,1*22
$GPGSV,2,1,05,05,26,123,48,13,24,058,42,15,56,045,46,23,54,322,44,1*67
$GPGSV,2,2,05,24,77,177,46,,,,,,,,,,,,,1*54
$GPRMC,065844.79,A,3622.5237120,N,12721.7134895,E,8.30,262.37,280725,0.0,E,A*34
$GPGGA,065844.79,3622.5237120,N,12721.7134895,E,1,05,1.0,84.352,M,0.000,M,0.0,*4C
$GPGSA,A,3,05,13,15,23,24,,,,,,,,3.9,2.1,3.3,1*22
$GPGSV,2,1,05,05,26,123,48,13,24,058,42,15,56,045,46,23,54,322,44,1*67
$GPGSV,2,2,05,24,77,177,46,,,,,,,,,,,,,1*54
$GPRMC,065844.89,A,3622.5238816,N,12721.7141496,E,1.91,262.37,280725,0.0,E,A*37
$GPGGA,065844.89,3622.5238816,N,12721.7141496,E,1,05,1.0,87.799,M,0.000,M,0.0,*4D
$GPGSA,A,3,05,13,15,23,24,,,,,,,,3.9,2.1,3.3,1*22
$GPGSV,2,1,05,05,26,123,48,13,24,058,42,15,56,045,46,23,54,322,45,1*66
$GPGSV,2,2,05,24,77,177,46,,,,,,,,,,,,,1*54
$GPRMC,065844.99,A,3622.5247361,N,12721.7120508,E,0.77,262.37,280725,0.0,E,A*3D
$GPGGA,065844.99,3622.5247361,N,12721.7120508,E,1,05,1.0,84.567,M,0.000,M,0.0,*4E
$GPGSA,A,3,05,13,15,23,24,,,,,,,,3.9,2.1,3.3,1*22
$GPGSV,2,1,05,05,26,123,48,13,24,058,42,15,56,045,46,23,54,322,45,1*66
$GPGSV,2,2,05,24,77,177,46,,,,,,,,,,,,,1*54
$GPRMC,065845.09,A,3622.5241177,N,12721.7099691,E,4.69,98.71,280725,0.0,E,A*08
$GPGGA,065845.09,3622.5241177,N,12721.7099691,E,1,05,1.0,77.532,M,0.000,M,0.0,*49
$GPGSA,A,3,05,13,15,23,24,,,,,,,,3.9,2.1,3.3,1*22
$GPGSV,2,1,05,05,26,123,48,13,24,058,42,15,56,045,46,23,54,322,45,1*66
$GPGSV,2,2,05,24,77,177,46,,,,,,,,,,,,,1*54
$GPRMC,065845.19,A,3622.5225469,N,12721.7106923,E,4.08,113.55,280725,0.0,E,A*33
$GPGGA,065845.19,3622.5225469,N,12721.7106923,E,1,05,1.0,81.599,M,0.000,M,0.0,*49
$GPGSA,A,3,05,13,15,23,24,,,,,,,,3.9,2.1,3.3,1*22
$GPGSV,2,1,05,05,26,123,47,13,24,058,42,15,56,045,46,23,54,322,45,1*69
$GPGSV,2,2,05,24,77,177,46,,,,,,,,,,,,,1*54
$GPRMC,065845.29,A,3622.5245013,N,12721.7116743,E,1.24,113.55,280725,0.0,E,A*3D
$GPGGA,065845.29,3622.5245013,N,12721.7116743,E,1,05,1.0,82.221,M,0.000,M,0.0,*4B
$GPGSA,A,3,05,13,15,23,24,,,,,,,,3.9,2.1,3.3,1*22
$GPGSV,2,1,05,05,26,123,47,13,24,058,42,15,56,045,46,23,54,322,45,1*69
$GPGSV,2,2,05,24,77,177,46,,,,,,,,,,,,,1*54
$GPRMC,065845.39,A,3622.5260719,N,12721.7137878,E,0.44,113.55,280725,0.0,E,A*35
$GPGGA,065845.39,3622.5260719,N,12721.7137878,E,1,05,1.0,89.991,M,0.000,M,0.0,*4F
$GPGSA,A,3,05,13,15,23,24,,,,,,,,3.9,2.1,3.3,1*22
$GPGSV,2,1,05,05,26,123,47,13,24,058,42,15,56,045,46,23,54,322,45,1*69
$GPGSV,2,2,05,24,77,177,46,,,,,,,,,,,,,1*54
$GPRMC,065845.49,A,3622.5255521,N,12721.7141378,E,1.32,113.55,280725,0.0,E,A*37
$GPGGA,065845.49,3622.5255521,N,12721.7141378,E,1,05,1.0,90.811,M,0.000,M,0.0,*4C
$GPGSA,A,3,05,13,15,23,24,,,,,,,,3.9,2.1,3.3,1*22
$GPGSV,2,1,05,05,26,123,48,13,24,058,42,15,56,045,46,23,54,322,45,1*66
$GPGSV,2,2,05,24,77,177,46,,,,,,,,,,,,,1*54
$GPRMC,065845.59,A,3622.5259314,N,12721.7147520,E,2.51,60.07,280725,0.0,E,A*03
$GPGGA,065845.59,3622.5259314,N,12721.7147520,E,1,05,1.0,88.190,M,0.000,M,0.0,*45
$GPGSA,A,3,05,13,15,23,24,,,,,,,,3.9,2.1,3.3,1*22
$GPGSV,2,1,05,05,26,123,48,13,24,058,42,15,56,045,46,23,54,322,45,1*66
$GPGSV,2,2,05,24,77,177,46,,,,,,,,,,,,,1*54
$GPRMC,065845.69,A,3622.5250234,N,12721.7150555,E,3.56,298.54,280725,0.0,E,A*3B
$GPGGA,065845.69,3622.5250234,N,12721.7150555,E,1,05,1.0,88.827,M,0.000,M,0.0,*4D
$GPGSA,A,3,05,13,15,23,24,,,,,,,,3.9,2.1,3.3,1*22
$GPGSV,2,1,05,05,26,123,48,13,24,058,42,15,56,045,46,23,54,322,45,1*66
$GPGSV,2,2,05,24,77,177,46,,,,,,,,,,,,,1*54
$GPRMC,065845.79,A,3622.5245869,N,12721.7144210,E,2.05,88.17,280725,0.0,E,A*0C
$GPGGA,065845.79,3622.5245869,N,12721.7144210,E,1,05,1.0,95.299,M,0.000,M,0.0,*4A
$GPGSA,A,3,05,13,15,23,24,,,,,,,,3.9,2.1,3.3,1*22
$GPGSV,2,1,05,05,26,123,48,13,24,058,42,15,56,045,46,23,54,322,45,1*66
$GPGSV,2,2,05,24,77,177,46,,,,,,,,,,,,,1*54
$GPRMC,065845.89,A,3622.5253670,N,12721.7106787,E,3.68,285.91,280725,0.0,E,A*34
$GPGGA,065845.89,3622.5253670,N,12721.7106787,E,1,05,1.0,85.378,M,0.000,M,0.0,*46
$GPGSA,A,3,05,13,15,23,24,,,,,,,,3.9,2.1,3.3,1*22
$GPGSV,2,1,05,05,26,123,48,13,24,058,42,15,56,045,46,23,54,322,45,1*66
$GPGSV,2,2,05,24,77,177,46,,,,,,,,,,,,,1*54
$GPRMC,065845.99,A,3622.5248936,N,12721.7083910,E,3.21,93.54,280725,0.0,E,A*0F
$GPGGA,065845.99,3622.5248936,N,12721.7083910,E,1,05,1.0,76.415,M,0.000,M,0.0,*4C
$GPGSA,A,3,05,13,15,23,24,,,,,,,,3.9,2.1,3.3,1*22
$GPGSV,2,1,05,05,26,123,47,13,24,058,42,15,56,045,46,23,54,322,45,1*69
$GPGSV,2,2,05,24,77,177,46,,,,,,,,,,,,,1*54
$GPRMC,065846.09,A,3622.5251003,N,12721.7136471,E,4.01,224.83,280725,0.0,E,A*36
$GPGGA,065846.09,3622.5251003,N,12721.7136471,E,1,05,1.0,87.567,M,0.000,M,0.0,*4E
$GPGSA,A,3,05,13,15,23,24,,,,,,,,3.9,2.1,3.3,1*22
$GPGSV,2,1,05,05,26,123,48,13,24,058,42,15,56,045,46,23,54,322,45,1*66
$GPGSV,2,2,05,24,77,177,46,,,,,,,,,,,,,1*54
$GPRMC,065846.19,A,3622.5245741,N,12721.7168059,E,3.66,230.16,280725,0.0,E,A*39
$GPGGA,065846.19,3622.5245741,N,12721.7168059,E,1,05,1.0,92.326,M,0.000,M,0.0,*49
$GPGSA,A,3,05,13,15,23,24,,,,,,,,3.9,2.1,3.3,1*22
$GPGSV,2,1,05,05,26,123,48,13,24,058,42,15,56,045,46,23,54,322,45,1*66
$GPGSV,2,2,05,24,77,177,46,,,,,,,,,,,,,1*54
$GPRMC,065846.29,A,3622.5260988,N,12721.7133931,E,1.08,230.16,280725,0.0,E,A*35
$GPGGA,065846.29,3622.5260988,N,12721.7133931,E,1,05,1.0,76.666,M,0.000,M,0.0,*44
$GPGSA,A,3,05,13,15,23,24,,,,,,,,3.9,2.1,3.3,1*22
$GPGSV,2,1,05,05,26,123,48,13,24,058,42,15,56,045,46,23,54,322,45,1*66
$GPGSV,2,2,05,24,77,177,46,,,,,,,,,,,,,1*54
$GPRMC,065846.39,A,3622.5256154,N,12721.7137128,E,3.42,74.20,280725,0.0,E,A*07
$GPGGA,065846.39,3622.5256154,N,12721.7137128,E,1,05,1.0,80.260,M,0.000,M,0.0,*46
$GPGSA,A,3,05,13,15,23,24,,,,,,,,3.9,2.1,3.3,1*22
$GPGSV,2,1,05,05,26,123,48,13,24,058,42,15,56,045,46,23,54,322,45,1*66
$GPGSV,2,2,05,24,77,177,46,,,,,,,,,,,,,1*54
$GPRMC,065846.49,A,3622.5249158,N,12721.7167386,E,3.39,302.88,280725,0.0,E,A*3D
$GPGGA,065846.49,3622.5249158,N,12721.7167386,E,1,05,1.0,85.520,M,0.000,M,0.0,*46
$GPGSA,A,3,05,13,15,23,24,,,,,,,,3.9,2.1,3.3,1*22
$GPGSV,2,1,05,05,26,123,48,13,24,058,42,15,56,045,47,23,54,322,45,1*67
$GPGSV,2,2,05,24,77,177,46,,,,,,,,,,,,,1*54
$GPRMC,065846.59,A,3622.5259933,N,12721.7174532,E,1.73,302.88,280725,0.0,E,A*3F
$GPGGA,065846.59,3622.5259933,N,12721.7174532,E,1,05,1.0,91.333,M,0.000,M,0.0,*49
$GPGSA,A,3,05,13,15,23,24,,,,,,,,3.9,2.1,3.3,1*22
$GPGSV,2,1,05,05,26,123,48,13,24,058,42,15,56,045,46,23,54,322,45,1*66
$GPGSV,2,2,05,24,78,177,46,,,,,,,,,,,,,1*5B
$GPRMC,065846.69,A,3622.5260437,N,12721.7153651,E,2.09,339.42,280725,0.0,E,A*3C
$GPGGA,065846.69,3622.5260437,N,12721.7153651,E,1,05,1.0,87.817,M,0.000,M,0.0,*40
$GPGSA,A,3,05,13,15,23,24,,,,,,,,3.9,2.1,3.3,1*22
$GPGSV,2,1,05,05,26,123,48,13,24,058,42,15,56,045,47,23,54,322,44,1*66
$GPGSV,2,2,05,24,78,177,46,,,,,,,,,,,,,1*5B
$GPRMC,065846.79,A,3622.5234007,N,12721.7144100,E,2.57,216.01,280725,0.0,E,A*3E
$GPGGA,065846.79,3622.5234007,N,12721.7144100,E,1,05,1.0,90.089,M,0.000,M,0.0,*4B
$GPGSA,A,3,05,13,15,23,24,,,,,,,,3.9,2.1,3.3,1*22
$GPGSV,2,1,05,05,26,123,48,13,24,058,42,15,56,045,47,23,54,322,45,1*67
$GPGSV,2,2,05,24,78,177,46,,,,,,,,,,,,,1*5B
$GPRMC,065846.89,A,3622.5234241,N,12721.7128884,E,2.76,70.73,280725,0.0,E,A*0A
$GPGGA,065846.89,3622.5234241,N,12721.7128884,E,1,05,1.0,84.310,M,0.000,M,0.0,*4D
$GPGSA,A,3,05,13,15,23,24,,,,,,,,3.9,2.1,3.3,1*22
$GPGSV,2,1,05,05,26,123,48,13,24,058,42,15,56,045,47,23,54,322,45,1*67
$GPGSV,2,2,05,24,78,177,46,,,,,,,,,,,,,1*5B
$GPRMC,065846.99,A,3622.5259261,N,12721.7137821,E,7.53,120.76,280725,0.0,E,A*30
$GPGGA,065846.99,3622.5259261,N,12721.7137821,E,1,05,1.0,85.577,M,0.000,M,0.0,*42
$GPGSA,A,3,05,13,15,23,24,,,,,,,,3.9,2.1,3.3,1*22
$GPGSV,2,1,05,05,26,123,48,13,24,058,42,15,56,045,46,23,54,322,45,1*66
$GPGSV,2,2,05,24,78,177,46,,,,,,,,,,,,,1*5B
$GPRMC,065847.09,A,3622.5243954,N,12721.7154898,E,3.28,78.57,280725,0.0,E,A*0E
$GPGGA,065847.09,3622.5243954,N,12721.7154898,E,1,05,1.0,96.059,M,0.000,M,0.0,*40
$GPGSA,A,3,05,13,15,23,24,,,,,,,,3.9,2.1,3.3,1*22
$GPGSV,2,1,05,05,26,123,47,13,24,058,42,15,56,045,46,23,54,322,45,1*69
$GPGSV,2,2,05,24,78,177,46,,,,,,,,,,,,,1*5B
$GPRMC,065847.19,A,3622.5244642,N,12721.7162894,E,5.25,259.77,280725,0.0,E,A*31
$GPGGA,065847.19,3622.5244642,N,12721.7162894,E,1,05,1.0,90.704,M,0.000,M,0.0,*4E
$GPGSA,A,3,05,13,15,23,24,,,,,,,,3.9,2.1,3.3,1*22
$GPGSV,2,1,05,05,26,123,48,13,24,058,42,15,56,045,46,23,54,322,45,1*66
$GPGSV,2,2,05,24,78,177,46,,,,,,,,,,,,,1*5B
$GPRMC,065847.29,A,3622.5251315,N,12721.7170392,E,4.41,80.70,280725,0.0,E,A*0D
$GPGGA,065847.29,3622.5251315,N,12721.7170392,E,1,05,1.0,98.088,M,0.000,M,0.0,*4B
$GPGSA,A,3,05,13,15,23,24,,,,,,,,3.9,2.1,3.3,1*22
$GPGSV,2,1,05,05,26,123,47,13,24,058,42,15,56,045,46,23,54,322,45,1*69
$GPGSV,2,2,05,24,78,177,46,,,,,,,,,,,,,1*5B
$GPRMC,065847.39,A,3622.5247689,N,12721.7145353,E,4.66,247.23,280725,0.0,E,A*3A
$GPGGA,065847.39,3622.5247689,N,12721.7145353,E,1,05,1.0,95.557,M,0.000,M,0.0,*4C
$GPGSA,A,3,05,13,15,23,24,,,,,,,,3.9,2.1,3.3,1*22
$GPGSV,2,1,05,05,26,123,48,13,24,058,42,15,56,045,46,23,54,322,45,1*66
$GPGSV,2,2,05,24,78,177,46,,,,,,,,,,,,,1*5B
$GPRMC,065847.49,A,3622.5258367,N,12721.7167285,E,1.42,247.23,280725,0.0,E,A*3F
$GPGGA,065847.49,3622.5258367,N,12721.7167285,E,1,05,1.0,96.988,M,0.000,M,0.0,*47
$GPGSA,A,3,05,13,15,23,24,,,,,,,,3.9,2.1,3.3,1*22
$GPGSV,2,1,05,05,26,123,48,13,24,058,42,15,56,045,46,23,54,322,45,1*66
$GPGSV,2,2,05,24,78,177,46,,,,,,,,,,,,,1*5B
$GPRMC,065847.59,A,3622.5267028,N,12721.7147261,E,0.65,247.23,280725,0.0,E,A*36
$GPGGA,065847.59,3622.5267028,N,12721.7147261,E,1,05,1.0,83.855,M,0.000,M,0.0,*4F
$GPGSA,A,3,05,13,15,23,24,,,,,,,,3.9,2.1,3.3,1*22
$GPGSV,2,1,05,05,26,123,48,13,24,058,42,15,56,045,46,23,54,322,45,1*66
$GPGSV,2,2,05,24,78,177,46,,,,,,,,,,,,,1*5B
$GPRMC,065847.69,A,3622.5247742,N,12721.7125953,E,2.31,270.51,280725,0.0,E,A*30
$GPGGA,065847.69,3622.5247742,N,12721.7125953,E,1,05,1.0,81.619,M,0.000,M,0.0,*4F
$GPGSA,A,3,05,13,15,23,24,,,,,,,,3.9,2.1,3.3,1*22
$GPGSV,2,1,05,05,26,123,48,13,24,058,42,15,56,045,46,23,54,322,45,1*66
$GPGSV,2,2,05,24,78,177,46,,,,,,,,,,,,,1*5B
$GPRMC,065847.79,A,3622.5240362,N,12721.7122933,E,2.66,359.48,280725,0.0,E,A*31
$GPGGA,065847.79,3622.5240362,N,12721.7122933,E,1,05,1.0,84.534,M,0.000,M,0.0,*47
$GPGSA,A,3,05,13,15,23,24,,,,,,,,3.9,2.1,3.3,1*22
$GPGSV,2,1,05,05,26,123,48,13,24,058,42,15,56,045,46,23,54,322,45,1*66
$GPGSV,2,2,05,24,78,177,46,,,,,,,,,,,,,1*5B
$GPRMC,065847.89,A,3622.5271328,N,12721.7137864,E,1.01,359.48,280725,0.0,E,A*37
$GPGGA,065847.89,3622.5271328,N,12721.7137864,E,1,05,1.0,86.661,M,0.000,M,0.0,*42
$GPGSA,A,3,05,13,15,23,24,,,,,,,,3.9,2.1,3.3,1*22
$GPGSV,2,1,05,05,26,123,48,13,24,058,42,15,56,045,46,23,54,322,45,1*66
$GPGSV,2,2,05,24,78,177,46,,,,,,,,,,,,,1*5B
$GPRMC,065847.99,A,3622.5264812,N,12721.7164620,E,0.88,359.48,280725,0.0,E,A*38
$GPGGA,065847.99,3622.5264812,N,12721.7164620,E,1,05,1.0,95.302,M,0.000,M,0.0,*4F
$GPGSA,A,3,05,13,15,23,24,,,,,,,,3.9,2.1,3.3,1*22
$GPGSV,2,1,05,05,26,123,48,13,24,058,42,15,56,045,46,23,54,322,45,1*66
$GPGSV,2,2,05,24,78,177,46,,,,,,,,,,,,,1*5B
$GPRMC,065848.09,A,3622.5265756,N,12721.7155801,E,1.02,359.48,280725,0.0,E,A*3C
$GPGGA,065848.09,3622.5265756,N,12721.7155801,E,1,05,1.0,94.397,M,0.000,M,0.0,*45
$GPGSA,A,3,05,13,15,23,24,,,,,,,,3.9,2.1,3.3,1*22
$GPGSV,2,1,05,05,26,123,48,13,24,058,42,15,56,045,46,23,54,322,45,1*66
$GPGSV,2,2,05,24,78,177,46,,,,,,,,,,,,,1*5B
$GPRMC,065848.19,A,3622.5254829,N,12721.7156339,E,1.99,236.20,280725,0.0,E,A*3F
$GPGGA,065848.19,3622.5254829,N,12721.7156339,E,1,05,1.0,98.054,M,0.000,M,0.0,*42
$GPGSA,A,3,05,13,15,23,24,,,,,,,,3.9,2.1,3.3,1*22
$GPGSV,2,1,05,05,26,123,48,13,24,058,42,15,56,045,46,23,54,322,45,1*66
