$GPRMC,042530.19,A,3622.5268780,N,12721.7147379,E,0.17,0.00,060825,0.0,E,A*3E
$GPGGA,042530.19,3622.5268780,N,12721.7147379,E,1,05,1.0,83.751,M,0.000,M,0.0,*4A
$GPGSA,A,3,05,11,13,21,30,,,,,,,,4.5,3.3,3.1,1*2B
$GPGSV,2,1,05,05,61,057,46,11,17,148,47,13,73,030,45,21,31,086,48,1*6F
$GPGSV,2,2,05,30,22,049,44,,,,,,,,,,,,,1*5F
$GPRMC,042530.29,A,3622.5271047,N,12721.7150583,E,0.15,0.00,060825,0.0,E,A*3E
$GPGGA,042530.29,3622.5271047,N,12721.7150583,E,1,05,1.0,83.061,M,0.000,M,0.0,*4C
$GPGSA,A,3,05,11,13,21,30,,,,,,,,4.5,3.3,3.1,1*2B
$GPGSV,2,1,05,05,61,057,46,11,17,148,47,13,73,030,45,21,31,086,48,1*6F
$GPGSV,2,2,05,30,22,049,44,,,,,,,,,,,,,1*5F
$GPRMC,042530.39,A,3622.5271476,N,12721.7152459,E,0.24,0.00,060825,0.0,E,A*3F
$GPGGA,042530.39,3622.5271476,N,12721.7152459,E,1,05,1.0,83.117,M,0.000,M,0.0,*4F
$GPGSA,A,3,05,11,13,21,30,,,,,,,,4.5,3.3,3.1,1*2B
$GPGSV,2,1,05,05,61,057,46,11,17,148,47,13,73,030,45,21,31,086,49,1*6E
$GPGSV,2,2,05,30,22,049,44,,,,,,,,,,,,,1*5F
$GPRMC,042530.49,A,3622.5269524,N,12721.7159447,E,0.24,0.00,060825,0.0,E,A*33
$GPGGA,042530.49,3622.5269524,N,12721.7159447,E,1,05,1.0,84.499,M,0.000,M,0.0,*47
$GPGSA,A,3,05,11,13,21,30,,,,,,,,4.5,3.3,3.1,1*2B
$GPGSV,2,1,05,05,61,057,46,11,17,148,47,13,73,030,45,21,31,086,49,1*6E
$GPGSV,2,2,05,30,22,049,44,,,,,,,,,,,,,1*5F
$GPRMC,042530.59,A,3622.5271155,N,12721.7164763,E,0.40,0.00,060825,0.0,E,A*30
$GPGGA,042530.59,3622.5271155,N,12721.7164763,E,1,05,1.0,84.891,M,0.000,M,0.0,*42
$GPGSA,A,3,05,11,13,21,30,,,,,,,,4.5,3.3,3.1,1*2B
$GPGSV,2,1,05,05,61,057,46,11,17,148,47,13,73,030,45,21,31,086,49,1*6E
$GPGSV,2,2,05,30,22,049,43,,,,,,,,,,,,,1*58
$GPRMC,042530.69,A,3622.5269941,N,12721.7164542,E,0.09,0.00,060825,0.0,E,A*3B
$GPGGA,042530.69,3622.5269941,N,12721.7164542,E,1,05,1.0,85.146,M,0.000,M,0.0,*46
$GPGSA,A,3,05,11,13,21,30,,,,,,,,4.5,3.3,3.1,1*2B
$GPGSV,2,1,05,05,61,057,46,11,17,148,47,13,73,030,45,21,31,086,49,1*6E
$GPGSV,2,2,05,30,22,049,43,,,,,,,,,,,,,1*58
$GPRMC,042530.79,A,3622.5274987,N,12721.7155359,E,0.15,0.00,060825,0.0,E,A*3F
$GPGGA,042530.79,3622.5274987,N,12721.7155359,E,1,05,1.0,83.364,M,0.000,M,0.0,*4B
$GPGSA,A,3,05,11,13,21,30,,,,,,,,4.5,3.3,3.1,1*2B
$GPGSV,2,1,05,05,61,057,46,11,17,148,47,13,73,030,45,21,31,086,49,1*6E
$GPGSV,2,2,05,30,22,049,43,,,,,,,,,,,,,1*58
$GPRMC,042530.89,A,3622.5277280,N,12721.7162695,E,0.16,0.00,060825,0.0,E,A*3D
$GPGGA,042530.89,3622.5277280,N,12721.7162695,E,1,05,1.0,83.740,M,0.000,M,0.0,*48
$GPGSA,A,3,05,11,13,21,30,,,,,,,,4.5,3.3,3.1,1*2B
$GPGSV,2,1,05,05,61,057,46,11,17,148,47,13,73,030,45,21,31,086,48,1*6F
$GPGSV,2,2,05,30,22,049,43,,,,,,,,,,,,,1*58
$GPRMC,042530.99,A,3622.5278749,N,12721.7157529,E,0.16,0.00,060825,0.0,E,A*31
$GPGGA,042530.99,3622.5278749,N,12721.7157529,E,1,05,1.0,83.011,M,0.000,M,0.0,*47
$GPGSA,A,3,05,11,13,21,30,,,,,,,,4.5,3.3,3.1,1*2B
$GPGSV,2,1,05,05,61,057,46,11,17,148,47,13,73,030,45,21,31,086,48,1*6F
$GPGSV,2,2,05,30,22,049,43,,,,,,,,,,,,,1*58
$GPRMC,042531.09,A,3622.5276697,N,12721.7161510,E,0.39,0.00,060825,0.0,E,A*37
$GPGGA,042531.09,3622.5276697,N,12721.7161510,E,1,05,1.0,83.512,M,0.000,M,0.0,*4A
$GPGSA,A,3,05,11,13,21,30,,,,,,,,4.5,3.3,3.1,1*2B
$GPGSV,2,1,05,05,61,057,47,11,17,148,47,13,73,030,45,21,31,086,48,1*6E
$GPGSV,2,2,05,30,22,049,43,,,,,,,,,,,,,1*58
$GPRMC,042531.19,A,3622.5276420,N,12721.7163746,E,0.15,0.00,060825,0.0,E,A*35
$GPGGA,042531.19,3622.5276420,N,12721.7163746,E,1,05,1.0,83.267,M,0.000,M,0.0,*43
$GPGSA,A,3,05,11,13,21,30,,,,,,,,4.5,3.3,3.1,1*2B
$GPGSV,2,1,05,05,61,057,47,11,17,148,47,13,73,030,45,21,31,086,48,1*6E
$GPGSV,2,2,05,30,22,049,42,,,,,,,,,,,,,1*59
$GPRMC,042531.29,A,3622.5277903,N,12721.7152630,E,0.68,0.00,060825,0.0,E,A*33
$GPGGA,042531.29,3622.5277903,N,12721.7152630,E,1,05,1.0,82.595,M,0.000,M,0.0,*44
$GPGSA,A,3,05,11,13,21,30,,,,,,,,4.5,3.3,3.1,1*2B
$GPGSV,2,1,05,05,61,057,46,11,17,148,47,13,73,030,45,21,31,086,48,1*6F
$GPGSV,2,2,05,30,22,049,42,,,,,,,,,,,,,1*59
$GPRMC,042531.39,A,3622.5276506,N,12721.7154016,E,0.53,0.00,060825,0.0,E,A*36
$GPGGA,042531.39,3622.5276506,N,12721.7154016,E,1,05,1.0,82.756,M,0.000,M,0.0,*44
$GPGSA,A,3,05,11,13,21,30,,,,,,,,4.5,3.3,3.1,1*2B
$GPGSV,2,1,05,05,61,057,46,11,17,148,47,13,73,030,45,21,31,086,48,1*6F
$GPGSV,2,2,05,30,22,049,42,,,,,,,,,,,,,1*59
$GPRMC,042531.49,A,3622.5274336,N,12721.7162632,E,0.21,0.00,060825,0.0,E,A*36
$GPGGA,042531.49,3622.5274336,N,12721.7162632,E,1,05,1.0,84.177,M,0.000,M,0.0,*42
$GPGSA,A,3,05,11,13,21,30,,,,,,,,4.5,3.3,3.1,1*2B
$GPGSV,2,1,05,05,61,057,46,11,17,148,47,13,73,030,45,21,31,086,48,1*6F
$GPGSV,2,2,05,30,22,049,42,,,,,,,,,,,,,1*59
$GPRMC,042531.59,A,3622.5273289,N,12721.7162319,E,0.46,0.00,060825,0.0,E,A*38
$GPGGA,042531.59,3622.5273289,N,12721.7162319,E,1,05,1.0,84.719,M,0.000,M,0.0,*43
$GPGSA,A,3,05,11,13,21,30,,,,,,,,4.5,3.3,3.1,1*2B
$GPGSV,2,1,05,05,61,057,46,11,17,148,47,13,73,030,45,21,31,086,48,1*6F
$GPGSV,2,2,05,30,22,049,42,,,,,,,,,,,,,1*59
$GPRMC,042531.69,A,3622.5274706,N,12721.7162405,E,0.34,0.00,060825,0.0,E,A*31
$GPGGA,042531.69,3622.5274706,N,12721.7162405,E,1,05,1.0,84.875,M,0.000,M,0.0,*4A
$GPGSA,A,3,05,11,13,21,30,,,,,,,,4.5,3.3,3.1,1*2B
$GPGSV,2,1,05,05,61,057,46,11,17,148,47,13,73,030,45,21,31,086,48,1*6F
$GPGSV,2,2,05,30,22,049,42,,,,,,,,,,,,,1*59
$GPRMC,042531.79,A,3622.5271551,N,12721.7168522,E,0.35,0.00,060825,0.0,E,A*3A
$GPGGA,042531.79,3622.5271551,N,12721.7168522,E,1,05,1.0,86.675,M,0.000,M,0.0,*4C
$GPGSA,A,3,05,11,13,21,30,,,,,,,,4.5,3.3,3.1,1*2B
$GPGSV,2,1,05,05,61,057,46,11,17,148,48,13,73,030,45,21,31,086,48,1*60
$GPGSV,2,2,05,30,22,049,42,,,,,,,,,,,,,1*59
$GPRMC,042531.89,A,3622.5268168,N,12721.7175655,E,0.28,0.00,060825,0.0,E,A*30
$GPGGA,042531.89,3622.5268168,N,12721.7175655,E,1,05,1.0,88.721,M,0.000,M,0.0,*44
$GPGSA,A,3,05,11,13,21,30,,,,,,,,4.5,3.3,3.1,1*2B
$GPGSV,2,1,05,05,61,057,46,11,17,148,48,13,73,030,45,21,31,086,48,1*60
$GPGSV,2,2,05,30,22,049,42,,,,,,,,,,,,,1*59
$GPRMC,042531.99,A,3622.5261432,N,12721.7186762,E,0.10,0.00,060825,0.0,E,A*30
$GPGGA,042531.99,3622.5261432,N,12721.7186762,E,1,05,1.0,91.832,M,0.000,M,0.0,*4A
$GPGSA,A,3,05,11,13,21,30,,,,,,,,4.5,3.2,3.1,1*2A
$GPGSV,2,1,05,05,61,057,46,11,17,148,47,13,73,030,45,21,31,086,48,1*6F
$GPGSV,2,2,05,30,22,049,42,,,,,,,,,,,,,1*59
$GPRMC,042532.09,A,3622.5257322,N,12721.7201418,E,0.08,0.00,060825,0.0,E,A*32
$GPGGA,042532.09,3622.5257322,N,12721.7201418,E,1,05,1.0,94.333,M,0.000,M,0.0,*4E
$GPGSA,A,3,05,11,13,21,30,,,,,,,,4.5,3.2,3.1,1*2A
$GPGSV,2,1,05,05,61,057,46,11,17,148,47,13,73,030,45,21,31,086,48,1*6F
$GPGSV,2,2,05,30,22,049,42,,,,,,,,,,,,,1*59
$GPRMC,042532.19,A,3622.5250688,N,12721.7215486,E,0.16,0.00,060825,0.0,E,A*3C
$GPGGA,042532.19,3622.5250688,N,12721.7215486,E,1,05,1.0,97.444,M,0.000,M,0.0,*4B
$GPGSA,A,3,05,11,13,21,30,,,,,,,,4.5,3.2,3.1,1*2A
$GPGSV,2,1,05,05,61,057,46,11,17,148,47,13,73,030,45,21,31,086,48,1*6F
$GPGSV,2,2,05,30,22,049,42,,,,,,,,,,,,,1*59
$GPRMC,042532.29,A,3622.5252550,N,12721.7216040,E,0.03,0.00,060825,0.0,E,A*32
$GPGGA,042532.29,3622.5252550,N,12721.7216040,E,1,05,1.0,97.386,M,0.000,M,0.0,*48
$GPGSA,A,3,05,11,13,21,30,,,,,,,,4.5,3.2,3.1,1*2A
$GPGSV,2,1,05,05,61,057,46,11,17,148,47,13,73,030,45,21,31,086,48,1*6F
$GPGSV,2,2,05,30,22,049,42,,,,,,,,,,,,,1*59
$GPRMC,042532.39,A,3622.5248548,N,12721.7225860,E,0.17,0.00,060825,0.0,E,A*3E
$GPGGA,042532.39,3622.5248548,N,12721.7225860,E,1,05,1.0,100.081,M,0.000,M,0.0,*7A
$GPGSA,A,3,05,11,13,21,30,,,,,,,,4.5,3.2,3.1,1*2A
$GPGSV,2,1,05,05,61,057,46,11,17,148,47,13,73,030,45,21,31,086,48,1*6F
$GPGSV,2,2,05,30,22,049,42,,,,,,,,,,,,,1*59
$GPRMC,042532.49,A,3622.5242940,N,12721.7229288,E,0.23,0.00,060825,0.0,E,A*30
$GPGGA,042532.49,3622.5242940,N,12721.7229288,E,1,05,1.0,102.499,M,0.000,M,0.0,*7C
$GPGSA,A,3,05,11,13,21,30,,,,,,,,4.5,3.2,3.1,1*2A
$GPGSV,2,1,05,05,61,057,46,11,17,148,47,13,73,030,45,21,31,086,48,1*6F
$GPGSV,2,2,05,30,22,049,42,,,,,,,,,,,,,1*59
$GPRMC,042532.59,A,3622.5238146,N,12721.7247150,E,0.12,0.00,060825,0.0,E,A*3E
$GPGGA,042532.59,3622.5238146,N,12721.7247150,E,1,05,1.0,105.251,M,0.000,M,0.0,*75
$GPGSA,A,3,05,11,13,21,30,,,,,,,,4.5,3.2,3.1,1*2A
$GPGSV,2,1,05,05,61,057,46,11,17,148,47,13,73,030,44,21,31,086,48,1*6E
$GPGSV,2,2,05,30,22,049,42,,,,,,,,,,,,,1*59
$GPRMC,042532.69,A,3622.5238252,N,12721.7247646,E,0.20,0.00,060825,0.0,E,A*3A
$GPGGA,042532.69,3622.5238252,N,12721.7247646,E,1,05,1.0,106.873,M,0.000,M,0.0,*79
$GPGSA,A,3,05,11,13,21,30,,,,,,,,4.5,3.2,3.1,1*2A
$GPGSV,2,1,05,05,61,057,46,11,17,148,47,13,73,030,44,21,31,086,48,1*6E
$GPGSV,2,2,05,30,22,049,42,,,,,,,,,,,,,1*59
$GPRMC,042532.79,A,3622.5237216,N,12721.7252840,E,0.48,0.00,060825,0.0,E,A*36
$GPGGA,042532.79,3622.5237216,N,12721.7252840,E,1,05,1.0,107.620,M,0.000,M,0.0,*72
$GPGSA,A,3,05,11,13,21,30,,,,,,,,4.5,3.2,3.1,1*2A
$GPGSV,2,1,05,05,61,057,46,11,17,148,47,13,73,030,45,21,31,086,48,1*6F
$GPGSV,2,2,05,30,22,049,42,,,,,,,,,,,,,1*59
$GPRMC,042532.89,A,3622.5234857,N,12721.7257330,E,0.40,0.00,060825,0.0,E,A*34
$GPGGA,042532.89,3622.5234857,N,12721.7257330,E,1,05,1.0,108.606,M,0.000,M,0.0,*73
$GPGSA,A,3,05,11,13,21,30,,,,,,,,4.5,3.2,3.1,1*2A
$GPGSV,2,1,05,05,61,057,46,11,17,148,47,13,73,030,45,21,31,086,48,1*6F
$GPGSV,2,2,05,30,22,049,42,,,,,,,,,,,,,1*59
$GPRMC,042532.99,A,3622.5232500,N,12721.7257653,E,0.38,0.00,060825,0.0,E,A*33
$GPGGA,042532.99,3622.5232500,N,12721.7257653,E,1,05,1.0,109.065,M,0.000,M,0.0,*79
$GPGSA,A,3,05,11,13,21,30,,,,,,,,4.5,3.2,3.1,1*2A
$GPGSV,2,1,05,05,61,057,46,11,17,148,47,13,73,030,45,21,31,086,48,1*6F
$GPGSV,2,2,05,30,22,049,42,,,,,,,,,,,,,1*59
$GPRMC,042533.09,A,3622.5230594,N,12721.7263723,E,0.31,0.00,060825,0.0,E,A*3C
$GPGGA,042533.09,3622.5230594,N,12721.7263723,E,1,05,1.0,109.320,M,0.000,M,0.0,*7D
$GPGSA,A,3,05,11,13,21,30,,,,,,,,4.5,3.2,3.1,1*2A
$GPGSV,2,1,05,05,61,057,46,11,17,148,47,13,73,030,45,21,31,086,48,1*6F
$GPGSV,2,2,05,30,22,049,42,,,,,,,,,,,,,1*59
$GPRMC,042533.19,A,3622.5231436,N,12721.7261025,E,0.44,0.00,060825,0.0,E,A*34
$GPGGA,042533.19,3622.5231436,N,12721.7261025,E,1,05,1.0,109.723,M,0.000,M,0.0,*70
$GPGSA,A,3,05,11,13,21,30,,,,,,,,4.5,3.2,3.1,1*2A
$GPGSV,2,1,05,05,61,057,46,11,17,148,47,13,73,030,44,21,31,086,48,1*6E
$GPGSV,2,2,05,30,22,049,42,,,,,,,,,,,,,1*59
$GPRMC,042533.29,A,3622.5229457,N,12721.7264814,E,0.20,0.00,060825,0.0,E,A*34
$GPGGA,042533.29,3622.5229457,N,12721.7264814,E,1,05,1.0,110.243,M,0.000,M,0.0,*79
$GPGSA,A,3,05,11,13,21,30,,,,,,,,4.5,3.2,3.1,1*2A
$GPGSV,2,1,05,05,61,057,46,11,17,148,47,13,73,030,44,21,31,086,48,1*6E
$GPGSV,2,2,05,30,22,049,42,,,,,,,,,,,,,1*59
$GPRMC,042533.39,A,3622.5227235,N,12721.7273804,E,0.21,0.00,060825,0.0,E,A*3F
$GPGGA,042533.39,3622.5227235,N,12721.7273804,E,1,05,1.0,112.035,M,0.000,M,0.0,*72
$GPGSA,A,3,05,11,13,21,30,,,,,,,,4.5,3.2,3.1,1*2A
$GPGSV,2,1,05,05,61,057,46,11,17,148,47,13,73,030,44,21,31,086,48,1*6E
$GPGSV,2,2,05,30,22,049,42,,,,,,,,,,,,,1*59
$GPRMC,042533.49,A,3622.5226222,N,12721.7278230,E,0.51,0.00,060825,0.0,E,A*3E
$GPGGA,042533.49,3622.5226222,N,12721.7278230,E,1,05,1.0,111.748,M,0.000,M,0.0,*7A
$GPGSA,A,3,05,11,13,21,30,,,,,,,,4.5,3.2,3.1,1*2A
$GPGSV,2,1,05,05,61,057,46,11,17,148,47,13,73,030,44,21,31,086,48,1*6E
$GPGSV,2,2,05,30,22,049,42,,,,,,,,,,,,,1*59
$GPRMC,042533.59,A,3622.5228279,N,12721.7278650,E,0.07,0.00,060825,0.0,E,A*3E
$GPGGA,042533.59,3622.5228279,N,12721.7278650,E,1,05,1.0,111.279,M,0.000,M,0.0,*7E
$GPGSA,A,3,05,11,13,21,30,,,,,,,,4.5,3.2,3.1,1*2A
$GPGSV,2,1,05,05,61,057,46,11,17,148,47,13,73,030,44,21,31,086,48,1*6E
$GPGSV,2,2,05,30,22,049,42,,,,,,,,,,,,,1*59
$GPRMC,042533.69,A,3622.5225387,N,12721.7277447,E,0.18,0.00,060825,0.0,E,A*35
$GPGGA,042533.69,3622.5225387,N,12721.7277447,E,1,05,1.0,111.568,M,0.000,M,0.0,*7C
$GPGSA,A,3,05,11,13,21,30,,,,,,,,4.5,3.2,3.1,1*2A
$GPGSV,2,1,05,05,61,057,46,11,17,148,47,13,73,030,44,21,31,086,48,1*6E
$GPGSV,2,2,05,30,22,049,42,,,,,,,,,,,,,1*59
$GPRMC,042533.79,A,3622.5222842,N,12721.7279725,E,0.48,0.00,060825,0.0,E,A*3D
$GPGGA,042533.79,3622.5222842,N,12721.7279725,E,1,05,1.0,112.514,M,0.000,M,0.0,*79
$GPGSA,A,3,05,11,13,21,30,,,,,,,,4.5,3.2,3.1,1*2A
$GPGSV,2,1,05,05,61,057,46,11,17,148,47,13,73,030,44,21,31,086,48,1*6E
$GPGSV,2,2,05,30,22,049,42,,,,,,,,,,,,,1*59
$GPRMC,042533.89,A,3622.5221970,N,12721.7283512,E,0.29,0.00,060825,0.0,E,A*35
$GPGGA,042533.89,3622.5221970,N,12721.7283512,E,1,05,1.0,112.962,M,0.000,M,0.0,*7B
$GPGSA,A,3,05,11,13,21,30,,,,,,,,4.5,3.2,3.1,1*2A
$GPGSV,2,1,05,05,61,057,46,11,17,148,47,13,73,030,44,21,31,086,48,1*6E
$GPGSV,2,2,05,30,22,049,42,,,,,,,,,,,,,1*59
$GPRMC,042533.99,A,3622.5224201,N,12721.7290279,E,0.38,0.00,060825,0.0,E,A*34
$GPGGA,042533.99,3622.5224201,N,12721.7290279,E,1,05,1.0,112.758,M,0.000,M,0.0,*7D
$GPGSA,A,3,05,11,13,21,30,,,,,,,,4.5,3.2,3.1,1*2A
$GPGSV,2,1,05,05,61,057,46,11,17,148,47,13,73,030,44,21,31,086,48,1*6E
$GPGSV,2,2,05,30,22,049,42,,,,,,,,,,,,,1*59
$GPRMC,042534.09,A,3622.5224530,N,12721.7296730,E,0.20,0.00,060825,0.0,E,A*38
$GPGGA,042534.09,3622.5224530,N,12721.7296730,E,1,05,1.0,113.425,M,0.000,M,0.0,*70
$GPGSA,A,3,05,11,13,21,30,,,,,,,,4.5,3.2,3.1,1*2A
$GPGSV,2,1,05,05,61,057,46,11,17,148,47,13,73,030,44,21,31,086,48,1*6E
$GPGSV,2,2,05,30,22,049,42,,,,,,,,,,,,,1*59
$GPRMC,042534.19,A,3622.5223823,N,12721.7297501,E,0.18,0.00,060825,0.0,E,A*3B
$GPGGA,042534.19,3622.5223823,N,12721.7297501,E,1,05,1.0,113.416,M,0.000,M,0.0,*78
$GPGSA,A,3,05,11,13,21,30,,,,,,,,4.5,3.2,3.1,1*2A
$GPGSV,2,1,05,05,61,057,46,11,17,148,47,13,73,030,44,21,31,086,48,1*6E
$GPGSV,2,2,05,30,22,049,42,,,,,,,,,,,,,1*59
$GPRMC,042534.29,A,3622.5221831,N,12721.7297315,E,0.20,0.00,060825,0.0,E,A*31
$GPGGA,042534.29,3622.5221831,N,12721.7297315,E,1,05,1.0,113.960,M,0.000,M,0.0,*75
$GPGSA,A,3,05,11,13,21,30,,,,,,,,4.5,3.2,3.1,1*2A
$GPGSV,2,1,05,05,61,057,46,11,17,148,47,13,73,030,44,21,31,086,48,1*6E
$GPGSV,2,2,05,30,22,049,42,,,,,,,,,,,,,1*59
$GPRMC,042534.39,A,3622.5224003,N,12721.7289454,E,0.31,0.00,060825,0.0,E,A*31
$GPGGA,042534.39,3622.5224003,N,12721.7289454,E,1,05,1.0,112.691,M,0.000,M,0.0,*75
$GPGSA,A,3,05,11,13,21,30,,,,,,,,4.5,3.2,3.1,1*2A
$GPGSV,2,1,05,05,61,057,46,11,17,148,47,13,73,030,44,21,31,086,48,1*6E
$GPGSV,2,2,05,30,22,049,42,,,,,,,,,,,,,1*59
$GPRMC,042534.49,A,3622.5220839,N,12721.7289735,E,0.47,0.00,060825,0.0,E,A*36
$GPGGA,042534.49,3622.5220839,N,12721.7289735,E,1,05,1.0,112.834,M,0.000,M,0.0,*72
$GPGSA,A,3,05,11,13,21,30,,,,,,,,4.5,3.2,3.1,1*2A
$GPGSV,2,1,05,05,61,057,46,11,17,148,47,13,73,030,44,21,31,086,48,1*6E
$GPGSV,2,2,05,30,22,049,42,,,,,,,,,,,,,1*59
$GPRMC,042534.59,A,3622.5221296,N,12721.7289947,E,0.36,0.00,060825,0.0,E,A*34
$GPGGA,042534.59,3622.5221296,N,12721.7289947,E,1,05,1.0,113.518,M,0.000,M,0.0,*74
$GPGSA,A,3,05,11,13,21,30,,,,,,,,4.5,3.2,3.1,1*2A
$GPGSV,2,1,05,05,61,057,46,11,17,148,47,13,73,030,44,21,31,086,48,1*6E
$GPGSV,2,2,05,30,22,049,42,,,,,,,,,,,,,1*59
$GPRMC,042534.69,A,3622.5222589,N,12721.7292899,E,0.67,0.00,060825,0.0,E,A*31
$GPGGA,042534.69,3622.5222589,N,12721.7292899,E,1,05,1.0,113.386,M,0.000,M,0.0,*74
$GPGSA,A,3,05,11,13,21,30,,,,,,,,4.5,3.2,3.1,1*2A
$GPGSV,2,1,05,05,61,057,46,11,17,148,47,13,73,030,44,21,31,086,48,1*6E
$GPGSV,2,2,05,30,22,049,42,,,,,,,,,,,,,1*59
$GPRMC,042534.79,A,3622.5226353,N,12721.7279659,E,0.16,0.00,060825,0.0,E,A*34
$GPGGA,042534.79,3622.5226353,N,12721.7279659,E,1,05,1.0,111.536,M,0.000,M,0.0,*78
$GPGSA,A,3,05,11,13,21,30,,,,,,,,4.5,3.2,3.1,1*2A
$GPGSV,2,1,05,05,61,057,45,11,17,148,46,13,73,030,44,21,31,086,48,1*6C
$GPGSV,2,2,05,30,22,049,42,,,,,,,,,,,,,1*59
$GPRMC,042534.89,A,3622.5230231,N,12721.7267429,E,0.62,0.00,060825,0.0,E,A*30
$GPGGA,042534.89,3622.5230231,N,12721.7267429,E,1,05,1.0,109.492,M,0.000,M,0.0,*79
$GPGSA,A,3,05,11,13,21,30,,,,,,,,4.5,3.2,3.1,1*2A
$GPGSV,2,1,05,05,61,057,46,11,17,148,47,13,73,030,44,21,31,086,48,1*6E
$GPGSV,2,2,05,30,22,049,42,,,,,,,,,,,,,1*59
$GPRMC,042534.99,A,3622.5233394,N,12721.7250869,E,0.69,0.00,060825,0.0,E,A*3B
$GPGGA,042534.99,3622.5233394,N,12721.7250869,E,1,05,1.0,107.333,M,0.000,M,0.0,*7B
$GPGSA,A,3,05,11,13,21,30,,,,,,,,4.5,3.2,3.1,1*2A
$GPGSV,2,1,05,05,61,057,45,11,17,148,46,13,73,030,44,21,31,086,48,1*6C
$GPGSV,2,2,05,30,22,049,42,,,,,,,,,,,,,1*59
$GPRMC,042535.09,A,3622.5235125,N,12721.7248635,E,0.20,0.00,060825,0.0,E,A*3E
$GPGGA,042535.09,3622.5235125,N,12721.7248635,E,1,05,1.0,106.437,M,0.000,M,0.0,*71
$GPGSA,A,3,05,11,13,21,30,,,,,,,,4.5,3.2,3.1,1*2A
$GPGSV,2,1,05,05,61,057,45,11,17,148,46,13,73,030,44,21,31,086,48,1*6C
$GPGSV,2,2,05,30,22,049,42,,,,,,,,,,,,,1*59
$GPRMC,042535.19,A,3622.5236738,N,12721.7244732,E,0.13,0.00,060825,0.0,E,A*3C
$GPGGA,042535.19,3622.5236738,N,12721.7244732,E,1,05,1.0,106.319,M,0.000,M,0.0,*78
$GPGSA,A,3,05,11,13,21,30,,,,,,,,4.5,3.2,3.1,1*2A
$GPGSV,2,1,05,05,61,057,45,11,17,148,46,13,72,030,44,21,31,086,48,1*6D
$GPGSV,2,2,05,30,22,049,42,,,,,,,,,,,,,1*59
$GPRMC,042535.29,A,3622.5238550,N,12721.7241395,E,0.13,0.00,060825,0.0,E,A*31
$GPGGA,042535.29,3622.5238550,N,12721.7241395,E,1,05,1.0,105.774,M,0.000,M,0.0,*79
$GPGSA,A,3,05,11,13,21,30,,,,,,,,4.5,3.2,3.1,1*2A
$GPGSV,2,1,05,05,61,057,45,11,17,148,46,13,72,030,44,21,31,086,48,1*6D
$GPGSV,2,2,05,30,22,049,42,,,,,,,,,,,,,1*59
$GPRMC,042535.39,A,3622.5241400,N,12721.7230452,E,0.15,0.00,060825,0.0,E,A*36
$GPGGA,042535.39,3622.5241400,N,12721.7230452,E,1,05,1.0,104.012,M,0.000,M,0.0,*7E
$GPGSA,A,3,05,11,13,21,30,,,,,,,,4.5,3.2,3.1,1*2A
$GPGSV,2,1,05,05,61,057,45,11,17,148,47,13,72,030,44,21,31,086,48,1*6C
$GPGSV,2,2,05,30,22,049,42,,,,,,,,,,,,,1*59
$GPRMC,042535.49,A,3622.5241605,N,12721.7219077,E,0.12,0.00,060825,0.0,E,A*39
$GPGGA,042535.49,3622.5241605,N,12721.7219077,E,1,05,1.0,102.816,M,0.000,M,0.0,*7C
$GPGSA,A,3,05,11,13,21,30,,,,,,,,4.5,3.2,3.1,1*2A
$GPGSV,2,1,05,05,61,057,45,11,17,148,46,13,72,030,44,21,31,086,48,1*6D
$GPGSV,2,2,05,30,22,049,42,,,,,,,,,,,,,1*59
$GPRMC,042535.59,A,3622.5242400,N,12721.7207191,E,0.21,0.00,060825,0.0,E,A*3A
$GPGGA,042535.59,3622.5242400,N,12721.7207191,E,1,05,1.0,101.584,M,0.000,M,0.0,*7A
$GPGSA,A,3,05,11,13,21,30,,,,,,,,4.5,3.2,3.1,1*2A
$GPGSV,2,1,05,05,61,057,45,11,17,148,46,13,72,030,44,21,31,086,48,1*6D
$GPGSV,2,2,05,30,22,049,42,,,,,,,,,,,,,1*59
$GPRMC,042535.69,A,3622.5242631,N,12721.7202541,E,0.08,0.00,060825,0.0,E,A*3E
$GPGGA,042535.69,3622.5242631,N,12721.7202541,E,1,05,1.0,101.861,M,0.000,M,0.0,*73
$GPGSA,A,3,05,11,13,21,30,,,,,,,,4.5,3.2,3.1,1*2A
$GPGSV,2,1,05,05,61,057,45,11,17,148,46,13,72,030,44,21,31,086,48,1*6D
$GPGSV,2,2,05,30,22,049,42,,,,,,,,,,,,,1*59
$GPRMC,042535.79,A,3622.5246395,N,12721.7188617,E,0.68,0.00,060825,0.0,E,A*37
$GPGGA,042535.79,3622.5246395,N,12721.7188617,E,1,05,1.0,99.521,M,0.000,M,0.0,*45
$GPGSA,A,3,05,11,13,21,30,,,,,,,,4.5,3.2,3.1,1*2A
$GPGSV,2,1,05,05,61,057,45,11,17,148,46,13,72,030,44,21,31,086,48,1*6D
$GPGSV,2,2,05,30,22,049,42,,,,,,,,,,,,,1*59
$GPRMC,042535.89,A,3622.5248693,N,12721.7189165,E,0.37,0.00,060825,0.0,E,A*3C
$GPGGA,042535.89,3622.5248693,N,12721.7189165,E,1,05,1.0,98.817,M,0.000,M,0.0,*4D
$GPGSA,A,3,05,11,13,21,30,,,,,,,,4.5,3.2,3.1,1*2A
$GPGSV,2,1,05,05,61,057,45,11,17,148,46,13,72,030,44,21,31,086,48,1*6D
$GPGSV,2,2,05,30,22,049,42,,,,,,,,,,,,,1*59
$GPRMC,042535.99,A,3622.5248914,N,12721.7179910,E,0.12,0.00,060825,0.0,E,A*3F
$GPGGA,042535.99,3622.5248914,N,12721.7179910,E,1,05,1.0,97.646,M,0.000,M,0.0,*4C
$GPGSA,A,3,05,11,13,21,30,,,,,,,,4.5,3.2,3.1,1*2A
$GPGSV,2,1,05,05,61,057,46,11,17,148,47,13,72,030,44,21,31,086,48,1*6F
$GPGSV,2,2,05,30,22,049,43,,,,,,,,,,,,,1*58
$GPRMC,042536.09,A,3622.5249999,N,12721.7173661,E,0.45,0.00,060825,0.0,E,A*30
$GPGGA,042536.09,3622.5249999,N,12721.7173661,E,1,05,1.0,96.864,M,0.000,M,0.0,*4E
$GPGSA,A,3,05,11,13,21,30,,,,,,,,4.5,3.2,3.1,1*2A
$GPGSV,2,1,05,05,61,057,46,11,17,148,46,13,72,030,44,21,31,086,48,1*6E
$GPGSV,2,2,05,30,22,049,43,,,,,,,,,,,,,1*58
$GPRMC,042536.19,A,3622.5248225,N,12721.7175866,E,0.25,0.00,060825,0.0,E,A*35
$GPGGA,042536.19,3622.5248225,N,12721.7175866,E,1,05,1.0,97.688,M,0.000,M,0.0,*40
$GPGSA,A,3,05,11,13,21,30,,,,,,,,4.5,3.2,3.1,1*2A
$GPGSV,2,1,05,05,61,057,46,11,17,148,46,13,72,030,45,21,31,086,48,1*6F
$GPGSV,2,2,05,30,22,049,42,,,,,,,,,,,,,1*59
$GPRMC,042536.29,A,3622.5249058,N,12721.7171016,E,0.24,0.00,060825,0.0,E,A*35
$GPGGA,042536.29,3622.5249058,N,12721.7171016,E,1,05,1.0,96.441,M,0.000,M,0.0,*47
$GPGSA,A,3,05,11,13,21,30,,,,,,,,4.5,3.2,3.1,1*2A
$GPGSV,2,1,05,05,61,057,46,11,17,148,47,13,72,030,45,21,31,086,48,1*6E
$GPGSV,2,2,05,30,22,049,42,,,,,,,,,,,,,1*59
$GPRMC,042536.39,A,3622.5250540,N,12721.7165785,E,0.06,0.00,060825,0.0,E,A*38
$GPGGA,042536.39,3622.5250540,N,12721.7165785,E,1,05,1.0,95.312,M,0.000,M,0.0,*48
$GPGSA,A,3,05,11,13,21,30,,,,,,,,4.5,3.2,3.1,1*2A
$GPGSV,2,1,05,05,61,057,46,11,17,148,47,13,72,030,44,21,31,086,48,1*6F
$GPGSV,2,2,05,30,22,049,42,,,,,,,,,,,,,1*59
$GPRMC,042536.49,A,3622.5250207,N,12721.7159496,E,0.22,0.00,060825,0.0,E,A*33
$GPGGA,042536.49,3622.5250207,N,12721.7159496,E,1,05,1.0,95.202,M,0.000,M,0.0,*45
$GPGSA,A,3,05,11,13,21,30,,,,,,,,4.5,3.2,3.1,1*2A
$GPGSV,2,1,05,05,61,057,46,11,17,148,47,13,72,030,45,21,31,086,48,1*6E
$GPGSV,2,2,05,30,22,049,42,,,,,,,,,,,,,1*59
$GPRMC,042536.59,A,3622.5252846,N,12721.7151552,E,0.34,0.00,060825,0.0,E,A*39
$GPGGA,042536.59,3622.5252846,N,12721.7151552,E,1,05,1.0,93.779,M,0.000,M,0.0,*47
$GPGSA,A,3,05,11,13,21,30,,,,,,,,4.5,3.2,3.1,1*2A
$GPGSV,2,1,05,05,61,057,46,11,17,148,47,13,72,030,45,21,31,086,48,1*6E
$GPGSV,2,2,05,30,22,049,42,,,,,,,,,,,,,1*59
$GPRMC,042536.69,A,3622.5259420,N,12721.7132131,E,0.32,0.00,060825,0.0,E,A*3F
$GPGGA,042536.69,3622.5259420,N,12721.7132131,E,1,05,1.0,91.028,M,0.000,M,0.0,*46
$GPGSA,A,3,05,11,13,21,30,,,,,,,,4.5,3.2,3.1,1*2A
$GPGSV,2,1,05,05,61,057,46,11,17,148,47,13,72,030,45,21,31,086,48,1*6E
$GPGSV,2,2,05,30,22,049,42,,,,,,,,,,,,,1*59
$GPRMC,042536.79,A,3622.5260738,N,12721.7135049,E,0.40,0.00,060825,0.0,E,A*32
$GPGGA,042536.79,3622.5260738,N,12721.7135049,E,1,05,1.0,91.285,M,0.000,M,0.0,*4B
$GPGSA,A,3,05,11,13,21,30,,,,,,,,4.5,3.2,3.1,1*2A
$GPGSV,2,1,05,05,61,057,46,11,17,148,47,13,72,030,45,21,31,086,48,1*6E
$GPGSV,2,2,05,30,22,049,42,,,,,,,,,,,,,1*59
$GPRMC,042536.89,A,3622.5261232,N,12721.7127562,E,0.32,0.00,060825,0.0,E,A*39
$GPGGA,042536.89,3622.5261232,N,12721.7127562,E,1,05,1.0,90.236,M,0.000,M,0.0,*4C
$GPGSA,A,3,05,11,13,21,30,,,,,,,,4.5,3.2,3.1,1*2A
$GPGSV,2,1,05,05,61,057,46,11,17,148,47,13,72,030,45,21,31,086,48,1*6E
$GPGSV,2,2,05,30,22,049,42,,,,,,,,,,,,,1*59
$GPRMC,042536.99,A,3622.5263571,N,12721.7122671,E,0.13,0.00,060825,0.0,E,A*3D
$GPGGA,042536.99,3622.5263571,N,12721.7122671,E,1,05,1.0,88.924,M,0.000,M,0.0,*4A
$GPGSA,A,3,05,11,13,21,30,,,,,,,,4.5,3.2,3.1,1*2A
$GPGSV,2,1,05,05,61,057,46,11,17,148,47,13,72,030,45,21,31,086,48,1*6E
$GPGSV,2,2,05,30,22,049,42,,,,,,,,,,,,,1*59
$GPRMC,042537.09,A,3622.5262417,N,12721.7123870,E,0.11,0.00,060825,0.0,E,A*39
$GPGGA,042537.09,3622.5262417,N,12721.7123870,E,1,05,1.0,89.126,M,0.000,M,0.0,*47
$GPGSA,A,3,05,11,13,21,30,,,,,,,,4.5,3.2,3.1,1*2A
$GPGSV,2,1,05,05,61,057,46,11,17,148,47,13,72,030,45,21,31,086,48,1*6E
$GPGSV,2,2,05,30,22,049,42,,,,,,,,,,,,,1*59
$GPRMC,042537.19,A,3622.5262041,N,12721.7126646,E,0.05,0.00,060825,0.0,E,A*34
$GPGGA,042537.19,3622.5262041,N,12721.7126646,E,1,05,1.0,89.168,M,0.000,M,0.0,*45
$GPGSA,A,3,05,11,13,21,30,,,,,,,,4.5,3.2,3.1,1*2A
$GPGSV,2,1,05,05,61,057,46,11,17,148,47,13,72,030,45,21,31,086,48,1*6E
$GPGSV,2,2,05,30,22,049,42,,,,,,,,,,,,,1*59
$GPRMC,042537.29,A,3622.5260273,N,12721.7133110,E,0.37,0.00,060825,0.0,E,A*37
$GPGGA,042537.29,3622.5260273,N,12721.7133110,E,1,05,1.0,90.076,M,0.000,M,0.0,*41
$GPGSA,A,3,05,11,13,21,30,,,,,,,,4.5,3.2,3.1,1*2A
$GPGSV,2,1,05,05,61,057,46,11,17,148,47,13,72,030,45,21,31,086,48,1*6E
$GPGSV,2,2,05,30,22,049,42,,,,,,,,,,,,,1*59
$GPRMC,042537.39,A,3622.5260954,N,12721.7131740,E,0.10,0.00,060825,0.0,E,A*3C
$GPGGA,042537.39,3622.5260954,N,12721.7131740,E,1,05,1.0,89.381,M,0.000,M,0.0,*4C
$GPGSA,A,3,05,11,13,21,30,,,,,,,,4.5,3.2,3.1,1*2A
$GPGSV,2,1,05,05,61,057,46,11,17,148,47,13,72,030,44,21,31,086,48,1*6F
$GPGSV,2,2,05,30,22,049,42,,,,,,,,,,,,,1*59
$GPRMC,042537.49,A,3622.5259602,N,12721.7132001,E,0.70,0.00,060825,0.0,E,A*3A
$GPGGA,042537.49,3622.5259602,N,12721.7132001,E,1,05,1.0,90.318,M,0.000,M,0.0,*44
$GPGSA,A,3,05,11,13,21,30,,,,,,,,4.5,3.2,3.1,1*2A
$GPGSV,2,1,05,05,61,057,46,11,17,148,47,13,72,030,45,21,31,086,48,1*6E
$GPGSV,2,2,05,30,22,049,42,,,,,,,,,,,,,1*59
$GPRMC,042537.59,A,3622.5257307,N,12721.7130221,E,0.32,0.00,060825,0.0,E,A*31
$GPGGA,042537.59,3622.5257307,N,12721.7130221,E,1,05,1.0,90.946,M,0.000,M,0.0,*48
$GPGSA,A,3,05,11,13,21,30,,,,,,,,4.5,3.2,3.1,1*2A
$GPGSV,2,1,05,05,61,057,46,11,17,148,47,13,72,030,44,21,31,086,48,1*6F
$GPGSV,2,2,05,30,22,049,42,,,,,,,,,,,,,1*59
$GPRMC,042537.69,A,3622.5257241,N,12721.7130609,E,0.30,0.00,060825,0.0,E,A*3D
$GPGGA,042537.69,3622.5257241,N,12721.7130609,E,1,05,1.0,91.344,M,0.000,M,0.0,*4F
$GPGSA,A,3,05,11,13,21,30,,,,,,,,4.5,3.2,3.1,1*2A
$GPGSV,2,1,05,05,61,057,46,11,17,148,47,13,72,030,45,21,31,086,48,1*6E
$GPGSV,2,2,05,30,22,049,42,,,,,,,,,,,,,1*59
$GPRMC,042537.79,A,3622.5256112,N,12721.7131504,E,0.26,0.00,060825,0.0,E,A*30
$GPGGA,042537.79,3622.5256112,N,12721.7131504,E,1,05,1.0,92.128,M,0.000,M,0.0,*4E
$GPGSA,A,3,05,11,13,21,30,,,,,,,,4.5,3.2,3.1,1*2A
$GPGSV,2,1,05,05,61,057,46,11,17,148,47,13,72,030,45,21,31,086,48,1*6E
$GPGSV,2,2,05,30,22,049,42,,,,,,,,,,,,,1*59
$GPRMC,042537.89,A,3622.5255579,N,12721.7124293,E,0.23,0.00,060825,0.0,E,A*3D
$GPGGA,042537.89,3622.5255579,N,12721.7124293,E,1,05,1.0,92.003,M,0.000,M,0.0,*4E
$GPGSA,A,3,05,11,13,21,30,,,,,,,,4.5,3.2,3.1,1*2A
$GPGSV,2,1,05,05,61,057,46,11,17,148,47,13,72,030,44,21,31,086,48,1*6F
$GPGSV,2,2,05,30,22,049,42,,,,,,,,,,,,,1*59
$GPRMC,042537.99,A,3622.5255561,N,12721.7117337,E,0.33,0.00,060825,0.0,E,A*3B
$GPGGA,042537.99,3622.5255561,N,12721.7117337,E,1,05,1.0,91.728,M,0.000,M,0.0,*44
$GPGSA,A,3,05,11,13,21,30,,,,,,,,4.5,3.2,3.1,1*2A
$GPGSV,2,1,05,05,61,057,46,11,17,148,47,13,72,030,44,21,31,086,48,1*6F
$GPGSV,2,2,05,30,22,049,42,,,,,,,,,,,,,1*59
$GPRMC,042538.09,A,3622.5254036,N,12721.7107417,E,0.21,0.00,060825,0.0,E,A*3C
$GPGGA,042538.09,3622.5254036,N,12721.7107417,E,1,05,1.0,91.612,M,0.000,M,0.0,*48
$GPGSA,A,3,05,11,13,21,30,,,,,,,,4.5,3.2,3.1,1*2A
$GPGSV,2,1,05,05,61,057,46,11,17,148,47,13,72,030,44,21,31,086,48,1*6F
$GPGSV,2,2,05,30,22,049,42,,,,,,,,,,,,,1*59
$GPRMC,042538.19,A,3622.5250324,N,12721.7111560,E,0.20,0.00,060825,0.0,E,A*3E
$GPGGA,042538.19,3622.5250324,N,12721.7111560,E,1,05,1.0,94.341,M,0.000,M,0.0,*4D
$GPGSA,A,3,05,11,13,21,30,,,,,,,,4.5,3.2,3.1,1*2A
$GPGSV,2,1,05,05,61,057,46,11,17,148,47,13,72,030,44,21,31,086,48,1*6F
$GPGSV,2,2,05,30,22,049,42,,,,,,,,,,,,,1*59
$GPRMC,042538.29,A,3622.5250593,N,12721.7108736,E,0.07,0.00,060825,0.0,E,A*3B
$GPGGA,042538.29,3622.5250593,N,12721.7108736,E,1,05,1.0,94.062,M,0.000,M,0.0,*4F
$GPGSA,A,3,05,11,13,21,30,,,,,,,,4.5,3.2,3.1,1*2A
$GPGSV,2,1,05,05,61,057,46,11,17,148,47,13,72,030,44,21,31,086,48,1*6F
$GPGSV,2,2,05,30,22,049,42,,,,,,,,,,,,,1*59
$GPRMC,042538.39,A,3622.5253622,N,12721.7109922,E,0.20,0.00,060825,0.0,E,A*3F
$GPGGA,042538.39,3622.5253622,N,12721.7109922,E,1,05,1.0,93.567,M,0.000,M,0.0,*49
$GPGSA,A,3,05,11,13,21,30,,,,,,,,4.5,3.2,3.1,1*2A
$GPGSV,2,1,05,05,61,057,46,11,17,148,47,13,72,030,44,21,31,086,48,1*6F
$GPGSV,2,2,05,30,22,049,42,,,,,,,,,,,,,1*59
$GPRMC,042538.49,A,3622.5250866,N,12721.7120129,E,0.45,0.00,060825,0.0,E,A*3E
$GPGGA,042538.49,3622.5250866,N,12721.7120129,E,1,05,1.0,94.545,M,0.000,M,0.0,*4C
$GPGSA,A,3,05,11,13,21,30,,,,,,,,4.5,3.2,3.1,1*2A
$GPGSV,2,1,05,05,61,057,46,11,17,148,47,13,72,030,44,21,31,086,48,1*6F
$GPGSV,2,2,05,30,22,049,42,,,,,,,,,,,,,1*59
$GPRMC,042538.59,A,3622.5247375,N,12721.7129584,E,0.13,0.00,060825,0.0,E,A*39
$GPGGA,042538.59,3622.5247375,N,12721.7129584,E,1,05,1.0,95.238,M,0.000,M,0.0,*44
$GPGSA,A,3,05,11,13,21,30,,,,,,,,4.5,3.2,3.1,1*2A
$GPGSV,2,1,05,05,61,057,46,11,17,148,47,13,72,030,44,21,31,086,48,1*6F
$GPGSV,2,2,05,30,22,049,42,,,,,,,,,,,,,1*59
$GPRMC,042538.69,A,3622.5248254,N,12721.7123675,E,0.39,0.00,060825,0.0,E,A*38
$GPGGA,042538.69,3622.5248254,N,12721.7123675,E,1,05,1.0,94.778,M,0.000,M,0.0,*4D
$GPGSA,A,3,05,11,13,21,30,,,,,,,,4.5,3.2,3.1,1*2A
$GPGSV,2,1,05,05,61,057,46,11,17,148,47,13,72,030,44,21,31,086,48,1*6F
$GPGSV,2,2,05,30,22,049,42,,,,,,,,,,,,,1*59
$GPRMC,042538.79,A,3622.5245871,N,12721.7132667,E,0.34,0.00,060825,0.0,E,A*37
$GPGGA,042538.79,3622.5245871,N,12721.7132667,E,1,05,1.0,95.379,M,0.000,M,0.0,*4B
$GPGSA,A,3,05,11,13,21,30,,,,,,,,4.5,3.2,3.1,1*2A
$GPGSV,2,1,05,05,61,057,46,11,17,148,47,13,72,030,44,21,31,086,48,1*6F
$GPGSV,2,2,05,30,22,049,42,,,,,,,,,,,,,1*59
$GPRMC,042538.89,A,3622.5245011,N,12721.7136148,E,0.06,0.00,060825,0.0,E,A*39
$GPGGA,042538.89,3622.5245011,N,12721.7136148,E,1,05,1.0,96.156,M,0.000,M,0.0,*48
$GPGSA,A,3,05,11,13,21,30,,,,,,,,4.5,3.2,3.1,1*2A
$GPGSV,2,1,05,05,61,057,46,11,17,148,47,13,72,030,44,21,31,086,48,1*6F
$GPGSV,2,2,05,30,22,049,42,,,,,,,,,,,,,1*59
$GPRMC,042538.99,A,3622.5246483,N,12721.7136671,E,0.45,0.00,060825,0.0,E,A*3E
$GPGGA,042538.99,3622.5246483,N,12721.7136671,E,1,05,1.0,95.762,M,0.000,M,0.0,*4A
$GPGSA,A,3,05,11,13,21,30,,,,,,,,4.5,3.2,3.1,1*2A
$GPGSV,2,1,05,05,61,057,46,11,17,148,47,13,72,030,44,21,31,086,48,1*6F
$GPGSV,2,2,05,30,22,049,42,,,,,,,,,,,,,1*59
$GPRMC,042539.09,A,3622.5244886,N,12721.7145415,E,0.34,0.00,060825,0.0,E,A*3F
$GPGGA,042539.09,3622.5244886,N,12721.7145415,E,1,05,1.0,96.346,M,0.000,M,0.0,*4C
$GPGSA,A,3,05,11,13,21,30,,,,,,,,4.5,3.2,3.1,1*2A
$GPGSV,2,1,05,05,61,057,46,11,17,148,47,13,72,030,44,21,31,086,48,1*6F
$GPGSV,2,2,05,30,22,049,42,,,,,,,,,,,,,1*59
$GPRMC,042539.19,A,3622.5244417,N,12721.7150350,E,0.26,0.00,060825,0.0,E,A*3B
$GPGGA,042539.19,3622.5244417,N,12721.7150350,E,1,05,1.0,96.668,M,0.000,M,0.0,*42
$GPGSA,A,3,05,11,13,21,30,,,,,,,,4.5,3.2,3.1,1*2A
$GPGSV,2,1,05,05,61,057,46,11,17,148,47,13,72,030,44,21,31,086,48,1*6F
$GPGSV,2,2,05,30,22,049,42,,,,,,,,,,,,,1*59
$GPRMC,042539.29,A,3622.5245944,N,12721.7152213,E,0.16,0.00,060825,0.0,E,A*35
$GPGGA,042539.29,3622.5245944,N,12721.7152213,E,1,05,1.0,96.490,M,0.000,M,0.0,*4A
$GPGSA,A,3,05,11,13,21,30,,,,,,,,4.5,3.2,3.1,1*2A
$GPGSV,2,1,05,05,61,057,46,11,17,148,47,13,72,030,44,21,31,086,48,1*6F
$GPGSV,2,2,05,30,22,049,42,,,,,,,,,,,,,1*59
$GPRMC,042539.39,A,3622.5248335,N,12721.7151903,E,0.12,0.00,060825,0.0,E,A*38
$GPGGA,042539.39,3622.5248335,N,12721.7151903,E,1,05,1.0,96.296,M,0.000,M,0.0,*43
$GPGSA,A,3,05,11,13,21,30,,,,,,,,4.5,3.2,3.1,1*2A
$GPGSV,2,1,05,05,61,057,46,11,17,148,47,13,72,030,44,21,31,086,48,1*6F
$GPGSV,2,2,05,30,22,049,42,,,,,,,,,,,,,1*59
$GPRMC,042539.49,A,3622.5250372,N,12721.7147098,E,0.19,0.00,060825,0.0,E,A*32
$GPGGA,042539.49,3622.5250372,N,12721.7147098,E,1,05,1.0,94.778,M,0.000,M,0.0,*45
$GPGSA,A,3,05,11,13,21,30,,,,,,,,4.5,3.2,3.1,1*2A
$GPGSV,2,1,05,05,61,057,46,11,17,148,47,13,72,030,44,21,31,086,48,1*6F
$GPGSV,2,2,05,30,22,049,42,,,,,,,,,,,,,1*59
$GPRMC,042539.59,A,3622.5251691,N,12721.7138608,E,0.13,0.00,060825,0.0,E,A*37
$GPGGA,042539.59,3622.5251691,N,12721.7138608,E,1,05,1.0,93.719,M,0.000,M,0.0,*4A
$GPGSA,A,3,05,11,13,21,30,,,,,,,,4.5,3.2,3.1,1*2A
$GPGSV,2,1,05,05,61,057,46,11,17,148,47,13,72,030,44,21,31,086,48,1*6F
$GPGSV,2,2,05,30,22,049,42,,,,,,,,,,,,,1*59
$GPRMC,042539.69,A,3622.5250981,N,12721.7142973,E,0.15,0.00,060825,0.0,E,A*33
$GPGGA,042539.69,3622.5250981,N,12721.7142973,E,1,05,1.0,94.682,M,0.000,M,0.0,*4C
$GPGSA,A,3,05,11,13,21,30,,,,,,,,4.5,3.2,3.1,1*2A
$GPGSV,2,1,05,05,61,057,46,11,17,148,47,13,72,030,44,21,31,086,48,1*6F
$GPGSV,2,2,05,30,22,049,42,,,,,,,,,,,,,1*59
$GPRMC,042539.79,A,3622.5251141,N,12721.7139076,E,0.43,0.00,060825,0.0,E,A*34
$GPGGA,042539.79,3622.5251141,N,12721.7139076,E,1,05,1.0,95.109,M,0.000,M,0.0,*4D
$GPGSA,A,3,05,11,13,21,30,,,,,,,,4.5,3.2,3.1,1*2A
$GPGSV,2,1,05,05,61,057,46,11,17,148,47,13,72,030,44,21,31,086,48,1*6F
$GPGSV,2,2,05,30,22,049,42,,,,,,,,,,,,,1*59
$GPRMC,042539.89,A,3622.5251324,N,12721.7137625,E,0.31,0.00,060825,0.0,E,A*31
$GPGGA,042539.89,3622.5251324,N,12721.7137625,E,1,05,1.0,95.602,M,0.000,M,0.0,*41
$GPGSA,A,3,05,11,13,21,30,,,,,,,,4.5,3.2,3.1,1*2A
$GPGSV,2,1,05,05,61,057,46,11,17,148,47,13,72,030,44,21,31,086,48,1*6F
$GPGSV,2,2,05,30,22,049,43,,,,,,,,,,,,,1*58
$GPRMC,042539.99,A,3622.5250831,N,12721.7137217,E,0.44,0.00,060825,0.0,E,A*39
$GPGGA,042539.99,3622.5250831,N,12721.7137217,E,1,05,1.0,95.040,M,0.000,M,0.0,*4B
$GPGSA,A,3,05,11,13,21,30,,,,,,,,4.5,3.2,3.1,1*2A
$GPGSV,2,1,05,05,61,057,46,11,17,148,46,13,72,030,44,21,31,086,48,1*6E
$GPGSV,2,2,05,30,22,049,43,,,,,,,,,,,,,1*58
$GPRMC,042540.09,A,3622.5251213,N,12721.7142112,E,0.09,0.00,060825,0.0,E,A*38
$GPGGA,042540.09,3622.5251213,N,12721.7142112,E,1,05,1.0,96.045,M,0.000,M,0.0,*45
$GPGSA,A,3,05,11,13,21,30,,,,,,,,4.5,3.2,3.1,1*2A
$GPGSV,2,1,05,05,61,057,46,11,17,148,47,13,72,030,44,21,31,086,48,1*6F
$GPGSV,2,2,05,30,22,049,43,,,,,,,,,,,,,1*58
$GPRMC,042540.19,A,3622.5254661,N,12721.7136853,E,0.09,0.00,060825,0.0,E,A*32
$GPGGA,042540.19,3622.5254661,N,12721.7136853,E,1,05,1.0,94.990,M,0.000,M,0.0,*4C
$GPGSA,A,3,05,11,13,21,30,,,,,,,,4.5,3.2,3.1,1*2A
$GPGSV,2,1,05,05,61,057,46,11,17,148,47,13,72,030,44,21,31,086,48,1*6F
$GPGSV,2,2,05,30,22,049,43,,,,,,,,,,,,,1*58
$GPRMC,042540.29,A,3622.5256444,N,12721.7132563,E,0.11,0.00,060825,0.0,E,A*35
$GPGGA,042540.29,3622.5256444,N,12721.7132563,E,1,05,1.0,94.517,M,0.000,M,0.0,*41
$GPGSA,A,3,05,11,13,21,30,,,,,,,,4.5,3.2,3.1,1*2A
$GPGSV,2,1,05,05,61,057,46,11,17,148,47,13,72,030,44,21,31,086,48,1*6F
$GPGSV,2,2,05,30,22,049,43,,,,,,,,,,,,,1*58
$GPRMC,042540.39,A,3622.5261927,N,12721.7133658,E,0.36,0.00,060825,0.0,E,A*37
$GPGGA,042540.39,3622.5261927,N,12721.7133658,E,1,05,1.0,93.475,M,0.000,M,0.0,*44
$GPGSA,A,3,05,11,13,21,30,,,,,,,,4.5,3.2,3.1,1*2A
$GPGSV,2,1,05,05,61,057,46,11,17,148,47,13,72,030,44,21,31,086,48,1*6F
$GPGSV,2,2,05,30,22,049,43,,,,,,,,,,,,,1*58
$GPRMC,042540.49,A,3622.5264224,N,12721.7131683,E,0.33,0.00,060825,0.0,E,A*3C
$GPGGA,042540.49,3622.5264224,N,12721.7131683,E,1,05,1.0,92.950,M,0.000,M,0.0,*41
$GPGSA,A,3,05,11,13,21,30,,,,,,,,4.5,3.2,3.1,1*2A
$GPGSV,2,1,05,05,61,057,46,11,17,148,47,13,72,030,44,21,31,086,48,1*6F
$GPGSV,2,2,05,30,22,049,43,,,,,,,,,,,,,1*58
$GPRMC,042540.59,A,3622.5262831,N,12721.7128962,E,0.15,0.00,060825,0.0,E,A*39
$GPGGA,042540.59,3622.5262831,N,12721.7128962,E,1,05,1.0,93.030,M,0.000,M,0.0,*4E
$GPGSA,A,3,05,11,13,21,30,,,,,,,,4.5,3.2,3.1,1*2A
$GPGSV,2,1,05,05,61,057,46,11,17,148,47,13,72,030,44,21,31,086,48,1*6F
$GPGSV,2,2,05,30,22,049,43,,,,,,,,,,,,,1*58
$GPRMC,042540.69,A,3622.5259837,N,12721.7127376,E,0.32,0.00,060825,0.0,E,A*31
$GPGGA,042540.69,3622.5259837,N,12721.7127376,E,1,05,1.0,94.521,M,0.000,M,0.0,*41
$GPGSA,A,3,05,11,13,21,30,,,,,,,,4.5,3.2,3.1,1*2A
$GPGSV,2,1,05,05,61,057,46,11,17,148,47,13,72,030,44,21,31,086,48,1*6F
$GPGSV,2,2,05,30,22,049,43,,,,,,,,,,,,,1*58
$GPRMC,042540.79,A,3622.5261429,N,12721.7128678,E,0.15,0.00,060825,0.0,E,A*39
$GPGGA,042540.79,3622.5261429,N,12721.7128678,E,1,05,1.0,94.435,M,0.000,M,0.0,*48
$GPGSA,A,3,05,11,13,21,30,,,,,,,,4.5,3.2,3.1,1*2A
$GPGSV,2,1,05,05,61,057,46,11,17,148,47,13,72,030,44,21,31,086,48,1*6F
$GPGSV,2,2,05,30,22,049,43,,,,,,,,,,,,,1*58
$GPRMC,042540.89,A,3622.5259215,N,12721.7131780,E,0.27,0.00,060825,0.0,E,A*3B
$GPGGA,042540.89,3622.5259215,N,12721.7131780,E,1,05,1.0,95.932,M,0.000,M,0.0,*40
$GPGSA,A,3,05,11,13,21,30,,,,,,,,4.5,3.2,3.1,1*2A
$GPGSV,2,1,05,05,61,057,46,11,17,148,47,13,72,030,44,21,31,086,47,1*60
$GPGSV,2,2,05,30,22,049,43,,,,,,,,,,,,,1*58
$GPRMC,042540.99,A,3622.5256102,N,12721.7141519,E,0.12,0.00,060825,0.0,E,A*33
$GPGGA,042540.99,3622.5256102,N,12721.7141519,E,1,05,1.0,98.434,M,0.000,M,0.0,*48
$GPGSA,A,3,05,11,13,21,30,,,,,,,,4.5,3.2,3.1,1*2A
$GPGSV,2,1,05,05,61,057,46,11,17,148,47,13,72,030,44,21,31,086,47,1*60
$GPGSV,2,2,05,30,22,049,43,,,,,,,,,,,,,1*58
$GPRMC,042541.09,A,3622.5256881,N,12721.7145758,E,0.12,0.00,060825,0.0,E,A*3A
$GPGGA,042541.09,3622.5256881,N,12721.7145758,E,1,05,1.0,99.071,M,0.000,M,0.0,*45
$GPGSA,A,3,05,11,13,21,30,,,,,,,,4.5,3.2,3.1,1*2A
$GPGSV,2,1,05,05,61,057,46,11,17,148,47,13,72,030,44,21,31,086,47,1*60
$GPGSV,2,2,05,30,22,049,43,,,,,,,,,,,,,1*58
$GPRMC,042541.19,A,3622.5258773,N,12721.7144129,E,0.06,0.00,060825,0.0,E,A*33
$GPGGA,042541.19,3622.5258773,N,12721.7144129,E,1,05,1.0,98.915,M,0.000,M,0.0,*43
$GPGSA,A,3,05,11,13,21,30,,,,,,,,4.5,3.2,3.1,1*2A
$GPGSV,2,1,05,05,61,057,46,11,17,148,47,13,72,030,44,21,31,086,47,1*60
$GPGSV,2,2,05,30,22,049,43,,,,,,,,,,,,,1*58
$GPRMC,042541.29,A,3622.5257649,N,12721.7148381,E,0.05,0.00,060825,0.0,E,A*38
$GPGGA,042541.29,3622.5257649,N,12721.7148381,E,1,05,1.0,99.312,M,0.000,M,0.0,*47
$GPGSA,A,3,05,11,13,21,30,,,,,,,,4.5,3.2,3.1,1*2A
$GPGSV,2,1,05,05,61,057,46,11,17,148,47,13,72,030,44,21,31,086,47,1*60
$GPGSV,2,2,05,30,22,049,43,,,,,,,,,,,,,1*58
$GPRMC,042541.39,A,3622.5256430,N,12721.7156166,E,0.15,0.00,060825,0.0,E,A*31
$GPGGA,042541.39,3622.5256430,N,12721.7156166,E,1,05,1.0,99.430,M,0.000,M,0.0,*48
$GPGSA,A,3,05,11,13,21,30,,,,,,,,4.5,3.2,3.1,1*2A
$GPGSV,2,1,05,05,61,057,46,11,17,148,47,13,72,030,44,21,31,086,48,1*6F
$GPGSV,2,2,05,30,22,049,43,,,,,,,,,,,,,1*58
$GPRMC,042541.49,A,3622.5256169,N,12721.7155718,E,0.28,0.00,060825,0.0,E,A*3D
$GPGGA,042541.49,3622.5256169,N,12721.7155718,E,1,05,1.0,99.612,M,0.000,M,0.0,*48
$GPGSA,A,3,05,11,13,21,30,,,,,,,,4.5,3.2,3.1,1*2A
$GPGSV,2,1,05,05,61,057,46,11,17,148,47,13,72,030,44,21,31,086,48,1*6F
$GPGSV,2,2,05,30,22,049,43,,,,,,,,,,,,,1*58
$GPRMC,042541.59,A,3622.5256767,N,12721.7151667,E,0.57,0.00,060825,0.0,E,A*31
$GPGGA,042541.59,3622.5256767,N,12721.7151667,E,1,05,1.0,98.999,M,0.000,M,0.0,*41
$GPGSA,A,3,05,11,13,21,30,,,,,,,,4.5,3.2,3.1,1*2A
$GPGSV,2,1,05,05,61,057,46,11,17,148,47,13,72,030,44,21,31,086,48,1*6F
$GPGSV,2,2,05,30,22,049,43,,,,,,,,,,,,,1*58
$GPRMC,042541.69,A,3622.5255665,N,12721.7152389,E,0.39,0.00,060825,0.0,E,A*3C
$GPGGA,042541.69,3622.5255665,N,12721.7152389,E,1,05,1.0,99.476,M,0.000,M,0.0,*49
$GPGSA,A,3,05,11,13,21,30,,,,,,,,4.5,3.2,3.1,1*2A
$GPGSV,2,1,05,05,61,057,46,11,17,148,47,13,72,030,44,21,31,086,48,1*6F
$GPGSV,2,2,05,30,22,049,43,,,,,,,,,,,,,1*58
$GPRMC,042541.79,A,3622.5256056,N,12721.7150612,E,0.19,0.00,060825,0.0,E,A*3F
$GPGGA,042541.79,3622.5256056,N,12721.7150612,E,1,05,1.0,98.483,M,0.000,M,0.0,*43
$GPGSA,A,3,05,11,13,21,30,,,,,,,,4.5,3.2,3.1,1*2A
$GPGSV,2,1,05,05,61,057,46,11,17,148,47,13,72,030,44,21,31,086,48,1*6F
$GPGSV,2,2,05,30,22,049,43,,,,,,,,,,,,,1*58
$GPRMC,042541.89,A,3622.5254902,N,12721.7157369,E,0.61,0.00,060825,0.0,E,A*3B
$GPGGA,042541.89,3622.5254902,N,12721.7157369,E,1,05,1.0,98.632,M,0.000,M,0.0,*40
$GPGSA,A,3,05,11,13,21,30,,,,,,,,4.5,3.2,3.1,1*2A
$GPGSV,2,1,05,05,61,057,46,11,17,148,46,13,72,030,44,21,31,086,48,1*6E
$GPGSV,2,2,05,30,22,049,43,,,,,,,,,,,,,1*58
$GPRMC,042541.99,A,3622.5254240,N,12721.7161371,E,0.16,0.00,060825,0.0,E,A*3B
$GPGGA,042541.99,3622.5254240,N,12721.7161371,E,1,05,1.0,98.993,M,0.000,M,0.0,*44
$GPGSA,A,3,05,11,13,21,30,,,,,,,,4.5,3.2,3.1,1*2A
$GPGSV,2,1,05,05,61,057,46,11,17,148,47,13,72,030,44,21,31,086,48,1*6F
$GPGSV,2,2,05,30,22,049,43,,,,,,,,,,,,,1*58
$GPRMC,042542.09,A,3622.5251033,N,12721.7169442,E,0.46,0.00,060825,0.0,E,A*38
$GPGGA,042542.09,3622.5251033,N,12721.7169442,E,1,05,1.0,100.318,M,0.000,M,0.0,*7B
$GPGSA,A,3,05,11,13,21,30,,,,,,,,4.5,3.2,3.1,1*2A
$GPGSV,2,1,05,05,61,057,46,11,17,148,47,13,72,030,44,21,31,086,48,1*6F
$GPGSV,2,2,05,30,22,049,43,,,,,,,,,,,,,1*58
$GPRMC,042542.19,A,3622.5250927,N,12721.7172792,E,0.10,0.00,060825,0.0,E,A*33
$GPGGA,042542.19,3622.5250927,N,12721.7172792,E,1,05,1.0,100.608,M,0.000,M,0.0,*77
$GPGSA,A,3,05,11,13,21,30,,,,,,,,4.5,3.2,3.1,1*2A
$GPGSV,2,1,05,05,61,057,46,11,17,148,47,13,72,030,44,21,31,086,48,1*6F
$GPGSV,2,2,05,30,22,049,43,,,,,,,,,,,,,1*58
$GPRMC,042542.29,A,3622.5248067,N,12721.7175370,E,0.12,0.00,060825,0.0,E,A*39
$GPGGA,042542.29,3622.5248067,N,12721.7175370,E,1,05,1.0,101.692,M,0.000,M,0.0,*7D
$GPGSA,A,3,05,11,13,21,30,,,,,,,,4.5,3.2,3.0,1*2B
$GPGSV,2,1,05,05,61,057,46,11,17,148,47,13,72,030,44,21,31,086,48,1*6F
$GPGSV,2,2,05,30,22,049,43,,,,,,,,,,,,,1*58
$GPRMC,042542.39,A,3622.5245672,N,12721.7178282,E,0.27,0.00,060825,0.0,E,A*30
$GPGGA,042542.39,3622.5245672,N,12721.7178282,E,1,05,1.0,102.659,M,0.000,M,0.0,*76
$GPGSA,A,3,05,11,13,21,30,,,,,,,,4.5,3.2,3.0,1*2B
$GPGSV,2,1,05,05,61,057,46,11,17,148,47,13,72,030,44,21,31,086,48,1*6F
$GPGSV,2,2,05,30,22,049,43,,,,,,,,,,,,,1*58
$GPRMC,042542.49,A,3622.5245854,N,12721.7179374,E,0.27,0.00,060825,0.0,E,A*34
$GPGGA,042542.49,3622.5245854,N,12721.7179374,E,1,05,1.0,103.079,M,0.000,M,0.0,*77
$GPGSA,A,3,05,11,13,21,30,,,,,,,,4.5,3.2,3.0,1*2B
$GPGSV,2,1,05,05,61,057,46,11,17,148,47,13,72,030,44,21,31,086,48,1*6F
$GPGSV,2,2,05,30,22,049,42,,,,,,,,,,,,,1*59
$GPRMC,042542.59,A,3622.5243437,N,12721.7182979,E,0.15,0.00,060825,0.0,E,A*38
$GPGGA,042542.59,3622.5243437,N,12721.7182979,E,1,05,1.0,104.952,M,0.000,M,0.0,*7D
$GPGSA,A,3,05,11,13,21,30,,,,,,,,4.5,3.2,3.0,1*2B
$GPGSV,2,1,05,05,61,057,46,11,17,148,47,13,72,030,44,21,31,086,48,1*6F
$GPGSV,2,2,05,30,22,049,42,,,,,,,,,,,,,1*59
$GPRMC,042542.69,A,3622.5243180,N,12721.7181295,E,0.26,0.00,060825,0.0,E,A*38
$GPGGA,042542.69,3622.5243180,N,12721.7181295,E,1,05,1.0,105.312,M,0.000,M,0.0,*72
$GPGSA,A,3,05,11,13,21,30,,,,,,,,4.5,3.2,3.0,1*2B
$GPGSV,2,1,05,05,61,057,46,11,17,148,47,13,72,030,44,21,31,086,48,1*6F
$GPGSV,2,2,05,30,22,049,42,,,,,,,,,,,,,1*59
$GPRMC,042542.79,A,3622.5241330,N,12721.7183056,E,0.24,0.00,060825,0.0,E,A*3F
$GPGGA,042542.79,3622.5241330,N,12721.7183056,E,1,05,1.0,105.910,M,0.000,M,0.0,*7F
$GPGSA,A,3,05,11,13,21,30,,,,,,,,4.5,3.2,3.0,1*2B
$GPGSV,2,1,05,05,61,057,46,11,17,148,47,13,72,030,44,21,31,086,48,1*6F
$GPGSV,2,2,05,30,22,049,42,,,,,,,,,,,,,1*59
$GPRMC,042542.89,A,3622.5237971,N,12721.7178890,E,0.35,0.00,060825,0.0,E,A*38
$GPGGA,042542.89,3622.5237971,N,12721.7178890,E,1,05,1.0,105.629,M,0.000,M,0.0,*7D
$GPGSA,A,3,05,11,13,21,30,,,,,,,,4.5,3.2,3.0,1*2B
$GPGSV,2,1,05,05,61,057,46,11,17,148,47,13,72,030,44,21,31,086,48,1*6F
$GPGSV,2,2,05,30,22,049,42,,,,,,,,,,,,,1*59
$GPRMC,042542.99,A,3622.5236450,N,12721.7183868,E,0.36,0.00,060825,0.0,E,A*36
$GPGGA,042542.99,3622.5236450,N,12721.7183868,E,1,05,1.0,105.728,M,0.000,M,0.0,*70
$GPGSA,A,3,05,11,13,21,30,,,,,,,,4.4,3.2,3.0,1*2A
$GPGSV,2,1,05,05,61,057,46,11,17,148,47,13,72,030,44,21,31,086,48,1*6F
$GPGSV,2,2,05,30,22,049,42,,,,,,,,,,,,,1*59
$GPRMC,042543.09,A,3622.5235904,N,12721.7188473,E,0.17,0.00,060825,0.0,E,A*3F
$GPGGA,042543.09,3622.5235904,N,12721.7188473,E,1,05,1.0,106.203,M,0.000,M,0.0,*75
$GPGSA,A,3,05,11,13,21,30,,,,,,,,4.4,3.2,3.0,1*2A
$GPGSV,2,1,05,05,61,057,46,11,17,148,47,13,72,030,44,21,31,086,48,1*6F
$GPGSV,2,2,05,30,22,049,42,,,,,,,,,,,,,1*59
$GPRMC,042543.19,A,3622.5237548,N,12721.7188517,E,0.21,0.00,060825,0.0,E,A*3E
$GPGGA,042543.19,3622.5237548,N,12721.7188517,E,1,05,1.0,105.489,M,0.000,M,0.0,*76
$GPGSA,A,3,05,11,13,21,30,,,,,,,,4.4,3.2,3.0,1*2A
$GPGSV,2,1,05,05,61,057,46,11,17,148,47,13,72,030,44,21,31,086,48,1*6F
$GPGSV,2,2,05,30,22,049,42,,,,,,,,,,,,,1*59
$GPRMC,042543.29,A,3622.5242583,N,12721.7179064,E,0.27,0.00,060825,0.0,E,A*31
$GPGGA,042543.29,3622.5242583,N,12721.7179064,E,1,05,1.0,103.210,M,0.000,M,0.0,*7F
$GPGSA,A,3,05,11,13,21,30,,,,,,,,4.4,3.2,3.0,1*2A
$GPGSV,2,1,05,05,61,057,46,11,17,148,47,13,72,030,44,21,31,086,48,1*6F
$GPGSV,2,2,05,30,22,049,42,,,,,,,,,,,,,1*59
$GPRMC,042543.39,A,3622.5241900,N,12721.7183827,E,0.36,0.00,060825,0.0,E,A*3E
$GPGGA,042543.39,3622.5241900,N,12721.7183827,E,1,05,1.0,102.959,M,0.000,M,0.0,*77
$GPGSA,A,3,05,11,13,21,30,,,,,,,,4.4,3.2,3.0,1*2A
$GPGSV,2,1,05,05,61,057,46,11,17,148,47,13,72,030,44,21,31,086,48,1*6F
$GPGSV,2,2,05,30,22,049,42,,,,,,,,,,,,,1*59
$GPRMC,042543.49,A,3622.5241244,N,12721.7184814,E,0.17,0.00,060825,0.0,E,A*36
$GPGGA,042543.49,3622.5241244,N,12721.7184814,E,1,05,1.0,103.114,M,0.000,M,0.0,*7C
$GPGSA,A,3,05,11,13,21,30,,,,,,,,4.4,3.2,3.0,1*2A
$GPGSV,2,1,05,05,61,057,46,11,17,148,47,13,72,030,44,21,31,086,48,1*6F
$GPGSV,2,2,05,30,22,049,42,,,,,,,,,,,,,1*59
$GPRMC,042543.59,A,3622.5238444,N,12721.7197062,E,0.18,0.00,060825,0.0,E,A*3B
$GPGGA,042543.59,3622.5238444,N,12721.7197062,E,1,05,1.0,104.440,M,0.000,M,0.0,*7D
$GPGSA,A,3,05,11,13,21,30,,,,,,,,4.4,3.2,3.0,1*2A
$GPGSV,2,1,05,05,61,057,46,11,17,148,47,13,72,030,44,21,31,086,48,1*6F
$GPGSV,2,2,05,30,22,049,42,,,,,,,,,,,,,1*59
$GPRMC,042543.69,A,3622.5239732,N,12721.7197813,E,0.14,0.00,060825,0.0,E,A*39
$GPGGA,042543.69,3622.5239732,N,12721.7197813,E,1,05,1.0,104.303,M,0.000,M,0.0,*73
$GPGSA,A,3,05,11,13,21,30,,,,,,,,4.4,3.2,3.0,1*2A
$GPGSV,2,1,05,05,61,057,46,11,17,148,47,13,72,030,44,21,31,086,48,1*6F
$GPGSV,2,2,05,30,22,049,42,,,,,,,,,,,,,1*59
$GPRMC,042543.79,A,3622.5241129,N,12721.7198605,E,0.39,0.00,060825,0.0,E,A*32
$GPGGA,042543.79,3622.5241129,N,12721.7198605,E,1,05,1.0,102.486,M,0.000,M,0.0,*7B
$GPGSA,A,3,05,11,13,21,30,,,,,,,,4.4,3.2,3.0,1*2A
$GPGSV,2,1,05,05,61,057,46,11,17,148,47,13,72,030,44,21,31,086,48,1*6F
$GPGSV,2,2,05,30,22,049,42,,,,,,,,,,,,,1*59
$GPRMC,042543.89,A,3622.5240389,N,12721.7204054,E,0.59,0.00,060825,0.0,E,A*36
$GPGGA,042543.89,3622.5240389,N,12721.7204054,E,1,05,1.0,102.911,M,0.000,M,0.0,*7A
$GPGSA,A,3,05,11,13,21,30,,,,,,,,4.4,3.2,3.0,1*2A
$GPGSV,2,1,05,05,61,057,46,11,17,148,47,13,72,030,44,21,31,086,48,1*6F
$GPGSV,2,2,05,30,22,049,42,,,,,,,,,,,,,1*59
$GPRMC,042543.99,A,3622.5241358,N,12721.7207959,E,0.63,0.00,060825,0.0,E,A*34
$GPGGA,042543.99,3622.5241358,N,12721.7207959,E,1,05,1.0,102.747,M,0.000,M,0.0,*7C
$GPGSA,A,3,05,11,13,21,30,,,,,,,,4.4,3.2,3.0,1*2A
$GPGSV,2,1,05,05,61,057,46,11,17,148,47,13,72,030,44,21,31,086,48,1*6F
$GPGSV,2,2,05,30,22,049,42,,,,,,,,,,,,,1*59
$GPRMC,042544.09,A,3622.5244109,N,12721.7205557,E,0.12,0.00,060825,0.0,E,A*3F
$GPGGA,042544.09,3622.5244109,N,12721.7205557,E,1,05,1.0,101.940,M,0.000,M,0.0,*7B
$GPGSA,A,3,05,11,13,21,30,,,,,,,,4.4,3.2,3.0,1*2A
$GPGSV,2,1,05,05,61,057,46,11,17,148,47,13,72,030,44,21,31,086,48,1*6F
$GPGSV,2,2,05,30,22,049,43,,,,,,,,,,,,,1*58
$GPRMC,042544.19,A,3622.5243049,N,12721.7202086,E,0.06,0.00,060825,0.0,E,A*37
$GPGGA,042544.19,3622.5243049,N,12721.7202086,E,1,05,1.0,101.300,M,0.000,M,0.0,*78
$GPGSA,A,3,05,11,13,21,30,,,,,,,,4.4,3.2,3.0,1*2A
$GPGSV,2,1,05,05,61,057,46,11,17,148,47,13,72,030,44,21,31,086,48,1*6F
$GPGSV,2,2,05,30,22,049,43,,,,,,,,,,,,,1*58
$GPRMC,042544.29,A,3622.5245614,N,12721.7194100,E,0.16,0.00,060825,0.0,E,A*3E
$GPGGA,042544.29,3622.5245614,N,12721.7194100,E,1,05,1.0,99.499,M,0.000,M,0.0,*47
$GPGSA,A,3,05,11,13,21,30,,,,,,,,4.4,3.2,3.0,1*2A
$GPGSV,2,1,05,05,61,057,46,11,17,148,47,13,72,030,44,21,31,086,48,1*6F
$GPGSV,2,2,05,30,22,049,43,,,,,,,,,,,,,1*58
$GPRMC,042544.39,A,3622.5246194,N,12721.7189181,E,0.11,0.00,060825,0.0,E,A*31
$GPGGA,042544.39,3622.5246194,N,12721.7189181,E,1,05,1.0,98.621,M,0.000,M,0.0,*4F
$GPGSA,A,3,05,11,13,21,30,,,,,,,,4.4,3.2,3.0,1*2A
$GPGSV,2,1,05,05,61,057,46,11,17,148,47,13,72,030,44,21,31,086,48,1*6F
$GPGSV,2,2,05,30,22,049,43,,,,,,,,,,,,,1*58
$GPRMC,042544.49,A,3622.5246676,N,12721.7193904,E,0.13,0.00,060825,0.0,E,A*31
$GPGGA,042544.49,3622.5246676,N,12721.7193904,E,1,05,1.0,98.356,M,0.000,M,0.0,*48
$GPGSA,A,3,05,11,13,21,30,,,,,,,,4.4,3.2,3.0,1*2A
$GPGSV,2,1,05,05,61,057,46,11,17,148,46,13,72,030,44,21,31,086,48,1*6E
$GPGSV,2,2,05,30,22,049,43,,,,,,,,,,,,,1*58
$GPRMC,042544.59,A,3622.5248218,N,12721.7188108,E,0.04,0.00,060825,0.0,E,A*3A
$GPGGA,042544.59,3622.5248218,N,12721.7188108,E,1,05,1.0,96.610,M,0.000,M,0.0,*4C
$GPGSA,A,3,05,11,13,21,30,,,,,,,,4.4,3.2,3.0,1*2A
$GPGSV,2,1,05,05,61,057,46,11,17,148,46,13,72,030,44,21,31,086,48,1*6E
$GPGSV,2,2,05,30,22,049,43,,,,,,,,,,,,,1*58
$GPRMC,042544.69,A,3622.5250307,N,12721.7188305,E,0.14,0.00,060825,0.0,E,A*31
$GPGGA,042544.69,3622.5250307,N,12721.7188305,E,1,05,1.0,95.900,M,0.000,M,0.0,*4B
$GPGSA,A,3,05,11,13,21,30,,,,,,,,4.4,3.2,3.0,1*2A
$GPGSV,2,1,05,05,61,057,46,11,17,148,46,13,72,030,44,21,31,086,48,1*6E
$GPGSV,2,2,05,30,22,049,43,,,,,,,,,,,,,1*58
$GPRMC,042544.79,A,3622.5253215,N,12721.7188182,E,0.32,0.00,060825,0.0,E,A*38
$GPGGA,042544.79,3622.5253215,N,12721.7188182,E,1,05,1.0,95.032,M,0.000,M,0.0,*4E
$GPGSA,A,3,05,11,13,21,30,,,,,,,,4.4,3.2,3.0,1*2A
$GPGSV,2,1,05,05,61,057,46,11,17,148,46,13,72,030,44,21,31,086,48,1*6E
$GPGSV,2,2,05,30,22,049,43,,,,,,,,,,,,,1*58
$GPRMC,042544.89,A,3622.5257502,N,12721.7178972,E,0.50,0.00,060825,0.0,E,A*3E
$GPGGA,042544.89,3622.5257502,N,12721.7178972,E,1,05,1.0,92.774,M,0.000,M,0.0,*4E
$GPGSA,A,3,05,11,13,21,30,,,,,,,,4.4,3.2,3.0,1*2A
$GPGSV,2,1,05,05,61,057,46,11,17,148,46,13,72,030,44,21,31,086,48,1*6E
$GPGSV,2,2,05,30,22,049,43,,,,,,,,,,,,,1*58
$GPRMC,042544.99,A,3622.5256739,N,12721.7190125,E,0.19,0.00,060825,0.0,E,A*35
$GPGGA,042544.99,3622.5256739,N,12721.7190125,E,1,05,1.0,93.605,M,0.000,M,0.0,*4E
$GPGSA,A,3,05,11,13,21,30,,,,,,,,4.4,3.2,3.0,1*2A
$GPGSV,2,1,05,05,61,057,46,11,17,148,46,13,72,030,44,21,31,086,48,1*6E
$GPGSV,2,2,05,30,22,049,43,,,,,,,,,,,,,1*58
$GPRMC,042545.09,A,3622.5258429,N,12721.7181324,E,0.31,0.00,060825,0.0,E,A*38
$GPGGA,042545.09,3622.5258429,N,12721.7181324,E,1,05,1.0,92.513,M,0.000,M,0.0,*4C
$GPGSA,A,3,05,11,13,21,30,,,,,,,,4.4,3.2,3.0,1*2A
$GPGSV,2,1,05,05,61,057,46,11,17,148,46,13,72,030,44,21,31,086,48,1*6E
$GPGSV,2,2,05,30,22,049,43,,,,,,,,,,,,,1*58
$GPRMC,042545.19,A,3622.5259218,N,12721.7182089,E,0.35,0.00,060825,0.0,E,A*3F
$GPGGA,042545.19,3622.5259218,N,12721.7182089,E,1,05,1.0,91.934,M,0.000,M,0.0,*45
$GPGSA,A,3,05,11,13,21,30,,,,,,,,4.4,3.2,3.0,1*2A
$GPGSV,2,1,05,05,61,057,46,11,17,148,46,13,72,030,44,21,31,086,48,1*6E
$GPGSV,2,2,05,30,22,049,43,,,,,,,,,,,,,1*58
$GPRMC,042545.29,A,3622.5263308,N,12721.7178649,E,0.43,0.00,060825,0.0,E,A*3B
$GPGGA,042545.29,3622.5263308,N,12721.7178649,E,1,05,1.0,90.424,M,0.000,M,0.0,*4D
$GPGSA,A,3,05,11,13,21,30,,,,,,,,4.4,3.2,3.0,1*2A
$GPGSV,2,1,05,05,61,057,46,11,17,148,46,13,72,030,44,21,31,086,48,1*6E
$GPGSV,2,2,05,30,22,049,43,,,,,,,,,,,,,1*58
$GPRMC,042545.39,A,3622.5265058,N,12721.7172198,E,0.15,0.00,060825,0.0,E,A*38
$GPGGA,042545.39,3622.5265058,N,12721.7172198,E,1,05,1.0,88.621,M,0.000,M,0.0,*43
$GPGSA,A,3,05,11,13,21,30,,,,,,,,4.4,3.2,3.0,1*2A
$GPGSV,2,1,05,05,61,057,46,11,17,148,46,13,72,030,44,21,31,086,48,1*6E
$GPGSV,2,2,05,30,22,049,43,,,,,,,,,,,,,1*58
$GPRMC,042545.49,A,3622.5265677,N,12721.7173923,E,0.39,0.00,060825,0.0,E,A*33
$GPGGA,042545.49,3622.5265677,N,12721.7173923,E,1,05,1.0,87.771,M,0.000,M,0.0,*4D
$GPGSA,A,3,05,11,13,21,30,,,,,,,,4.4,3.2,3.0,1*2A
$GPGSV,2,1,05,05,61,057,46,11,17,148,46,13,72,030,44,21,31,086,48,1*6E
$GPGSV,2,2,05,30,22,049,43,,,,,,,,,,,,,1*58
$GPRMC,042545.59,A,3622.5266685,N,12721.7167407,E,0.17,0.00,060825,0.0,E,A*3E
$GPGGA,042545.59,3622.5266685,N,12721.7167407,E,1,05,1.0,86.415,M,0.000,M,0.0,*4C
$GPGSA,A,3,05,11,13,21,30,,,,,,,,4.4,3.2,3.0,1*2A
$GPGSV,2,1,05,05,61,057,46,11,17,148,46,13,72,030,45,21,31,086,48,1*6F
$GPGSV,2,2,05,30,22,049,43,,,,,,,,,,,,,1*58
$GPRMC,042545.69,A,3622.5268009,N,12721.7161617,E,0.23,0.00,060825,0.0,E,A*33
$GPGGA,042545.69,3622.5268009,N,12721.7161617,E,1,05,1.0,84.618,M,0.000,M,0.0,*4B
$GPGSA,A,3,05,11,13,21,30,,,,,,,,4.4,3.2,3.0,1*2A
$GPGSV,2,1,05,05,61,057,46,11,17,148,46,13,72,030,45,21,31,086,48,1*6F
$GPGSV,2,2,05,30,22,049,43,,,,,,,,,,,,,1*58
$GPRMC,042545.79,A,3622.5269218,N,12721.7155522,E,0.26,0.00,060825,0.0,E,A*36
$GPGGA,042545.79,3622.5269218,N,12721.7155522,E,1,05,1.0,83.796,M,0.000,M,0.0,*4B
$GPGSA,A,3,05,11,13,21,30,,,,,,,,4.4,3.2,3.0,1*2A
$GPGSV,2,1,05,05,61,057,46,11,17,148,46,13,72,030,45,21,31,086,48,1*6F
$GPGSV,2,2,05,30,22,049,43,,,,,,,,,,,,,1*58
$GPRMC,042545.89,A,3622.5267982,N,12721.7155208,E,0.28,0.00,060825,0.0,E,A*3E
$GPGGA,042545.89,3622.5267982,N,12721.7155208,E,1,05,1.0,83.827,M,0.000,M,0.0,*48
$GPGSA,A,3,05,11,13,21,30,,,,,,,,4.4,3.2,3.0,1*2A
$GPGSV,2,1,05,05,61,057,46,11,17,148,46,13,72,030,45,21,31,086,48,1*6F
$GPGSV,2,2,05,30,22,049,43,,,,,,,,,,,,,1*58
$GPRMC,042545.99,A,3622.5266122,N,12721.7152975,E,0.38,0.00,060825,0.0,E,A*3B
$GPGGA,042545.99,3622.5266122,N,12721.7152975,E,1,05,1.0,84.042,M,0.000,M,0.0,*40
$GPGSA,A,3,05,11,13,21,30,,,,,,,,4.4,3.2,3.0,1*2A
$GPGSV,2,1,05,05,61,057,47,11,17,148,46,13,72,030,44,21,31,086,48,1*6F
$GPGSV,2,2,05,30,22,049,43,,,,,,,,,,,,,1*58
$GPRMC,042546.09,A,3622.5266862,N,12721.7153015,E,0.29,0.00,060825,0.0,E,A*32
$GPGGA,042546.09,3622.5266862,N,12721.7153015,E,1,05,1.0,83.331,M,0.000,M,0.0,*49
$GPGSA,A,3,05,11,13,21,30,,,,,,,,4.4,3.2,3.0,1*2A
$GPGSV,2,1,05,05,61,057,47,11,17,148,46,13,72,030,44,21,31,086,48,1*6F
$GPGSV,2,2,05,30,22,049,43,,,,,,,,,,,,,1*58
$GPRMC,042546.19,A,3622.5264264,N,12721.7155253,E,0.07,0.00,060825,0.0,E,A*37
$GPGGA,042546.19,3622.5264264,N,12721.7155253,E,1,05,1.0,83.511,M,0.000,M,0.0,*44
$GPGSA,A,3,05,11,13,21,30,,,,,,,,4.4,3.2,3.0,1*2A
$GPGSV,2,1,05,05,61,057,47,11,17,148,46,13,72,030,44,21,31,086,48,1*6F
$GPGSV,2,2,05,30,22,049,42,,,,,,,,,,,,,1*59
$GPRMC,042546.29,A,3622.5264154,N,12721.7153212,E,0.54,0.00,060825,0.0,E,A*31
$GPGGA,042546.29,3622.5264154,N,12721.7153212,E,1,05,1.0,83.130,M,0.000,M,0.0,*43
$GPGSA,A,3,05,11,13,21,30,,,,,,,,4.4,3.2,3.0,1*2A
$GPGSV,2,1,05,05,61,057,47,11,17,148,46,13,72,030,44,21,31,086,48,1*6F
$GPGSV,2,2,05,30,22,049,42,,,,,,,,,,,,,1*59
$GPRMC,042546.39,A,3622.5265873,N,12721.7148408,E,0.55,0.00,060825,0.0,E,A*3B
$GPGGA,042546.39,3622.5265873,N,12721.7148408,E,1,05,1.0,81.225,M,0.000,M,0.0,*4D
$GPGSA,A,3,05,11,13,21,30,,,,,,,,4.4,3.2,3.0,1*2A
$GPGSV,2,1,05,05,61,057,47,11,17,148,46,13,72,030,45,21,31,086,48,1*6E
$GPGSV,2,2,05,30,22,049,43,,,,,,,,,,,,,1*58
$GPRMC,042546.49,A,3622.5266098,N,12721.7146110,E,0.36,0.00,060825,0.0,E,A*35
$GPGGA,042546.49,3622.5266098,N,12721.7146110,E,1,05,1.0,80.518,M,0.000,M,0.0,*4E
$GPGSA,A,3,05,11,13,21,30,,,,,,,,4.4,3.2,3.0,1*2A
$GPGSV,2,1,05,05,61,057,47,11,17,148,46,13,72,030,45,21,31,086,48,1*6E
$GPGSV,2,2,05,30,22,049,43,,,,,,,,,,,,,1*58
$GPRMC,042546.59,A,3622.5264699,N,12721.7150176,E,0.35,0.00,060825,0.0,E,A*35
$GPGGA,042546.59,3622.5264699,N,12721.7150176,E,1,05,1.0,81.490,M,0.000,M,0.0,*4D
$GPGSA,A,3,05,11,13,21,30,,,,,,,,4.4,3.2,3.0,1*2A
$GPGSV,2,1,05,05,61,057,47,11,17,148,46,13,72,030,45,21,31,086,48,1*6E
$GPGSV,2,2,05,30,22,049,43,,,,,,,,,,,,,1*58
$GPRMC,042546.69,A,3622.5262024,N,12721.7158004,E,0.25,0.00,060825,0.0,E,A*3D
$GPGGA,042546.69,3622.5262024,N,12721.7158004,E,1,05,1.0,82.954,M,0.000,M,0.0,*42
$GPGSA,A,3,05,11,13,21,30,,,,,,,,4.4,3.2,3.0,1*2A
$GPGSV,2,1,05,05,61,057,47,11,17,148,46,13,72,030,44,21,31,086,48,1*6F
$GPGSV,2,2,05,30,22,049,43,,,,,,,,,,,,,1*58
$GPRMC,042546.79,A,3622.5263709,N,12721.7155677,E,0.68,0.00,060825,0.0,E,A*33
$GPGGA,042546.79,3622.5263709,N,12721.7155677,E,1,05,1.0,82.253,M,0.000,M,0.0,*49
$GPGSA,A,3,05,11,13,21,30,,,,,,,,4.4,3.2,3.0,1*2A
$GPGSV,2,1,05,05,61,057,47,11,17,148,46,13,72,030,44,21,31,086,48,1*6F
$GPGSV,2,2,05,30,22,049,43,,,,,,,,,,,,,1*58
$GPRMC,042546.89,A,3622.5264289,N,12721.7157197,E,0.14,0.00,060825,0.0,E,A*36
$GPGGA,042546.89,3622.5264289,N,12721.7157197,E,1,05,1.0,82.168,M,0.000,M,0.0,*4C
$GPGSA,A,3,05,11,13,21,30,,,,,,,,4.4,3.2,3.0,1*2A
$GPGSV,2,1,05,05,61,057,47,11,17,148,46,13,72,030,45,21,31,086,48,1*6E
$GPGSV,2,2,05,30,22,049,43,,,,,,,,,,,,,1*58
$GPRMC,042546.99,A,3622.5264876,N,12721.7152624,E,0.25,0.00,060825,0.0,E,A*35
$GPGGA,042546.99,3622.5264876,N,12721.7152624,E,1,05,1.0,81.355,M,0.000,M,0.0,*42
$GPGSA,A,3,05,11,13,21,30,,,,,,,,4.4,3.2,3.0,1*2A
$GPGSV,2,1,05,05,61,057,47,11,17,148,46,13,72,030,45,21,31,086,48,1*6E
$GPGSV,2,2,05,30,22,049,43,,,,,,,,,,,,,1*58
$GPRMC,042547.09,A,3622.5262091,N,12721.7156161,E,0.19,0.00,060825,0.0,E,A*37
$GPGGA,042547.09,3622.5262091,N,12721.7156161,E,1,05,1.0,82.174,M,0.000,M,0.0,*4D
$GPGSA,A,3,05,11,13,21,30,,,,,,,,4.4,3.2,3.0,1*2A
$GPGSV,2,1,05,05,61,057,47,11,17,148,46,13,72,030,45,21,31,086,49,1*6F
$GPGSV,2,2,05,30,22,049,43,,,,,,,,,,,,,1*58
$GPRMC,042547.19,A,3622.5259782,N,12721.7160125,E,0.18,0.00,060825,0.0,E,A*3F
$GPGGA,042547.19,3622.5259782,N,12721.7160125,E,1,05,1.0,83.831,M,0.000,M,0.0,*4D
$GPGSA,A,3,05,11,13,21,30,,,,,,,,4.4,3.2,3.0,1*2A
$GPGSV,2,1,05,05,61,057,47,11,17,148,46,13,72,030,45,21,31,086,49,1*6F
$GPGSV,2,2,05,30,22,049,43,,,,,,,,,,,,,1*58
$GPRMC,042547.29,A,3622.5257221,N,12721.7167817,E,0.12,0.00,060825,0.0,E,A*3B
$GPGGA,042547.29,3622.5257221,N,12721.7167817,E,1,05,1.0,84.981,M,0.000,M,0.0,*4E
$GPGSA,A,3,05,11,13,21,30,,,,,,,,4.4,3.2,3.0,1*2A
$GPGSV,2,1,05,05,61,057,47,11,17,148,46,13,72,030,45,21,31,086,48,1*6E
$GPGSV,2,2,05,30,22,049,43,,,,,,,,,,,,,1*58
$GPRMC,042547.39,A,3622.5257511,N,12721.7166412,E,0.15,0.00,060825,0.0,E,A*31
$GPGGA,042547.39,3622.5257511,N,12721.7166412,E,1,05,1.0,84.494,M,0.000,M,0.0,*4A
$GPGSA,A,3,05,11,13,21,30,,,,,,,,4.4,3.2,3.0,1*2A
$GPGSV,2,1,05,05,61,057,47,11,17,148,46,13,72,030,46,21,31,086,48,1*6D
$GPGSV,2,2,05,30,22,049,43,,,,,,,,,,,,,1*58
$GPRMC,042547.49,A,3622.5257180,N,12721.7163273,E,0.24,0.00,060825,0.0,E,A*3C
$GPGGA,042547.49,3622.5257180,N,12721.7163273,E,1,05,1.0,84.511,M,0.000,M,0.0,*49
$GPGSA,A,3,05,11,13,21,30,,,,,,,,4.4,3.2,3.0,1*2A
$GPGSV,2,1,05,05,61,057,47,11,17,148,46,13,72,030,46,21,31,086,48,1*6D
$GPGSV,2,2,05,30,22,049,43,,,,,,,,,,,,,1*58
$GPRMC,042547.59,A,3622.5254405,N,12721.7171712,E,0.21,0.00,060825,0.0,E,A*32
$GPGGA,042547.59,3622.5254405,N,12721.7171712,E,1,05,1.0,86.307,M,0.000,M,0.0,*41
$GPGSA,A,3,05,11,13,21,30,,,,,,,,4.4,3.2,3.0,1*2A
$GPGSV,2,1,05,05,61,057,47,11,17,148,46,13,72,030,46,21,31,086,48,1*6D
$GPGSV,2,2,05,30,22,049,43,,,,,,,,,,,,,1*58
$GPRMC,042547.69,A,3622.5255058,N,12721.7180327,E,0.28,0.00,060825,0.0,E,A*39
$GPGGA,042547.69,3622.5255058,N,12721.7180327,E,1,05,1.0,87.667,M,0.000,M,0.0,*41
$GPGSA,A,3,05,11,13,21,30,,,,,,,,4.4,3.2,3.0,1*2A
$GPGSV,2,1,05,05,61,057,47,11,17,148,46,13,72,030,46,21,31,086,48,1*6D
$GPGSV,2,2,05,30,22,049,43,,,,,,,,,,,,,1*58
$GPRMC,042547.79,A,3622.5255058,N,12721.7176549,E,0.20,0.00,060825,0.0,E,A*37
$GPGGA,042547.79,3622.5255058,N,12721.7176549,E,1,05,1.0,87.445,M,0.000,M,0.0,*45
$GPGSA,A,3,05,11,13,21,30,,,,,,,,4.4,3.2,3.0,1*2A
$GPGSV,2,1,05,05,61,057,47,11,17,148,46,13,72,030,46,21,31,086,48,1*6D
$GPGSV,2,2,05,30,22,049,43,,,,,,,,,,,,,1*58
$GPRMC,042547.89,A,3622.5253632,N,12721.7134729,E,0.23,0.00,060825,0.0,E,A*35
$GPGGA,042547.89,3622.5253632,N,12721.7134729,E,1,06,1.0,82.119,M,0.000,M,0.0,*4E
$GPGSA,A,3,05,11,13,21,24,30,,,,,,,3.1,2.1,2.3,1*2E
$GPGSV,2,1,06,05,61,057,47,11,17,148,46,13,72,030,46,21,31,086,48,1*6E
$GPGSV,2,2,06,24,20,189,38,30,22,049,43,,,,,,,,,1*64
$GPRMC,042547.99,A,3622.5249887,N,12721.7142382,E,0.44,0.00,060825,0.0,E,A*3A
$GPGGA,042547.99,3622.5249887,N,12721.7142382,E,1,06,1.0,83.654,M,0.000,M,0.0,*4F
$GPGSA,A,3,05,11,13,21,24,30,,,,,,,3.1,2.1,2.3,1*2E
$GPGSV,2,1,06,05,61,057,47,11,17,148,46,13,72,030,46,21,31,086,48,1*6E
$GPGSV,2,2,06,24,20,189,38,30,22,049,43,,,,,,,,,1*64
$GPRMC,042548.09,A,3622.5244905,N,12721.7148618,E,0.20,0.00,060825,0.0,E,A*34
$GPGGA,042548.09,3622.5244905,N,12721.7148618,E,1,06,1.0,86.232,M,0.000,M,0.0,*42
$GPGSA,A,3,05,11,13,21,24,30,,,,,,,3.1,2.1,2.3,1*2E
$GPGSV,2,1,06,05,61,057,47,11,17,148,46,13,72,030,46,21,31,086,48,1*6E
$GPGSV,2,2,06,24,20,189,38,30,22,049,44,,,,,,,,,1*63
$GPRMC,042548.19,A,3622.5245364,N,12721.7148742,E,0.35,0.00,060825,0.0,E,A*33
$GPGGA,042548.19,3622.5245364,N,12721.7148742,E,1,06,1.0,86.595,M,0.000,M,0.0,*4B
$GPGSA,A,3,05,11,13,21,24,30,,,,,,,3.1,2.1,2.3,1*2E
$GPGSV,2,1,06,05,61,057,47,11,17,148,46,13,72,030,46,21,31,086,48,1*6E
$GPGSV,2,2,06,24,20,189,38,30,22,049,44,,,,,,,,,1*63
$GPRMC,042548.29,A,3622.5244102,N,12721.7147622,E,0.27,0.00,060825,0.0,E,A*38
$GPGGA,042548.29,3622.5244102,N,12721.7147622,E,1,06,1.0,87.692,M,0.000,M,0.0,*46
